[
  {
    "name": "경남지방노동위원회",
    "category": "관공서",
    "type": "관공서",
    "address": "경상남도 창원 의창구 창원대로363번길 22-47, 10층",
    "tel": "055-239-8000",
    "lat": 35.236773,
    "lng": 128.641924
  },
  {
    "name": "창원지청",
    "category": "관공서",
    "type": "관공서",
    "address": "경상남도 창원시 성산구 창이대로532번길 28",
    "tel": "055-239-6500",
    "lat": 35.233656,
    "lng": 128.689237
  },
  {
    "name": "창원세무서",
    "category": "관공서",
    "type": "관공서",
    "address": "경상남도 창원시 의창구 중앙대로209번길 16",
    "tel": "055-239-0200",
    "lat": 35.232967,
    "lng": 128.685686
  },
  {
    "name": "경북북부제1교도소",
    "category": "관공서",
    "type": "관공서",
    "address": "경상북도 청송군 진보면 양정길 231 (광덕리)",
    "tel": "054-874-4500",
    "lat": 35.233117,
    "lng": 128.690212
  },
  {
    "name": "경북북부제3교도소",
    "category": "관공서",
    "type": "관공서",
    "address": "경상북도 청송군 진보면 양정길 231 (광덕리)",
    "tel": "054-872-9511",
    "lat": 35.233117,
    "lng": 128.690212
  },
  {
    "name": "경북직업훈련교도소",
    "category": "관공서",
    "type": "관공서",
    "address": "경상북도 청송군 진보면 양정길 231 (광덕리)",
    "tel": "054-874-4600",
    "lat": 35.233117,
    "lng": 128.690212
  },
  {
    "name": "경남지방병무청",
    "category": "관공서",
    "type": "관공서",
    "address": "경상남도 창원시 성산구 중앙대로250번길 13",
    "tel": "055-279-9258",
    "lat": 35.234154,
    "lng": 128.691155
  },
  {
    "name": "서울장위동우체국",
    "category": "관공서",
    "type": "관공서",
    "address": "(업무중지) 서울특별시 성북구 돌곳이로28길 3",
    "tel": "02-916-2005",
    "lat": 35.233019,
    "lng": 128.688759
  },
  {
    "name": "창원감계출장소",
    "category": "관공서",
    "type": "관공서",
    "address": "경상남도 창원시 의창구 북면 감계로110번길 54-38 (감계리)",
    "tel": "055-713-1340",
    "lat": 35.300744,
    "lng": 128.594987
  },
  {
    "name": "창원중동우체국",
    "category": "관공서",
    "type": "관공서",
    "address": "경상남도 창원시 의창구 서상로 74-1 (중동)",
    "tel": "055-293-0001",
    "lat": 35.264631,
    "lng": 128.620731
  },
  {
    "name": "창원두대동우체국",
    "category": "관공서",
    "type": "관공서",
    "address": "경상남도 창원시 성산구 대원로93번길 6 (대원동)",
    "tel": "055-273-8005",
    "lat": 35.235153,
    "lng": 128.650798
  },
  {
    "name": "창원봉곡동우체국",
    "category": "관공서",
    "type": "관공서",
    "address": "경상남도 창원시 의창구 지귀로 119번길 2",
    "tel": "055-238-2005",
    "lat": 35.245599,
    "lng": 128.658547
  },
  {
    "name": "창원사림동우체국",
    "category": "관공서",
    "type": "관공서",
    "address": "경상남도 창원시 의창구 사림로 94 (사림동)",
    "tel": "055-263-0004",
    "lat": 35.245084,
    "lng": 128.68202
  },
  {
    "name": "창원팔용동우체국",
    "category": "관공서",
    "type": "관공서",
    "address": "경상남도 창원시 의창구 팔용로 437 (팔용동)",
    "tel": "055-296-2001",
    "lat": 35.255756,
    "lng": 128.612907
  },
  {
    "name": "창원도계동우체국",
    "category": "관공서",
    "type": "관공서",
    "address": "경상남도 창원시 의창구 태복산로3번길 7 (도계동)",
    "tel": "055-277-0001",
    "lat": 35.252857,
    "lng": 128.638518
  },
  {
    "name": "경남도청우체국",
    "category": "관공서",
    "type": "관공서",
    "address": "경상남도 창원시 의창구 중앙대로 300 (사림동)",
    "tel": "055-284-0010",
    "lat": 35.23809,
    "lng": 128.692344
  },
  {
    "name": "창원동읍우체국",
    "category": "관공서",
    "type": "관공서",
    "address": "경상남도 창원시 의창구 동읍 의창대로915번길 7",
    "tel": "055-291-7002",
    "lat": 35.279741,
    "lng": 128.690494
  },
  {
    "name": "창원대산우체국",
    "category": "관공서",
    "type": "관공서",
    "address": "경상남도 창원시 의창구 대산면 주남로 574-4",
    "tel": "055-291-4600",
    "lat": 35.334741,
    "lng": 128.708476
  },
  {
    "name": "창원북면우체국",
    "category": "관공서",
    "type": "관공서",
    "address": "경상남도 창원시 의창구 북면 신리길 20",
    "tel": "055-298-0004",
    "lat": 35.347414,
    "lng": 128.605546
  },
  {
    "name": "창원차룡우편취급국",
    "category": "관공서",
    "type": "관공서",
    "address": "경상남도 창원시 의창구 차상로150번길 68, 네오산업공구상가 150호 (팔용동)",
    "tel": "055-288-0030",
    "lat": 35.234,
    "lng": 128.639133
  },
  {
    "name": "창원소계동우편취급국",
    "category": "관공서",
    "type": "관공서",
    "address": "경상남도 창원시 의창구 금강로341번길 2 (소계동)",
    "tel": "055-294-2005",
    "lat": 35.256041,
    "lng": 128.599886
  },
  {
    "name": "창원도계성신우편취급국",
    "category": "관공서",
    "type": "관공서",
    "address": "경상남도 창원시 의창구 도계로8번길 1, 성신데파트 101호 (도계동)",
    "tel": "055-277-1380",
    "lat": 35.259526,
    "lng": 128.633708
  },
  {
    "name": "창원명곡동우편취급국",
    "category": "관공서",
    "type": "관공서",
    "address": "경상남도 창원시 의창구 창이대로113번길 9-1, 2호 (명서동)",
    "tel": "055-238-3500",
    "lat": 35.242264,
    "lng": 128.649225
  },
  {
    "name": "농업기술센터",
    "category": "관공서",
    "type": "관공서",
    "address": "경상남도 창원시 의창구 창이대로 71 (명서동)",
    "tel": "055-225-5401",
    "lat": 35.238615,
    "lng": 128.646106
  },
  {
    "name": "창원중앙도서관",
    "category": "관공서",
    "type": "관공서",
    "address": "경상남도 창원시 성산구 용호로 50 (반송동)",
    "tel": "055-225-7311",
    "lat": 35.233651,
    "lng": 128.679179
  },
  {
    "name": "최윤덕도서관",
    "category": "관공서",
    "type": "관공서",
    "address": "경상남도 창원시 의창구 북면 무동서로 67",
    "tel": "055-225-7391",
    "lat": 35.322696,
    "lng": 128.57984
  },
  {
    "name": "용지동행정복지센터",
    "category": "관공서",
    "type": "관공서",
    "address": "경상남도 창원시 성산구 용지로239번길 19-4",
    "tel": "055-212-5800",
    "lat": 35.236067,
    "lng": 128.684343
  },
  {
    "name": "대산면행정복지센터",
    "category": "관공서",
    "type": "관공서",
    "address": "경상남도 창원시 의창구 대산면 가술산단동로 10",
    "tel": "055-212-5300",
    "lat": 35.331019,
    "lng": 128.708651
  },
  {
    "name": "동읍행정복지센터",
    "category": "관공서",
    "type": "관공서",
    "address": "경상남도 창원시 의창구 동읍 동읍로 88",
    "tel": "055-212-5100",
    "lat": 35.284688,
    "lng": 128.682478
  },
  {
    "name": "명곡동행정복지센터",
    "category": "관공서",
    "type": "관공서",
    "address": "경상남도 창원시 의창구 태복산로15번길 8",
    "tel": "055-212-5600",
    "lat": 35.253937,
    "lng": 128.640192
  },
  {
    "name": "봉림동행정복지센터",
    "category": "관공서",
    "type": "관공서",
    "address": "경상남도 창원시 의창구 대봉로26번길 5",
    "tel": "055-212-5700",
    "lat": 35.251929,
    "lng": 128.667572
  },
  {
    "name": "북면행정복지센터",
    "category": "관공서",
    "type": "관공서",
    "address": "경상남도 창원시 의창구 북면 천주로 1085",
    "tel": "055-212-5200",
    "lat": 35.347773,
    "lng": 128.607051
  },
  {
    "name": "의창동행정복지센터",
    "category": "관공서",
    "type": "관공서",
    "address": "경상남도 창원시 의창구 서상로12번길 75(서상동)",
    "tel": "055-212-5400",
    "lat": 35.262047,
    "lng": 128.6229
  },
  {
    "name": "팔룡동행정복지센터",
    "category": "관공서",
    "type": "관공서",
    "address": "경상남도 창원시 의창구 팔용로 435 (팔용동)",
    "tel": "055-212-5500",
    "lat": 35.255481,
    "lng": 128.612832
  },
  {
    "name": "의창구청",
    "category": "관공서",
    "type": "관공서",
    "address": "경상남도 창원시 의창구 원이대로 80 (도계동)",
    "tel": "055-212-2114",
    "lat": 35.255647,
    "lng": 128.63483
  },
  {
    "name": "창원보건소",
    "category": "관공서",
    "type": "관공서",
    "address": "경상남도 창원시 성산구 중앙대로162번안길 8 (신월동)",
    "tel": "055-225-4000",
    "lat": 35.227791,
    "lng": 128.685542
  },
  {
    "name": "창원시청",
    "category": "관공서",
    "type": "관공서",
    "address": "경상남도 창원시 성산구 중앙대로 151 (용호동)",
    "tel": "1899-1111",
    "lat": 35.227907,
    "lng": 128.681693
  },
  {
    "name": "경상남도청",
    "category": "관공서",
    "type": "관공서",
    "address": "경상남도 창원시 의창구 중앙대로 300 (사림동)",
    "tel": "055-120",
    "lat": 35.23809,
    "lng": 128.692344
  },
  {
    "name": "노리마당 어린이공원",
    "category": "어린이놀이시설",
    "type": "어린이놀이시설",
    "address": "경남 창원시 의창구 소계로90번길 19",
    "tel": "",
    "lat": 35.258249,
    "lng": 128.600715
  },
  {
    "name": "잉글리쉬 캐슬 키즈카페",
    "category": "어린이놀이시설",
    "type": "어린이놀이시설",
    "address": "경남 창원시 의창구 평산로 213",
    "tel": "",
    "lat": 35.260406,
    "lng": 128.626049
  },
  {
    "name": "창원노리터349",
    "category": "어린이놀이시설",
    "type": "어린이놀이시설",
    "address": "경남 창원시 의창구 북면 천주로 919",
    "tel": "",
    "lat": 35.335481,
    "lng": 128.599337
  },
  {
    "name": "창원명곡포엘른아파트 어린이집 앞 유아놀이터",
    "category": "어린이놀이시설",
    "type": "어린이놀이시설",
    "address": "경남 창원시 의창구 명곡동 242",
    "tel": "",
    "lat": 35.255124,
    "lng": 128.646783
  },
  {
    "name": "창원명곡포엘른아파트 102동 앞 어린이놀이터",
    "category": "어린이놀이시설",
    "type": "어린이놀이시설",
    "address": "경남 창원시 의창구 명곡동 242",
    "tel": "",
    "lat": 35.255873,
    "lng": 128.645938
  },
  {
    "name": "창원시 북면 감계 데시앙아파트 101동~102동측 어린이놀이터1",
    "category": "어린이놀이시설",
    "type": "어린이놀이시설",
    "address": "북면 감계리 290",
    "tel": "",
    "lat": 35.297054,
    "lng": 128.584232
  },
  {
    "name": "창원시 북면 감계 데시앙아파트 109동~110동측 어린이놀이터2",
    "category": "어린이놀이시설",
    "type": "어린이놀이시설",
    "address": "북면 감계리 290",
    "tel": "",
    "lat": 35.297173,
    "lng": 128.584333
  },
  {
    "name": "창원시 북면 감계 데시앙아파트 어린이집, 106동측 유아용놀이터",
    "category": "어린이놀이시설",
    "type": "어린이놀이시설",
    "address": "북면 감계리 290",
    "tel": "",
    "lat": 35.297228,
    "lng": 128.583993
  },
  {
    "name": "숲속놀이터",
    "category": "어린이놀이시설",
    "type": "어린이놀이시설",
    "address": "명곡동 411-9",
    "tel": "",
    "lat": 35.25334,
    "lng": 128.628432
  },
  {
    "name": "경남창원 데시앙아파트",
    "category": "어린이놀이시설",
    "type": "어린이놀이시설",
    "address": "경남 창원시 의창구 북면 감계리 290",
    "tel": "",
    "lat": 35.227181,
    "lng": 128.65188
  },
  {
    "name": "창원한양립스더퍼스트(어린이놀이터1)",
    "category": "어린이놀이시설",
    "type": "어린이놀이시설",
    "address": "경남 창원시 의창구 동읍 의창대로 862-1",
    "tel": "",
    "lat": 35.277288,
    "lng": 128.687781
  },
  {
    "name": "창원한양립스더퍼스트(어린이놀이터2)",
    "category": "어린이놀이시설",
    "type": "어린이놀이시설",
    "address": "경남 창원시 의창구 동읍 의창대로 862-1",
    "tel": "",
    "lat": 35.277295,
    "lng": 128.68761
  },
  {
    "name": "창원한양립스더퍼스트(유아놀이터)",
    "category": "어린이놀이시설",
    "type": "어린이놀이시설",
    "address": "경남 창원시 의창구 동읍 의창대로 862-1",
    "tel": "",
    "lat": 35.27726,
    "lng": 128.687674
  },
  {
    "name": "명곡어린이공원1호",
    "category": "어린이놀이시설",
    "type": "어린이놀이시설",
    "address": "경상남도 창원시 의창구 명곡동 200",
    "tel": "",
    "lat": 35.255272,
    "lng": 128.645596
  },
  {
    "name": "창원명곡 A2BL 101동앞 어린이놀이터1",
    "category": "어린이놀이시설",
    "type": "어린이놀이시설",
    "address": "경남 창원시 의창구 하남천서길 167",
    "tel": "",
    "lat": 35.263943,
    "lng": 128.652172
  },
  {
    "name": "창원명곡 A2BL 어린이집앞 유아놀이터",
    "category": "어린이놀이시설",
    "type": "어린이놀이시설",
    "address": "경남 창원시 의창구 하남천서길 167",
    "tel": "",
    "lat": 35.263943,
    "lng": 128.652172
  },
  {
    "name": "명곡어린이공원 2호",
    "category": "어린이놀이시설",
    "type": "어린이놀이시설",
    "address": "명곡동 34번지",
    "tel": "",
    "lat": 35.255789,
    "lng": 128.649632
  },
  {
    "name": "새창원교회부설어린이집 실내놀이시설",
    "category": "어린이놀이시설",
    "type": "어린이놀이시설",
    "address": "경남 창원시 의창구 사림로149번길 42",
    "tel": "",
    "lat": 35.241516,
    "lng": 128.69005
  },
  {
    "name": "한들근린공원",
    "category": "어린이놀이시설",
    "type": "어린이놀이시설",
    "address": "창원시 의창구 봉림동 520-1",
    "tel": "",
    "lat": 35.255523,
    "lng": 128.667705
  },
  {
    "name": "꿀잼키즈룸 창원감계점",
    "category": "어린이놀이시설",
    "type": "어린이놀이시설",
    "address": "경남 창원시 의창구 북면 감계로 304",
    "tel": "",
    "lat": 35.301982,
    "lng": 128.594007
  },
  {
    "name": "두럭어린이공원",
    "category": "어린이놀이시설",
    "type": "어린이놀이시설",
    "address": "경상남도 창원시 의창구 소답동",
    "tel": "",
    "lat": 35.2673,
    "lng": 128.6274
  },
  {
    "name": "고향의봄어린이공원",
    "category": "어린이놀이시설",
    "type": "어린이놀이시설",
    "address": null,
    "tel": "",
    "lat": 35.2673,
    "lng": 128.6274
  },
  {
    "name": "소답어린이공원",
    "category": "어린이놀이시설",
    "type": "어린이놀이시설",
    "address": null,
    "tel": "",
    "lat": 35.261645,
    "lng": 129.220608
  },
  {
    "name": "두리어린이공원",
    "category": "어린이놀이시설",
    "type": "어린이놀이시설",
    "address": null,
    "tel": "",
    "lat": 35.1546,
    "lng": 129.0648
  },
  {
    "name": "띠앗어린이공원",
    "category": "어린이놀이시설",
    "type": "어린이놀이시설",
    "address": null,
    "tel": "",
    "lat": 35.2308,
    "lng": 129.2232
  },
  {
    "name": "윤슬어린이공원",
    "category": "어린이놀이시설",
    "type": "어린이놀이시설",
    "address": null,
    "tel": "",
    "lat": 35.261645,
    "lng": 129.220608
  },
  {
    "name": "구슬비어린이공원",
    "category": "어린이놀이시설",
    "type": "어린이놀이시설",
    "address": null,
    "tel": "",
    "lat": 35.2416,
    "lng": 128.6265
  },
  {
    "name": "미르말어린이공원",
    "category": "어린이놀이시설",
    "type": "어린이놀이시설",
    "address": null,
    "tel": "",
    "lat": 35.261645,
    "lng": 129.220608
  },
  {
    "name": "마루어린이공원",
    "category": "어린이놀이시설",
    "type": "어린이놀이시설",
    "address": null,
    "tel": "",
    "lat": 35.248538,
    "lng": 129.207501
  },
  {
    "name": "소망어린이공원",
    "category": "어린이놀이시설",
    "type": "어린이놀이시설",
    "address": null,
    "tel": "",
    "lat": 35.248538,
    "lng": 129.207501
  },
  {
    "name": "목련어린이공원",
    "category": "어린이놀이시설",
    "type": "어린이놀이시설",
    "address": null,
    "tel": "",
    "lat": 35.248538,
    "lng": 129.207501
  },
  {
    "name": "개나리어린이공원",
    "category": "어린이놀이시설",
    "type": "어린이놀이시설",
    "address": "경상남도 창원시 의창구 하남천동길16번길 3-19 (도계동)",
    "tel": "",
    "lat": 35.260498,
    "lng": 128.639814
  },
  {
    "name": "국화어린이공원",
    "category": "어린이놀이시설",
    "type": "어린이놀이시설",
    "address": "경상남도 창원시 의창구 도계로50번길 15-19 (도계동)",
    "tel": "",
    "lat": 35.259188,
    "lng": 128.636487
  },
  {
    "name": "장미어린이공원",
    "category": "어린이놀이시설",
    "type": "어린이놀이시설",
    "address": "경상남도 창원시 의창구 원이대로69번길 30-14 (도계동, 건우맨션)",
    "tel": "",
    "lat": 35.257502,
    "lng": 128.638177
  },
  {
    "name": "매화어린이공원",
    "category": "어린이놀이시설",
    "type": "어린이놀이시설",
    "address": "경상남도 창원시 의창구 도계로83번길 10-12 (도계동, 신우빌라)",
    "tel": "",
    "lat": 35.257429,
    "lng": 128.640503
  },
  {
    "name": "한우리어린이공원",
    "category": "어린이놀이시설",
    "type": "어린이놀이시설",
    "address": "경상남도 창원시 의창구 태복산로31번길 25 (도계동)",
    "tel": "",
    "lat": 35.25583,
    "lng": 128.639823
  },
  {
    "name": "풀잎어린이공원",
    "category": "어린이놀이시설",
    "type": "어린이놀이시설",
    "address": "경상남도 창원시 의창구 태복산로11번길 33 (도계동)",
    "tel": "",
    "lat": 35.255555,
    "lng": 128.637427
  },
  {
    "name": "벼리어린이공원",
    "category": "어린이놀이시설",
    "type": "어린이놀이시설",
    "address": "경상남도 창원시 의창구 태복산로11번길 3 (도계동)",
    "tel": "",
    "lat": 35.253288,
    "lng": 128.63928
  },
  {
    "name": "만남어린이공원",
    "category": "어린이놀이시설",
    "type": "어린이놀이시설",
    "address": "경상남도 창원시 의창구 창이대로107번길 33 (명서동)",
    "tel": "",
    "lat": 35.242842,
    "lng": 128.647307
  },
  {
    "name": "석류어린이공원",
    "category": "어린이놀이시설",
    "type": "어린이놀이시설",
    "address": "경상남도 창원시 의창구 창이대로165번길 7 (봉곡동)",
    "tel": "",
    "lat": 35.24471,
    "lng": 128.655223
  },
  {
    "name": "단풍어린이공원",
    "category": "어린이놀이시설",
    "type": "어린이놀이시설",
    "address": "경상남도 창원시 의창구 봉곡로24번길 9-20 (봉곡동)",
    "tel": "",
    "lat": 35.248349,
    "lng": 128.664748
  },
  {
    "name": "봉곡중앙어린이공원",
    "category": "어린이놀이시설",
    "type": "어린이놀이시설",
    "address": "경상남도 창원시 의창구 봉곡로68번길 16 (봉곡동)",
    "tel": "",
    "lat": 35.247886,
    "lng": 128.666457
  },
  {
    "name": "향나무어린이공원",
    "category": "어린이놀이시설",
    "type": "어린이놀이시설",
    "address": "경상남도 창원시 의창구 봉곡로120번길 26 (봉곡동)",
    "tel": "",
    "lat": 35.247055,
    "lng": 128.667587
  },
  {
    "name": "대나무어린이공원",
    "category": "어린이놀이시설",
    "type": "어린이놀이시설",
    "address": "경상남도 창원시 의창구 사림로29번길 21-4 (봉곡동)",
    "tel": "",
    "lat": 35.247865,
    "lng": 128.673785
  },
  {
    "name": "꿈동산어린이공원",
    "category": "어린이놀이시설",
    "type": "어린이놀이시설",
    "address": "경상남도 창원시 의창구 지귀로73번길 18-10 (봉곡동)",
    "tel": "",
    "lat": 35.248483,
    "lng": 128.655476
  },
  {
    "name": "사림어린이공원",
    "category": "어린이놀이시설",
    "type": "어린이놀이시설",
    "address": "경상남도 창원시 의창구 사림로99번길 44-11 (사림동)",
    "tel": "",
    "lat": 35.24855,
    "lng": 128.685746
  },
  {
    "name": "공룡어린이공원",
    "category": "어린이놀이시설",
    "type": "어린이놀이시설",
    "address": "경상남도 창원시 의창구 사림로71번길 14-8 (사림동)",
    "tel": "",
    "lat": 35.24708,
    "lng": 128.681212
  },
  {
    "name": "소나무어린이공원",
    "category": "어린이놀이시설",
    "type": "어린이놀이시설",
    "address": "경상남도 창원시 의창구 퇴촌로9번길 12 (사림동)",
    "tel": "",
    "lat": 35.242994,
    "lng": 128.686721
  },
  {
    "name": "퇴촌천어린이공원",
    "category": "어린이놀이시설",
    "type": "어린이놀이시설",
    "address": "경상남도 창원시 의창구 용지로289번길 50 (사림동)",
    "tel": "",
    "lat": 35.241617,
    "lng": 128.685785
  },
  {
    "name": "느티어린이공원",
    "category": "어린이놀이시설",
    "type": "어린이놀이시설",
    "address": "경상남도 창원시 의창구 창이대로369번길 28 (사림동)",
    "tel": "",
    "lat": 35.246033,
    "lng": 128.678604
  },
  {
    "name": "신리어린이공원",
    "category": "어린이놀이시설",
    "type": "어린이놀이시설",
    "address": "경상남도 창원시 의창구 북면 신리길35번길 5",
    "tel": "",
    "lat": 35.34784,
    "lng": 128.603897
  },
  {
    "name": "창원시립사림어린이집",
    "category": "어린이놀이시설",
    "type": "어린이놀이시설",
    "address": "경상남도 창원시 의창구 창이대로397번길 17 (사림동)",
    "tel": "",
    "lat": 35.242526,
    "lng": 128.685113
  },
  {
    "name": "극동아파트 어린이놀이터3",
    "category": "어린이놀이시설",
    "type": "어린이놀이시설",
    "address": "경상남도 창원시 의창구 팔용로 446 (팔용동, 극동아파트)",
    "tel": "",
    "lat": 35.255313,
    "lng": 128.614701
  },
  {
    "name": "동부산훼미리3차아파트 어린이놀이터",
    "category": "어린이놀이시설",
    "type": "어린이놀이시설",
    "address": "경상남도 창원시 의창구 동읍 용정길46번길 32-1",
    "tel": "",
    "lat": 35.275675,
    "lng": 128.703799
  },
  {
    "name": "동부산훼미리2차아파트 어린이놀이터",
    "category": "어린이놀이시설",
    "type": "어린이놀이시설",
    "address": "경상남도 창원시 의창구 동읍 용정길32번길 14 (동부산훼미리타운2차)",
    "tel": "",
    "lat": 35.277334,
    "lng": 128.702826
  },
  {
    "name": "대동차룡아파트 어린이놀이터",
    "category": "어린이놀이시설",
    "type": "어린이놀이시설",
    "address": "경상남도 창원시 의창구 반계로 95 (팔용동, 대동차룡아파트)",
    "tel": "",
    "lat": 35.253978,
    "lng": 128.615421
  },
  {
    "name": "동부산훼미리4차아파트 어린이놀이터",
    "category": "어린이놀이시설",
    "type": "어린이놀이시설",
    "address": "경상남도 창원시 의창구 동읍 자여로65번길 14",
    "tel": "",
    "lat": 35.277236,
    "lng": 128.701928
  },
  {
    "name": "칠성그린106동놀이터",
    "category": "어린이놀이시설",
    "type": "어린이놀이시설",
    "address": "경상남도 창원시 의창구 동읍 동읍로 196 (칠성그린아파트)",
    "tel": "",
    "lat": 35.292391,
    "lng": 128.67704
  },
  {
    "name": "창원시립봉곡어린이집",
    "category": "어린이놀이시설",
    "type": "어린이놀이시설",
    "address": "경상남도 창원시 의창구 창이대로 195 (봉곡동)",
    "tel": "",
    "lat": 35.244977,
    "lng": 128.658716
  },
  {
    "name": "한뫼누리어린이집 놀이터",
    "category": "어린이놀이시설",
    "type": "어린이놀이시설",
    "address": "경상남도 창원시 의창구 제동길43번길 79-25(대산면)",
    "tel": "",
    "lat": 35.338924,
    "lng": 128.710121
  },
  {
    "name": "칠성그린201동놀이터",
    "category": "어린이놀이시설",
    "type": "어린이놀이시설",
    "address": "경상남도 창원시 의창구 동읍 동읍로 196 (칠성그린아파트)",
    "tel": "",
    "lat": 35.292391,
    "lng": 128.67704
  },
  {
    "name": "오성아파트 놀이터",
    "category": "어린이놀이시설",
    "type": "어린이놀이시설",
    "address": "경상남도 창원시 의창구 서상로 27 (동정동)",
    "tel": "",
    "lat": 35.263219,
    "lng": 128.616088
  },
  {
    "name": "대동중앙아파트 놀이터",
    "category": "어린이놀이시설",
    "type": "어린이놀이시설",
    "address": "경상남도 창원시 의창구 반계로 101 (팔용동, 대동중앙아파트)",
    "tel": "",
    "lat": 35.255003,
    "lng": 128.616002
  },
  {
    "name": "원창호수아파트 놀이터",
    "category": "어린이놀이시설",
    "type": "어린이놀이시설",
    "address": "경상남도 창원시 의창구 동읍 의창대로 858",
    "tel": "",
    "lat": 35.276811,
    "lng": 128.68522
  },
  {
    "name": "소답초등학교 어린이놀이시설",
    "category": "어린이놀이시설",
    "type": "어린이놀이시설",
    "address": "경상남도 창원시 의창구 의창대로317번길 41 (소답동)",
    "tel": "",
    "lat": 35.265801,
    "lng": 128.62934
  },
  {
    "name": "오즈놀이스쿨어린이집 놀이시설",
    "category": "어린이놀이시설",
    "type": "어린이놀이시설",
    "address": "경상남도 창원시 의창구 의안로59번길 22 (북동)",
    "tel": "",
    "lat": 35.267071,
    "lng": 128.621549
  },
  {
    "name": "원풍벽산C단지아파트 301동놀이터",
    "category": "어린이놀이시설",
    "type": "어린이놀이시설",
    "address": "경상남도 창원시 의창구 남산로 20 (팔용동)",
    "tel": "",
    "lat": 35.25898,
    "lng": 128.612077
  },
  {
    "name": "원풍벽산C단지아파트 307동놀이터",
    "category": "어린이놀이시설",
    "type": "어린이놀이시설",
    "address": "경상남도 창원시 의창구 남산로 20 (팔용동)",
    "tel": "",
    "lat": 35.257819,
    "lng": 128.614164
  },
  {
    "name": "평산초등학교 병설유치원 어린이놀이시설",
    "category": "어린이놀이시설",
    "type": "어린이놀이시설",
    "address": "경상남도 창원시 의창구 사화로104번길 17 (팔용동)",
    "tel": "",
    "lat": 35.250861,
    "lng": 128.616979
  },
  {
    "name": "칠성그린아파트 107동 앞 놀이터",
    "category": "어린이놀이시설",
    "type": "어린이놀이시설",
    "address": "경상남도 창원시 의창구 동읍 동읍로 212",
    "tel": "",
    "lat": 35.287874,
    "lng": 128.676047
  },
  {
    "name": "칠성그린아파트 103동 앞 놀이터",
    "category": "어린이놀이시설",
    "type": "어린이놀이시설",
    "address": "경상남도 창원시 의창구 동읍 동읍로 212",
    "tel": "",
    "lat": 35.293881,
    "lng": 128.675962
  },
  {
    "name": "동부산훼미리타운 5차 아파트 어린이 놀이터",
    "category": "어린이놀이시설",
    "type": "어린이놀이시설",
    "address": "경상남도 창원시 의창구 동읍 용정길46번길 24 (동부산훼미리타운5차아파트)",
    "tel": "",
    "lat": 35.271994,
    "lng": 128.703771
  },
  {
    "name": "서문마을 무학아파트 놀이터",
    "category": "어린이놀이시설",
    "type": "어린이놀이시설",
    "address": "경상남도 창원시 의창구 서상로12번길 83-15, 무학서문마을아파트 (서상동)",
    "tel": "",
    "lat": 35.261996,
    "lng": 128.622225
  },
  {
    "name": "남아그린타워 놀이터",
    "category": "어린이놀이시설",
    "type": "어린이놀이시설",
    "address": "경상남도 창원시 의창구 동정길 7 (동정동, 남아그린타워아파트)",
    "tel": "",
    "lat": 35.262267,
    "lng": 128.612514
  },
  {
    "name": "사랑의어린이집",
    "category": "어린이놀이시설",
    "type": "어린이놀이시설",
    "address": "경상남도 창원시 의창구 명서로77번길 17 (명서동)",
    "tel": "",
    "lat": 35.250985,
    "lng": 128.650329
  },
  {
    "name": "벽산블루밍 아파트 관리동 앞 놀이터",
    "category": "어린이놀이시설",
    "type": "어린이놀이시설",
    "address": "경상남도 창원시 의창구 반계로 104-9 (팔용동, 벽산블루밍아파트A단지)",
    "tel": "",
    "lat": 35.254443,
    "lng": 128.617985
  },
  {
    "name": "벽산블루밍 아파트 205동 앞 놀이터",
    "category": "어린이놀이시설",
    "type": "어린이놀이시설",
    "address": "경상남도 창원시 의창구 반계로 104-9 (팔용동, 벽산블루밍아파트A단지)",
    "tel": "",
    "lat": 35.254443,
    "lng": 128.617985
  },
  {
    "name": "벽산블루밍 아파트 206동 앞 놀이터",
    "category": "어린이놀이시설",
    "type": "어린이놀이시설",
    "address": "경상남도 창원시 의창구 반계로 104-9 (팔용동, 벽산블루밍아파트A단지)",
    "tel": "",
    "lat": 35.254443,
    "lng": 128.617985
  },
  {
    "name": "도계휴먼시아 아파트 놀이터1",
    "category": "어린이놀이시설",
    "type": "어린이놀이시설",
    "address": "경상남도 창원시 의창구 원이대로82번길 15-15 (도계동, 도계휴먼시아아파트)",
    "tel": "",
    "lat": 35.254225,
    "lng": 128.635718
  },
  {
    "name": "도계휴먼시아 아파트 놀이터2",
    "category": "어린이놀이시설",
    "type": "어린이놀이시설",
    "address": "경상남도 창원시 의창구 원이대로82번길 15-15 (도계동, 도계휴먼시아아파트)",
    "tel": "",
    "lat": 35.254225,
    "lng": 128.635718
  },
  {
    "name": "도계휴먼시아 아파트 유아놀이터",
    "category": "어린이놀이시설",
    "type": "어린이놀이시설",
    "address": "경상남도 창원시 의창구 원이대로82번길 15-15 (도계동, 도계휴먼시아아파트)",
    "tel": "",
    "lat": 35.254225,
    "lng": 128.635718
  },
  {
    "name": "백옥어린이공원",
    "category": "어린이놀이시설",
    "type": "어린이놀이시설",
    "address": null,
    "tel": "",
    "lat": 35.258375,
    "lng": 128.638313
  },
  {
    "name": "믿음어린이공원",
    "category": "어린이놀이시설",
    "type": "어린이놀이시설",
    "address": null,
    "tel": "",
    "lat": 35.2452,
    "lng": 128.6445
  },
  {
    "name": "기쁨어린이공원",
    "category": "어린이놀이시설",
    "type": "어린이놀이시설",
    "address": null,
    "tel": "",
    "lat": 35.2466,
    "lng": 128.640974
  },
  {
    "name": "새싹어린이공원",
    "category": "어린이놀이시설",
    "type": "어린이놀이시설",
    "address": null,
    "tel": "",
    "lat": 35.2452,
    "lng": 128.6445
  },
  {
    "name": "정다운어린이공원",
    "category": "어린이놀이시설",
    "type": "어린이놀이시설",
    "address": "경상남도 창원시 의창구 명서로89번길 14-26 (명서동)",
    "tel": "",
    "lat": 35.248681,
    "lng": 128.650552
  },
  {
    "name": "한마음어린이공원",
    "category": "어린이놀이시설",
    "type": "어린이놀이시설",
    "address": null,
    "tel": "",
    "lat": 35.2452,
    "lng": 128.6445
  },
  {
    "name": "미리내어린이공원",
    "category": "어린이놀이시설",
    "type": "어린이놀이시설",
    "address": null,
    "tel": "",
    "lat": 35.2452,
    "lng": 128.6445
  },
  {
    "name": "청아어린이집놀이터",
    "category": "어린이놀이시설",
    "type": "어린이놀이시설",
    "address": "경상남도 창원시 의창구 동읍 의창대로900번길 8",
    "tel": "",
    "lat": 35.278351,
    "lng": 128.688785
  },
  {
    "name": "성진3차아파트 어린이놀이터",
    "category": "어린이놀이시설",
    "type": "어린이놀이시설",
    "address": "경상남도 창원시 의창구 동읍 용정길46번길 49-1  (성진3차아파트)",
    "tel": "",
    "lat": 35.274792,
    "lng": 128.705524
  },
  {
    "name": "춘광2차아파트 어린이놀이터",
    "category": "어린이놀이시설",
    "type": "어린이놀이시설",
    "address": "경상남도 창원시 의창구 북면 신촌본포로 12-15",
    "tel": "",
    "lat": 35.346757,
    "lng": 128.609018
  },
  {
    "name": "극동아파트 어린이놀이터2",
    "category": "어린이놀이시설",
    "type": "어린이놀이시설",
    "address": "경상남도 창원시 의창구 팔용로 446  (팔용동, 극동아파트)",
    "tel": "",
    "lat": 35.255313,
    "lng": 128.614701
  },
  {
    "name": "북면대호아파트 어린이놀이터",
    "category": "어린이놀이시설",
    "type": "어린이놀이시설",
    "address": "경상남도 창원시 의창구 북면 천주로 1053  (대호아파트)",
    "tel": "",
    "lat": 35.345387,
    "lng": 128.605729
  },
  {
    "name": "흥한웰가아파트 어린이놀이터2",
    "category": "어린이놀이시설",
    "type": "어린이놀이시설",
    "address": "경상남도 창원시 의창구 천주로 33 (동정동)",
    "tel": "",
    "lat": 35.264514,
    "lng": 128.617227
  },
  {
    "name": "춘광1차아파트 어린이놀이터",
    "category": "어린이놀이시설",
    "type": "어린이놀이시설",
    "address": "경상남도 창원시 의창구 북면 신촌본포로 14  (춘광아파트) ",
    "tel": "",
    "lat": 35.34746,
    "lng": 128.609248
  },
  {
    "name": "대한아파트 어린이놀이터",
    "category": "어린이놀이시설",
    "type": "어린이놀이시설",
    "address": "경상남도 창원시 의창구 동읍 신방로 17  (대한아파트)",
    "tel": "",
    "lat": 35.285934,
    "lng": 128.683212
  },
  {
    "name": "삼진아파트 어린이놀이터",
    "category": "어린이놀이시설",
    "type": "어린이놀이시설",
    "address": "경상남도 창원시 의창구 동읍 의창대로915번길 8 (삼진아파트)",
    "tel": "",
    "lat": 35.279979,
    "lng": 128.69133
  },
  {
    "name": "서광아파트 어린이놀이터",
    "category": "어린이놀이시설",
    "type": "어린이놀이시설",
    "address": "경상남도 창원시 의창구 동읍 의창대로915번길 29  (덕산서광아파트)",
    "tel": "",
    "lat": 35.281652,
    "lng": 128.689782
  },
  {
    "name": "한효한마음코아아파트 어린이놀이터",
    "category": "어린이놀이시설",
    "type": "어린이놀이시설",
    "address": "경상남도 창원시 의창구 도계로50번길 6-46  (도계동)",
    "tel": "",
    "lat": 35.260438,
    "lng": 128.6351
  },
  {
    "name": "명도초등학교 병설유치원 어린이놀이시설",
    "category": "어린이놀이시설",
    "type": "어린이놀이시설",
    "address": "경상남도 창원시 의창구 도계두리길 233 (명곡동)",
    "tel": "",
    "lat": 35.255939,
    "lng": 128.644023
  },
  {
    "name": "국제빌라 어린이놀이터",
    "category": "어린이놀이시설",
    "type": "어린이놀이시설",
    "address": "경상남도 창원시 의창구 의창대로156번길 15-14 (팔용동)",
    "tel": "",
    "lat": 35.259432,
    "lng": 128.614924
  },
  {
    "name": "상북초등학교 병설유치원 어린이놀이시설",
    "category": "어린이놀이시설",
    "type": "어린이놀이시설",
    "address": "경상남도 창원시 의창구 지귀로60번길 13-13 (봉곡동)",
    "tel": "",
    "lat": 35.246776,
    "lng": 128.653288
  },
  {
    "name": "신방초등학교 어린이놀이시설(병설유치원 겸용)",
    "category": "어린이놀이시설",
    "type": "어린이놀이시설",
    "address": "경상남도 창원시 의창구 동읍 동읍로 121-11",
    "tel": "",
    "lat": 35.287116,
    "lng": 128.677948
  },
  {
    "name": "온천초등학교 병설유치원 어린이놀이시설",
    "category": "어린이놀이시설",
    "type": "어린이놀이시설",
    "address": "경상남도 창원시 의창구 북면 신리길30번길 17",
    "tel": "",
    "lat": 35.349526,
    "lng": 128.605236
  },
  {
    "name": "중동초등학교 병설유치원 어린이놀이시설",
    "category": "어린이놀이시설",
    "type": "어린이놀이시설",
    "address": "경상남도 창원시 의창구 의창대로238번길 14 (서상동)",
    "tel": "",
    "lat": 35.260217,
    "lng": 128.623035
  },
  {
    "name": "하천초등학교 병설유치원 어린이놀이시설",
    "category": "어린이놀이시설",
    "type": "어린이놀이시설",
    "address": "경상남도 창원시 의창구 북면 하천로 145",
    "tel": "",
    "lat": 35.369463,
    "lng": 128.604215
  },
  {
    "name": "꽃누리별누리유치원 어린이놀이시설",
    "category": "어린이놀이시설",
    "type": "어린이놀이시설",
    "address": "경상남도 창원시 의창구 도계로95번길 6-17 (도계동)",
    "tel": "",
    "lat": 35.256265,
    "lng": 128.641192
  },
  {
    "name": "고요숲속샘터유치원 어린이놀이시설",
    "category": "어린이놀이시설",
    "type": "어린이놀이시설",
    "address": "경상남도 창원시 의창구 동읍 동읍로132번길 20-6",
    "tel": "",
    "lat": 35.287,
    "lng": 128.680683
  },
  {
    "name": "성모유치원 어린이놀이시설",
    "category": "어린이놀이시설",
    "type": "어린이놀이시설",
    "address": "경상남도 창원시 의창구 우곡로 177 (명서동)",
    "tel": "",
    "lat": 35.241453,
    "lng": 128.644697
  },
  {
    "name": "대산초등학교 어린이놀이시설",
    "category": "어린이놀이시설",
    "type": "어린이놀이시설",
    "address": "경상남도 창원시 의창구 대산면 진산대로 442-7",
    "tel": "",
    "lat": 35.340201,
    "lng": 128.709806
  },
  {
    "name": "도계초등학교 어린이놀이시설(병설유치원 겸용)",
    "category": "어린이놀이시설",
    "type": "어린이놀이시설",
    "address": "경상남도 창원시 의창구 하남천동길 10 (도계동)",
    "tel": "",
    "lat": 35.259344,
    "lng": 128.639465
  },
  {
    "name": "명곡초등학교 어린이놀이시설(병설유치원겸용)",
    "category": "어린이놀이시설",
    "type": "어린이놀이시설",
    "address": "경상남도 창원시 의창구 우곡로159번길 22-11 (명서동)",
    "tel": "",
    "lat": 35.242656,
    "lng": 128.644968
  },
  {
    "name": "명도초등학교  어린이놀이시설",
    "category": "어린이놀이시설",
    "type": "어린이놀이시설",
    "address": "경상남도 창원시 의창구 도계두리길 233 (명곡동)",
    "tel": "",
    "lat": 35.255939,
    "lng": 128.644023
  },
  {
    "name": "명서초등학교 어린이놀이시설",
    "category": "어린이놀이시설",
    "type": "어린이놀이시설",
    "address": "경상남도 창원시 의창구 명서로 21 (명서동)",
    "tel": "",
    "lat": 35.250967,
    "lng": 128.642885
  },
  {
    "name": "봉강초등학교 어린이놀이시설(병설유치원 겸용)",
    "category": "어린이놀이시설",
    "type": "어린이놀이시설",
    "address": "경상남도 창원시 의창구 동읍 동읍로 1131-3",
    "tel": "",
    "lat": 35.350766,
    "lng": 128.656036
  },
  {
    "name": "봉림초등학교 어린이놀이시설",
    "category": "어린이놀이시설",
    "type": "어린이놀이시설",
    "address": "경상남도 창원시 의창구 사림로16번길 21 (사림동)",
    "tel": "",
    "lat": 35.246297,
    "lng": 128.678038
  },
  {
    "name": "북면초등학교 승산분교장 어린이놀이시설",
    "category": "어린이놀이시설",
    "type": "어린이놀이시설",
    "address": "경상남도 창원시 의창구 북면 구룡로312번길 7",
    "tel": "",
    "lat": 35.304179,
    "lng": 128.628252
  },
  {
    "name": "상북초등학교 어린이놀이시설",
    "category": "어린이놀이시설",
    "type": "어린이놀이시설",
    "address": "경상남도 창원시 의창구 지귀로60번길 13-13 (봉곡동)",
    "tel": "",
    "lat": 35.246776,
    "lng": 128.653288
  },
  {
    "name": "동부산훼미리1차아파트 어린이놀이터",
    "category": "어린이놀이시설",
    "type": "어린이놀이시설",
    "address": "경상남도 창원시 의창구 동읍 용정길46번길 29 (동부산훼미리타운1차)",
    "tel": "",
    "lat": 35.275993,
    "lng": 128.705472
  },
  {
    "name": "원풍아파트 어린이놀이터(501동)",
    "category": "어린이놀이시설",
    "type": "어린이놀이시설",
    "address": "경상남도 창원시 의창구 사화로90번길 6 (팔용동)",
    "tel": "",
    "lat": 35.252385,
    "lng": 128.615336
  },
  {
    "name": "원풍아파트 어린이놀이터(502동)",
    "category": "어린이놀이시설",
    "type": "어린이놀이시설",
    "address": "경상남도 창원시 의창구 사화로90번길 20 (팔용동)",
    "tel": "",
    "lat": 35.251471,
    "lng": 128.614764
  },
  {
    "name": "일동초등학교 어린이놀이시설(병설유치원 겸용)",
    "category": "어린이놀이시설",
    "type": "어린이놀이시설",
    "address": "경상남도 창원시 의창구 대산면 대산북로 461",
    "tel": "",
    "lat": 35.368773,
    "lng": 128.688232
  },
  {
    "name": "창원초등학교 병설유치원 어린이놀이시설",
    "category": "어린이놀이시설",
    "type": "어린이놀이시설",
    "address": "경상남도 창원시 의창구 읍성로 5-1 (서상동)",
    "tel": "",
    "lat": 35.265943,
    "lng": 128.618979
  },
  {
    "name": "평산초등학교 어린이놀이시설",
    "category": "어린이놀이시설",
    "type": "어린이놀이시설",
    "address": "경상남도 창원시 의창구 사화로104번길 17 (팔용동)",
    "tel": "",
    "lat": 35.250861,
    "lng": 128.616979
  },
  {
    "name": "화양초등학교 어린이놀이시설(병설유치원 겸용)",
    "category": "어린이놀이시설",
    "type": "어린이놀이시설",
    "address": "경상남도 창원시 의창구 동읍 백월로 524",
    "tel": "",
    "lat": 35.305613,
    "lng": 128.651925
  },
  {
    "name": "온천초등학교 어린이놀이시설",
    "category": "어린이놀이시설",
    "type": "어린이놀이시설",
    "address": "경상남도 창원시 의창구 북면 신리길30번길 17",
    "tel": "",
    "lat": 35.349526,
    "lng": 128.605236
  },
  {
    "name": "하천초등학교 어린이놀이시설",
    "category": "어린이놀이시설",
    "type": "어린이놀이시설",
    "address": "경상남도 창원시 의창구 북면 하천로 145",
    "tel": "",
    "lat": 35.369463,
    "lng": 128.604215
  },
  {
    "name": "창원시립북면어린이집",
    "category": "어린이놀이시설",
    "type": "어린이놀이시설",
    "address": "경상남도 창원시 의창구 북면 천주로1128번길 7",
    "tel": "",
    "lat": 35.350727,
    "lng": 128.608802
  },
  {
    "name": "즐거운성아어린이집",
    "category": "어린이놀이시설",
    "type": "어린이놀이시설",
    "address": "경상남도 창원시 의창구 북면 천주로 1251",
    "tel": "",
    "lat": 35.358569,
    "lng": 128.616802
  },
  {
    "name": "새창원교회부설어린이집",
    "category": "어린이놀이시설",
    "type": "어린이놀이시설",
    "address": "경남 창원시 의창구 사림로149번길 42",
    "tel": "",
    "lat": 35.241592,
    "lng": 128.689998
  },
  {
    "name": "성아어린이집",
    "category": "어린이놀이시설",
    "type": "어린이놀이시설",
    "address": "경상남도 창원시 의창구 창이대로309번길 54 (봉곡동)",
    "tel": "",
    "lat": 35.246198,
    "lng": 128.663674
  },
  {
    "name": "명서공원",
    "category": "어린이놀이시설",
    "type": "어린이놀이시설",
    "address": null,
    "tel": "",
    "lat": 35.241695,
    "lng": 128.639759
  },
  {
    "name": "경상남도청어린이집",
    "category": "어린이놀이시설",
    "type": "어린이놀이시설",
    "address": "경상남도 창원시 의창구 상남로 318 (사림동)",
    "tel": "",
    "lat": 35.238295,
    "lng": 128.695794
  },
  {
    "name": "아람우리꽃들유치원 어린이놀이시설",
    "category": "어린이놀이시설",
    "type": "어린이놀이시설",
    "address": "경상남도 창원시 의창구 읍성로 12-10 (서상동)",
    "tel": "",
    "lat": 35.26442,
    "lng": 128.619096
  },
  {
    "name": "햇살나무어린이집 놀이시설",
    "category": "어린이놀이시설",
    "type": "어린이놀이시설",
    "address": "경상남도 창원시 의창구 동읍 동읍로83번길 3",
    "tel": "",
    "lat": 35.283534,
    "lng": 128.681993
  },
  {
    "name": "신우한빛타운",
    "category": "어린이놀이시설",
    "type": "어린이놀이시설",
    "address": "경상남도 창원시 의창구 동읍 용잠로35번길 24",
    "tel": "",
    "lat": 35.2807,
    "lng": 128.6838
  },
  {
    "name": "자여초등학교 병설유치원 놀이시설",
    "category": "어린이놀이시설",
    "type": "어린이놀이시설",
    "address": "경상남도 창원시 의창구 동읍 자여로 135",
    "tel": "",
    "lat": 35.27186,
    "lng": 128.705946
  },
  {
    "name": "창원한별유치원 어린이놀이시설",
    "category": "어린이놀이시설",
    "type": "어린이놀이시설",
    "address": "경남 창원시 의창구 봉곡로23번길 2",
    "tel": "",
    "lat": 35.248301,
    "lng": 128.662616
  },
  {
    "name": "중동초등학교 어린이놀이시설",
    "category": "어린이놀이시설",
    "type": "어린이놀이시설",
    "address": "경상남도 창원시 의창구 의창대로238번길 14 (서상동)",
    "tel": "",
    "lat": 35.260217,
    "lng": 128.623035
  },
  {
    "name": "자여초등학교 어린이놀이시설",
    "category": "어린이놀이시설",
    "type": "어린이놀이시설",
    "address": "경상남도 창원시 의창구 동읍 자여로 135",
    "tel": "",
    "lat": 35.27186,
    "lng": 128.705946
  },
  {
    "name": "원풍벽산아파트(B단지) 103동 앞 놀이터",
    "category": "어린이놀이시설",
    "type": "어린이놀이시설",
    "address": "경상남도 창원시 의창구 반계로 104-21 (팔용동, 벽산블루밍아파트B단지)",
    "tel": "",
    "lat": 35.2535,
    "lng": 128.619645
  },
  {
    "name": "원풍벽산아파트(B단지) 111동 앞 놀이터",
    "category": "어린이놀이시설",
    "type": "어린이놀이시설",
    "address": "경상남도 창원시 의창구 반계로 104-21 (팔용동, 벽산블루밍아파트B단지)",
    "tel": "",
    "lat": 35.2535,
    "lng": 128.619645
  },
  {
    "name": "원풍벽산아파트(B단지) 114동 앞 놀이터",
    "category": "어린이놀이시설",
    "type": "어린이놀이시설",
    "address": "경상남도 창원시 의창구 반계로 104-21 (팔용동, 벽산블루밍아파트B단지)",
    "tel": "",
    "lat": 35.2535,
    "lng": 128.619645
  },
  {
    "name": "원풍벽산아파트(B단지) 117동 앞 놀이터",
    "category": "어린이놀이시설",
    "type": "어린이놀이시설",
    "address": "경상남도 창원시 의창구 반계로 104-21 (팔용동, 벽산블루밍아파트B단지)",
    "tel": "",
    "lat": 35.2535,
    "lng": 128.619645
  },
  {
    "name": "사화초등학교 어린이놀이시설",
    "category": "어린이놀이시설",
    "type": "어린이놀이시설",
    "address": "경상남도 창원시 의창구 반계로80번길 7 (팔용동)",
    "tel": "",
    "lat": 35.252619,
    "lng": 128.616629
  },
  {
    "name": "북면신한1차아파트놀이터",
    "category": "어린이놀이시설",
    "type": "어린이놀이시설",
    "address": "경상남도 창원시 의창구 북면 천주로 1104 (신한그린파크맨션)",
    "tel": "",
    "lat": 35.34938,
    "lng": 128.608289
  },
  {
    "name": "창원유치원 어린이놀이시설",
    "category": "어린이놀이시설",
    "type": "어린이놀이시설",
    "address": "경상남도 창원시 의창구 의안로59번길 10 (소답동)",
    "tel": "",
    "lat": 35.267268,
    "lng": 128.622957
  },
  {
    "name": "살레시오성미유치원",
    "category": "어린이놀이시설",
    "type": "어린이놀이시설",
    "address": "경상남도 창원시 의창구 의안로66번길 33 (소답동)",
    "tel": "",
    "lat": 35.267766,
    "lng": 128.627595
  },
  {
    "name": "원흥사금강유치원 어린이놀이시설",
    "category": "어린이놀이시설",
    "type": "어린이놀이시설",
    "address": "경상남도 창원시 의창구 원이대로114번길 17 (도계동)",
    "tel": "",
    "lat": 35.251903,
    "lng": 128.636135
  },
  {
    "name": "양지어린이집",
    "category": "어린이놀이시설",
    "type": "어린이놀이시설",
    "address": "경상남도 창원시 의창구 도계로60번길 5-18 (도계동)",
    "tel": "",
    "lat": 35.258375,
    "lng": 128.638313
  },
  {
    "name": "창원봉림 엘에이치피닉스포레아파트 유아놀이터",
    "category": "어린이놀이시설",
    "type": "어린이놀이시설",
    "address": "경상남도 창원시 의창구 대봉로 27 (봉림동, 엘에이치피닉스포레)",
    "tel": "",
    "lat": 35.252353,
    "lng": 128.665304
  },
  {
    "name": "창원봉림 엘에이치피닉스포레아파트 어린이놀이터1",
    "category": "어린이놀이시설",
    "type": "어린이놀이시설",
    "address": "경상남도 창원시 의창구 대봉로 27 (봉림동, 엘에이치피닉스포레)",
    "tel": "",
    "lat": 35.252353,
    "lng": 128.665304
  },
  {
    "name": "창원봉림 엘에이치피닉스포레아파트 어린이놀이터2",
    "category": "어린이놀이시설",
    "type": "어린이놀이시설",
    "address": "경상남도 창원시 의창구 대봉로 27 (봉림동, 엘에이치피닉스포레)",
    "tel": "",
    "lat": 35.252353,
    "lng": 128.665304
  },
  {
    "name": "창원봉림A-1BL아파트 어린이놀이터2",
    "category": "어린이놀이시설",
    "type": "어린이놀이시설",
    "address": "경상남도 창원시 의창구 소봉로 50 (봉림동, 봉림휴먼시아1단지)",
    "tel": "",
    "lat": 35.254172,
    "lng": 128.670095
  },
  {
    "name": "창원봉림A-1BL아파트 어린이놀이터1",
    "category": "어린이놀이시설",
    "type": "어린이놀이시설",
    "address": "경상남도 창원시 의창구 소봉로 50 (봉림동, 봉림휴먼시아1단지)",
    "tel": "",
    "lat": 35.254172,
    "lng": 128.670095
  },
  {
    "name": "창원봉림A-1BL아파트 유아놀이터",
    "category": "어린이놀이시설",
    "type": "어린이놀이시설",
    "address": "경상남도 창원시 의창구 소봉로 50 (봉림동, 봉림휴먼시아1단지)",
    "tel": "",
    "lat": 35.254172,
    "lng": 128.670095
  },
  {
    "name": "두산위브 고래의 꿈 202동 앞 어린이놀이터",
    "category": "어린이놀이시설",
    "type": "어린이놀이시설",
    "address": "경상남도 창원시 의창구 도계로 135 (명서동, 두산위브아파트)",
    "tel": "",
    "lat": 35.252845,
    "lng": 128.644337
  },
  {
    "name": "두산위브 코뿔소 110동 앞 어린이놀이터",
    "category": "어린이놀이시설",
    "type": "어린이놀이시설",
    "address": "경상남도 창원시 의창구 도계로 135 (명서동, 두산위브아파트)",
    "tel": "",
    "lat": 35.252845,
    "lng": 128.644337
  },
  {
    "name": "두산위브 숲속놀이대 118동 뒤 어린이놀이터",
    "category": "어린이놀이시설",
    "type": "어린이놀이시설",
    "address": "경상남도 창원시 의창구 도계로 135 (명서동, 두산위브아파트)",
    "tel": "",
    "lat": 35.252845,
    "lng": 128.644337
  },
  {
    "name": "금강매화아파트 내 놀이터",
    "category": "어린이놀이시설",
    "type": "어린이놀이시설",
    "address": "경상남도 창원시 의창구 의안로56번길 31 (소답동, 금강매화아파트)",
    "tel": "",
    "lat": 35.266784,
    "lng": 128.627116
  },
  {
    "name": "창원파티마병원어린이집",
    "category": "어린이놀이시설",
    "type": "어린이놀이시설",
    "address": "경상남도 창원시 의창구 창이대로 45 (명서동)",
    "tel": "",
    "lat": 35.2452,
    "lng": 128.6445
  },
  {
    "name": "창원중동대동다숲아파트 102동 옆 놀이터-1",
    "category": "어린이놀이시설",
    "type": "어린이놀이시설",
    "address": "경상남도 창원시 의창구 팔용로 512, 중동대동다숲아파트 (서상동)",
    "tel": "",
    "lat": 0.0,
    "lng": 0.0
  },
  {
    "name": "창원중동대동다숲아파트 108동 옆 놀이터2",
    "category": "어린이놀이시설",
    "type": "어린이놀이시설",
    "address": "경상남도 창원시 의창구 팔용로 512, 중동대동다숲아파트 (서상동)",
    "tel": "",
    "lat": 0.0,
    "lng": 0.0
  },
  {
    "name": "창원중동대동다숲아파트 복리동 앞 놀이터-3",
    "category": "어린이놀이시설",
    "type": "어린이놀이시설",
    "address": "경상남도 창원시 의창구 팔용로 512, 중동대동다숲아파트 (서상동)",
    "tel": "",
    "lat": 0.0,
    "lng": 0.0
  },
  {
    "name": "협성파크맨션 놀이터",
    "category": "어린이놀이시설",
    "type": "어린이놀이시설",
    "address": "경상남도 창원시 의창구 소계로84번길 17 (소계동)",
    "tel": "",
    "lat": 35.2624,
    "lng": 128.5954
  },
  {
    "name": "에코블루하임아파트",
    "category": "어린이놀이시설",
    "type": "어린이놀이시설",
    "address": "경상남도 창원시 의창구 도계로83번길 5 (도계동)",
    "tel": "",
    "lat": 35.258375,
    "lng": 128.638313
  },
  {
    "name": "리라자연생태유치원 어린이놀이시설",
    "category": "어린이놀이시설",
    "type": "어린이놀이시설",
    "address": "경상남도 창원시 의창구 북면 무릉산길113번길 15",
    "tel": "",
    "lat": 35.333648,
    "lng": 128.574529
  },
  {
    "name": "성진까치빌라트 2차",
    "category": "어린이놀이시설",
    "type": "어린이놀이시설",
    "address": "경상남도 창원시 의창구 동읍 용정길46번길 35  (성진까치빌라트)",
    "tel": "",
    "lat": 35.27935,
    "lng": 128.7045
  },
  {
    "name": "미래나무어린이집",
    "category": "어린이놀이시설",
    "type": "어린이놀이시설",
    "address": "경상남도 창원시 의창구 봉곡로24번길 9 (봉곡동)",
    "tel": "",
    "lat": 35.2462,
    "lng": 128.6631
  },
  {
    "name": "원풍벽산C단지 301-1동 놀이터",
    "category": "어린이놀이시설",
    "type": "어린이놀이시설",
    "address": "경상남도 창원시 의창구 남산로 20 (팔용동)",
    "tel": "",
    "lat": 35.259146,
    "lng": 128.612154
  },
  {
    "name": "일신건영휴먼빌1단지 어린이놀이터 1",
    "category": "어린이놀이시설",
    "type": "어린이놀이시설",
    "address": "경상남도 창원시 의창구 북면 동곡로 33 (창원무동지구휴먼빌아파트1단지)",
    "tel": "",
    "lat": 35.318898,
    "lng": 128.583986
  },
  {
    "name": "일신건영휴먼빌1단지 어린이놀이터 2",
    "category": "어린이놀이시설",
    "type": "어린이놀이시설",
    "address": "경상남도 창원시 의창구 북면 동곡로 33 (창원무동지구휴먼빌아파트1단지)",
    "tel": "",
    "lat": 35.318898,
    "lng": 128.583986
  },
  {
    "name": "일신건영휴먼빌1단지 유아놀이터",
    "category": "어린이놀이시설",
    "type": "어린이놀이시설",
    "address": "경상남도 창원시 의창구 북면 동곡로 33 (창원무동지구휴먼빌아파트1단지)",
    "tel": "",
    "lat": 35.318898,
    "lng": 128.583986
  },
  {
    "name": "일신건영휴먼빌2단지 어린이놀이터 1",
    "category": "어린이놀이시설",
    "type": "어린이놀이시설",
    "address": "경상남도 창원시 의창구 북면 동곡로 35 (창원무동지구휴먼빌아파트2단지)",
    "tel": "",
    "lat": 35.320508,
    "lng": 128.583465
  },
  {
    "name": "일신건영휴먼빌2단지 어린이놀이터 2",
    "category": "어린이놀이시설",
    "type": "어린이놀이시설",
    "address": "경상남도 창원시 의창구 북면 동곡로 35 (창원무동지구휴먼빌아파트2단지)",
    "tel": "",
    "lat": 35.320508,
    "lng": 128.583465
  },
  {
    "name": "두산위브 203동 옆 어린이공원내 어린이놀이터",
    "category": "어린이놀이시설",
    "type": "어린이놀이시설",
    "address": "경상남도 창원시 의창구 도계로 135 (명서동)",
    "tel": "",
    "lat": 35.2452,
    "lng": 128.6445
  },
  {
    "name": "두산위브 107동 옆 소공원내 어린이놀이터",
    "category": "어린이놀이시설",
    "type": "어린이놀이시설",
    "address": "경상남도 창원시 의창구 도계로 135 (명서동)",
    "tel": "",
    "lat": 35.2452,
    "lng": 128.6445
  },
  {
    "name": "큰나무공원",
    "category": "어린이놀이시설",
    "type": "어린이놀이시설",
    "address": "경상남도 창원시 의창구 봉림동",
    "tel": "",
    "lat": 35.25196,
    "lng": 128.667571
  },
  {
    "name": "바람산책어린이공원",
    "category": "어린이놀이시설",
    "type": "어린이놀이시설",
    "address": "경상남도 창원시 의창구 대봉로 25 (봉림동, 봉림휴먼시아2단지)",
    "tel": "",
    "lat": 35.251078,
    "lng": 128.66588
  },
  {
    "name": "나무그늘어린이공원",
    "category": "어린이놀이시설",
    "type": "어린이놀이시설",
    "address": "경상남도 창원시 의창구 대봉로 41 (봉림동)",
    "tel": "",
    "lat": 35.253099,
    "lng": 128.667038
  },
  {
    "name": "꽃향기어린이공원",
    "category": "어린이놀이시설",
    "type": "어린이놀이시설",
    "address": "경상남도 창원시 의창구 소봉로 50 (봉림동, 봉림휴먼시아1단지)",
    "tel": "",
    "lat": 35.254172,
    "lng": 128.670095
  },
  {
    "name": "빛고을어린이공원",
    "category": "어린이놀이시설",
    "type": "어린이놀이시설",
    "address": "경상남도 창원시 의창구 소봉로20번길 5 (봉림동)",
    "tel": "",
    "lat": 35.252371,
    "lng": 128.670623
  },
  {
    "name": "창원 북면 동전지구 어린이공원",
    "category": "어린이놀이시설",
    "type": "어린이놀이시설",
    "address": "경상남도 창원시 의창구 북면 동전로256번길 3-11",
    "tel": "",
    "lat": 35.318051,
    "lng": 128.60075
  },
  {
    "name": "거님길 가족쉼터 어린이공원",
    "category": "어린이놀이시설",
    "type": "어린이놀이시설",
    "address": "경상남도 창원시 의창구 우곡로101번길 28 (명서동)",
    "tel": "",
    "lat": 35.24341,
    "lng": 128.64175
  },
  {
    "name": "무동3호어린이공원",
    "category": "어린이놀이시설",
    "type": "어린이놀이시설",
    "address": "경상남도 창원시 의창구 북면 동곡로 65",
    "tel": "",
    "lat": 35.320935,
    "lng": 128.581692
  },
  {
    "name": "무동1호어린이공원",
    "category": "어린이놀이시설",
    "type": "어린이놀이시설",
    "address": "경상남도 창원시 의창구 북면 무동로226번길 19 (창원무동지구휴먼빌아파트3단지)",
    "tel": "",
    "lat": 35.317615,
    "lng": 128.583514
  },
  {
    "name": "무동2호어린이공원",
    "category": "어린이놀이시설",
    "type": "어린이놀이시설",
    "address": "경상남도 창원시 의창구 북면 무동로241번길 18",
    "tel": "",
    "lat": 35.314837,
    "lng": 128.582008
  },
  {
    "name": "봉림휴먼시아2단지 놀이터1",
    "category": "어린이놀이시설",
    "type": "어린이놀이시설",
    "address": "경상남도 창원시 의창구 대봉로 25 (봉림동, 봉림휴먼시아2단지)",
    "tel": "",
    "lat": 35.251078,
    "lng": 128.66588
  },
  {
    "name": "봉림휴먼시아2단지 놀이터2",
    "category": "어린이놀이시설",
    "type": "어린이놀이시설",
    "address": "경상남도 창원시 의창구 대봉로 25 (봉림동, 봉림휴먼시아2단지)",
    "tel": "",
    "lat": 35.251078,
    "lng": 128.66588
  },
  {
    "name": "봉림휴먼시아2단지 유아놀이터",
    "category": "어린이놀이시설",
    "type": "어린이놀이시설",
    "address": "경상남도 창원시 의창구 대봉로 25 (봉림동, 봉림휴먼시아2단지)",
    "tel": "",
    "lat": 35.251078,
    "lng": 128.66588
  },
  {
    "name": "대산초등학교 병설유치원 어린이놀이시설",
    "category": "어린이놀이시설",
    "type": "어린이놀이시설",
    "address": "경상남도 창원시 의창구 대산면 진산대로 442-7",
    "tel": "",
    "lat": 35.340201,
    "lng": 128.709806
  },
  {
    "name": "감계지구휴먼빌(중앙광장)어린이놀이터1",
    "category": "어린이놀이시설",
    "type": "어린이놀이시설",
    "address": "경상남도 창원시 의창구 북면 감계로 297 (감계 일신휴먼빌)",
    "tel": "",
    "lat": 35.30316,
    "lng": 128.594424
  },
  {
    "name": "감계지구휴먼빌(106동앞)어린이놀이터2",
    "category": "어린이놀이시설",
    "type": "어린이놀이시설",
    "address": "경상남도 창원시 의창구 북면 감계로 297 (감계 일신휴먼빌)",
    "tel": "",
    "lat": 35.30316,
    "lng": 128.594424
  },
  {
    "name": "감계지구휴먼빌(관리사무소)유아놀이터",
    "category": "어린이놀이시설",
    "type": "어린이놀이시설",
    "address": "경상남도 창원시 의창구 북면 감계로 297 (감계 일신휴먼빌)",
    "tel": "",
    "lat": 35.30316,
    "lng": 128.594424
  },
  {
    "name": "삼봉공원 어린이공원",
    "category": "어린이놀이시설",
    "type": "어린이놀이시설",
    "address": null,
    "tel": "",
    "lat": 35.3252,
    "lng": 128.7095
  },
  {
    "name": "해바라기2,3동 어린이놀이터",
    "category": "어린이놀이시설",
    "type": "어린이놀이시설",
    "address": "경상남도 창원시 의창구 도계로50번길 6-21(도계동, 해바라기맨션)",
    "tel": "",
    "lat": 35.259745,
    "lng": 128.635484
  },
  {
    "name": "일동1호 어린이공원",
    "category": "어린이놀이시설",
    "type": "어린이놀이시설",
    "address": "경상남도 창원시 의창구 대산북로 518-1(대산면)",
    "tel": "",
    "lat": 35.367145,
    "lng": 128.694095
  },
  {
    "name": "키즈엘리스숲어린이집 놀이터",
    "category": "어린이놀이시설",
    "type": "어린이놀이시설",
    "address": "경상남도 창원시 의창구 북면 동전로 179-39",
    "tel": "",
    "lat": 35.310725,
    "lng": 128.595944
  },
  {
    "name": "사화초등학교 병설유치원 어린이놀이시설",
    "category": "어린이놀이시설",
    "type": "어린이놀이시설",
    "address": "경상남도 창원시 의창구 반계로80번길 7 (팔용동)",
    "tel": "",
    "lat": 35.252619,
    "lng": 128.616629
  },
  {
    "name": "창원초등학교 어린이놀이시설",
    "category": "어린이놀이시설",
    "type": "어린이놀이시설",
    "address": "경상남도 창원시 의창구 읍성로 5-1 (서상동)",
    "tel": "",
    "lat": 35.265943,
    "lng": 128.618979
  },
  {
    "name": "덕산아내에코프리미엄아파트 유아놀이터",
    "category": "어린이놀이시설",
    "type": "어린이놀이시설",
    "address": "경상남도 창원시 의창구 북면 감계로 277 (창원 감계 아내 에코프리미엄)",
    "tel": "",
    "lat": 35.303138,
    "lng": 128.59115
  },
  {
    "name": "덕산아내에코프리미엄아파트 어린이놀이터3",
    "category": "어린이놀이시설",
    "type": "어린이놀이시설",
    "address": "경상남도 창원시 의창구 북면 감계로 277 (창원 감계 아내 에코프리미엄)",
    "tel": "",
    "lat": 35.303138,
    "lng": 128.59115
  },
  {
    "name": "덕산아내에코프리미엄아파트 어린이놀이터2",
    "category": "어린이놀이시설",
    "type": "어린이놀이시설",
    "address": "경상남도 창원시 의창구 북면 감계로 277 (창원 감계 아내 에코프리미엄)",
    "tel": "",
    "lat": 35.303138,
    "lng": 128.59115
  },
  {
    "name": "덕산아내에코프리미엄아파트 어린이놀이터1",
    "category": "어린이놀이시설",
    "type": "어린이놀이시설",
    "address": "경상남도 창원시 의창구 북면 감계로 277 (창원 감계 아내 에코프리미엄)",
    "tel": "",
    "lat": 35.303138,
    "lng": 128.59115
  },
  {
    "name": "천수림아파트 어린이놀이터1",
    "category": "어린이놀이시설",
    "type": "어린이놀이시설",
    "address": "경상남도 창원시 의창구 북면 감계로 222 (천수림아파트)",
    "tel": "",
    "lat": 35.301673,
    "lng": 128.587514
  },
  {
    "name": "천수림아파트 어린이놀이터2",
    "category": "어린이놀이시설",
    "type": "어린이놀이시설",
    "address": "경상남도 창원시 의창구 북면 감계로 222 (천수림아파트)",
    "tel": "",
    "lat": 35.301673,
    "lng": 128.587514
  },
  {
    "name": "천수림아파트 유아놀이터",
    "category": "어린이놀이시설",
    "type": "어린이놀이시설",
    "address": "경상남도 창원시 의창구 북면 감계로 222 (천수림아파트)",
    "tel": "",
    "lat": 35.301673,
    "lng": 128.587514
  },
  {
    "name": "현대힐스테이트1차 어린이놀이터1(115동앞)",
    "category": "어린이놀이시설",
    "type": "어린이놀이시설",
    "address": "경상남도 창원시 의창구 북면 동전로 86 (감계힐스테이트 1차)",
    "tel": "",
    "lat": 35.30376,
    "lng": 128.597439
  },
  {
    "name": "현대힐스테이트1차 어린이놀이터1(111동앞)",
    "category": "어린이놀이시설",
    "type": "어린이놀이시설",
    "address": "경상남도 창원시 의창구 북면 동전로 86 (감계힐스테이트 1차)",
    "tel": "",
    "lat": 35.30376,
    "lng": 128.597439
  },
  {
    "name": "현대힐스테이트1차 어린이놀이터1(105동앞)",
    "category": "어린이놀이시설",
    "type": "어린이놀이시설",
    "address": "경상남도 창원시 의창구 북면 동전로 86 (감계힐스테이트 1차)",
    "tel": "",
    "lat": 35.30376,
    "lng": 128.597439
  },
  {
    "name": "신안아파트 어린이놀이터",
    "category": "어린이놀이시설",
    "type": "어린이놀이시설",
    "address": "경상남도 창원시 의창구 동읍 동읍로 7 (신안맨션)",
    "tel": "",
    "lat": 35.277851,
    "lng": 128.683515
  },
  {
    "name": "감계3호 근린공원",
    "category": "어린이놀이시설",
    "type": "어린이놀이시설",
    "address": "경남 창원시 의창구 북면 감계로110번길 46",
    "tel": "",
    "lat": 35.300606,
    "lng": 128.593909
  },
  {
    "name": "감계1호 어린이공원",
    "category": "어린이놀이시설",
    "type": "어린이놀이시설",
    "address": null,
    "tel": "",
    "lat": 35.1546,
    "lng": 129.0648
  },
  {
    "name": "감계3호 어린이공원",
    "category": "어린이놀이시설",
    "type": "어린이놀이시설",
    "address": null,
    "tel": "",
    "lat": 35.1546,
    "lng": 129.0648
  },
  {
    "name": "감계2호 어린이공원",
    "category": "어린이놀이시설",
    "type": "어린이놀이시설",
    "address": null,
    "tel": "",
    "lat": 35.1546,
    "lng": 129.0648
  },
  {
    "name": "감계4호 어린이공원",
    "category": "어린이놀이시설",
    "type": "어린이놀이시설",
    "address": null,
    "tel": "",
    "lat": 35.1546,
    "lng": 129.0648
  },
  {
    "name": "감계힐스테이트3차 어린이놀이터1(307동앞)",
    "category": "어린이놀이시설",
    "type": "어린이놀이시설",
    "address": "경상남도 창원시 의창구 북면 감계로 259 (감계 힐스테이트 3차아파트)",
    "tel": "",
    "lat": 35.303136,
    "lng": 128.58843
  },
  {
    "name": "감계힐스테이트3차 어린이놀이터2(303동앞)",
    "category": "어린이놀이시설",
    "type": "어린이놀이시설",
    "address": "경상남도 창원시 의창구 북면 감계로 259 (감계 힐스테이트 3차아파트)",
    "tel": "",
    "lat": 35.303136,
    "lng": 128.58843
  },
  {
    "name": "감계힐스테이트3차 유아놀이터",
    "category": "어린이놀이시설",
    "type": "어린이놀이시설",
    "address": "경상남도 창원시 의창구 북면 감계로 259 (감계 힐스테이트 3차아파트)",
    "tel": "",
    "lat": 35.303136,
    "lng": 128.58843
  },
  {
    "name": "성진까치빌라트5차 어린이놀이시설",
    "category": "어린이놀이시설",
    "type": "어린이놀이시설",
    "address": "경남 창원시 의창구 동읍 용정길46번길 53",
    "tel": "",
    "lat": 35.27402,
    "lng": 128.706011
  },
  {
    "name": "꿈샘어린이집",
    "category": "어린이놀이시설",
    "type": "어린이놀이시설",
    "address": "경상남도 창원시 의창구 동읍 자여로 133-11",
    "tel": "",
    "lat": 35.273112,
    "lng": 128.705592
  },
  {
    "name": "중동지구 어린이공원",
    "category": "어린이놀이시설",
    "type": "어린이놀이시설",
    "address": "경상남도 창원시 의창구 남산로113번길 31 (서상동)",
    "tel": "",
    "lat": 35.256281,
    "lng": 128.622373
  },
  {
    "name": "신등초등학교 어린이놀이시설",
    "category": "어린이놀이시설",
    "type": "어린이놀이시설",
    "address": "경상남도 창원시 의창구 대산면 주남로394번길 19-3",
    "tel": "",
    "lat": 35.320087,
    "lng": 128.699357
  },
  {
    "name": "STX KAN아파트 204동놀이터",
    "category": "어린이놀이시설",
    "type": "어린이놀이시설",
    "address": "경상남도 창원시 의창구 북면 무동로267번길 10 (창원무동 STX KAN 2차아파트)",
    "tel": "",
    "lat": 35.316092,
    "lng": 128.577071
  },
  {
    "name": "STX KAN아파트 201동놀이터",
    "category": "어린이놀이시설",
    "type": "어린이놀이시설",
    "address": "경상남도 창원시 의창구 북면 무동로267번길 10 (창원무동 STX KAN 2차아파트)",
    "tel": "",
    "lat": 35.316092,
    "lng": 128.577071
  },
  {
    "name": "STX KAN 아파트 109동놀이터",
    "category": "어린이놀이시설",
    "type": "어린이놀이시설",
    "address": "경상남도 창원시 의창구 북면 무동서로 76 (창원무동 STX KAN 1차아파트)",
    "tel": "",
    "lat": 35.322445,
    "lng": 128.581958
  },
  {
    "name": "STX KAN 아파트 111동놀이터",
    "category": "어린이놀이시설",
    "type": "어린이놀이시설",
    "address": "경상남도 창원시 의창구 북면 무동서로 76 (창원무동 STX KAN 1차아파트)",
    "tel": "",
    "lat": 35.322445,
    "lng": 128.581958
  },
  {
    "name": "STX KAN 아파트 104동놀이터",
    "category": "어린이놀이시설",
    "type": "어린이놀이시설",
    "address": "경상남도 창원시 의창구 북면 무동서로 76 (창원무동 STX KAN 1차아파트)",
    "tel": "",
    "lat": 35.322445,
    "lng": 128.581958
  },
  {
    "name": "일신건영휴먼빌3단지 어린이놀이터1",
    "category": "어린이놀이시설",
    "type": "어린이놀이시설",
    "address": "경상남도 창원시 의창구 북면 무동로226번길 19 (창원무동지구휴먼빌아파트3단지)",
    "tel": "",
    "lat": 35.317615,
    "lng": 128.583514
  },
  {
    "name": "일신건영휴먼빌3단지 어린이놀이터2",
    "category": "어린이놀이시설",
    "type": "어린이놀이시설",
    "address": "경상남도 창원시 의창구 북면 무동로226번길 19 (창원무동지구휴먼빌아파트3단지)",
    "tel": "",
    "lat": 35.317615,
    "lng": 128.583514
  },
  {
    "name": "일신건영휴먼빌3단지 어린이놀이터3",
    "category": "어린이놀이시설",
    "type": "어린이놀이시설",
    "address": "경상남도 창원시 의창구 북면 무동로226번길 19 (창원무동지구휴먼빌아파트3단지)",
    "tel": "",
    "lat": 35.317615,
    "lng": 128.583514
  },
  {
    "name": "신한2차아파트 놀이터",
    "category": "어린이놀이시설",
    "type": "어린이놀이시설",
    "address": "경상남도 창원시 의창구 북면 천주로 1103 (신한2차아파트)",
    "tel": "",
    "lat": 35.348663,
    "lng": 128.606904
  },
  {
    "name": "창원대학교 직장어린이집",
    "category": "어린이놀이시설",
    "type": "어린이놀이시설",
    "address": "경상남도 창원시 의창구 창원대학로 20 (사림동)",
    "tel": "",
    "lat": 35.247838,
    "lng": 128.693672
  },
  {
    "name": "북면초등학교 어린이놀이시설",
    "category": "어린이놀이시설",
    "type": "어린이놀이시설",
    "address": "경상남도 창원시 의창구 북면 동전로110번길 36",
    "tel": "",
    "lat": 35.305522,
    "lng": 128.600025
  },
  {
    "name": "통뼈감자탕 무동점",
    "category": "어린이놀이시설",
    "type": "어린이놀이시설",
    "address": "경상남도 창원시 의창구 북면 동곡로 1",
    "tel": "",
    "lat": 35.316594,
    "lng": 128.585268
  },
  {
    "name": "무동초등학교 어린이놀이시설",
    "category": "어린이놀이시설",
    "type": "어린이놀이시설",
    "address": "경상남도 창원시 의창구 북면 동곡로 65",
    "tel": "",
    "lat": 35.320935,
    "lng": 128.581692
  },
  {
    "name": "느티나무 생태놀이터",
    "category": "어린이놀이시설",
    "type": "어린이놀이시설",
    "address": null,
    "tel": "",
    "lat": 35.261,
    "lng": 128.6209
  },
  {
    "name": "하늘길생태어린이공원",
    "category": "어린이놀이시설",
    "type": "어린이놀이시설",
    "address": "경남 창원시 의창구 중동",
    "tel": "",
    "lat": 35.2559,
    "lng": 128.6261
  },
  {
    "name": "소답초등학교 병설유치원 어린이놀이시설",
    "category": "어린이놀이시설",
    "type": "어린이놀이시설",
    "address": "경상남도 창원시 의창구 의창대로317번길 41 (소답동)",
    "tel": "",
    "lat": 35.265801,
    "lng": 128.62934
  },
  {
    "name": "창원한들초등학교 어린이놀이시설",
    "category": "어린이놀이시설",
    "type": "어린이놀이시설",
    "address": "경상남도 창원시 의창구 소봉로 43 (봉림동)",
    "tel": "",
    "lat": 35.25348,
    "lng": 128.668601
  },
  {
    "name": "창원한들초등학교 병설유치원 어린이놀이시설",
    "category": "어린이놀이시설",
    "type": "어린이놀이시설",
    "address": "경상남도 창원시 의창구 소봉로 43 (봉림동)",
    "tel": "",
    "lat": 35.25348,
    "lng": 128.668601
  },
  {
    "name": "창원동전 월드메르디앙아파트",
    "category": "어린이놀이시설",
    "type": "어린이놀이시설",
    "address": "경상남도 창원시 의창구 북면 동전로224번길 2",
    "tel": "",
    "lat": 35.314879,
    "lng": 128.59938
  },
  {
    "name": "창원동전월드메르디앙아파트",
    "category": "어린이놀이시설",
    "type": "어린이놀이시설",
    "address": "경상남도 창원시 의창구 북면 동전로224번길 2",
    "tel": "",
    "lat": 35.314879,
    "lng": 128.59938
  },
  {
    "name": "창원동전월드메르디앙아파트",
    "category": "어린이놀이시설",
    "type": "어린이놀이시설",
    "address": "경상남도 창원시 의창구 북면 동전로224번길 2",
    "tel": "",
    "lat": 35.314879,
    "lng": 128.59938
  },
  {
    "name": "하늘땅유치원 어린이놀이시설",
    "category": "어린이놀이시설",
    "type": "어린이놀이시설",
    "address": "경상남도 창원시 의창구 북면 무동로195번길 25-13",
    "tel": "",
    "lat": 35.313644,
    "lng": 128.586079
  },
  {
    "name": "창원감계푸르지오 105동 앞 어린이놀이터1",
    "category": "어린이놀이시설",
    "type": "어린이놀이시설",
    "address": null,
    "tel": "",
    "lat": 35.300967,
    "lng": 128.585541
  },
  {
    "name": "창원감계푸르지오 102동 앞 어린이놀이터2",
    "category": "어린이놀이시설",
    "type": "어린이놀이시설",
    "address": null,
    "tel": "",
    "lat": 35.300897,
    "lng": 128.585434
  },
  {
    "name": "창원감계푸르지오 101동 앞 유아놀이터",
    "category": "어린이놀이시설",
    "type": "어린이놀이시설",
    "address": null,
    "tel": "",
    "lat": 35.300914,
    "lng": 128.585584
  },
  {
    "name": "성아어린이집(옥상놀이터)",
    "category": "어린이놀이시설",
    "type": "어린이놀이시설",
    "address": "경상남도 창원시 의창구 창이대로309번길 54 (봉곡동)",
    "tel": "",
    "lat": 35.249616,
    "lng": 128.668534
  },
  {
    "name": "창원감계힐스테이트4차 409동 앞 어린이놀이터1",
    "category": "어린이놀이시설",
    "type": "어린이놀이시설",
    "address": null,
    "tel": "",
    "lat": 35.301759,
    "lng": 128.583935
  },
  {
    "name": "창원감계힐스테이트4차 404동 앞 어린이놀이시설2",
    "category": "어린이놀이시설",
    "type": "어린이놀이시설",
    "address": null,
    "tel": "",
    "lat": 35.301808,
    "lng": 128.584146
  },
  {
    "name": "창원감계힐스테이트4차 402동 앞 어린이놀이터3",
    "category": "어린이놀이시설",
    "type": "어린이놀이시설",
    "address": null,
    "tel": "",
    "lat": 35.30172,
    "lng": 128.583975
  },
  {
    "name": "창원감계힐스테이트4차 407동 앞 유아놀이터",
    "category": "어린이놀이시설",
    "type": "어린이놀이시설",
    "address": null,
    "tel": "",
    "lat": 35.301755,
    "lng": 128.584082
  },
  {
    "name": "조프로감자탕",
    "category": "어린이놀이시설",
    "type": "어린이놀이시설",
    "address": "경상남도 창원시 의창구 북면 천주로 506",
    "tel": "",
    "lat": 35.30176,
    "lng": 128.602105
  },
  {
    "name": "덕진 창원의 봄 아파트 104동앞 놀이시설",
    "category": "어린이놀이시설",
    "type": "어린이놀이시설",
    "address": null,
    "tel": "",
    "lat": 35.315753,
    "lng": 128.582189
  },
  {
    "name": "키콕스 꿈드림어린이집",
    "category": "어린이놀이시설",
    "type": "어린이놀이시설",
    "address": null,
    "tel": "",
    "lat": 35.2416,
    "lng": 128.6265
  },
  {
    "name": "창원 감계 힐스테이트 2차 어린이놀이터(205동 뒤)",
    "category": "어린이놀이시설",
    "type": "어린이놀이시설",
    "address": null,
    "tel": "",
    "lat": 35.2982,
    "lng": 128.587
  },
  {
    "name": "창원 감계 힐스테이트 2차 어린이놀이터(209동 뒤)",
    "category": "어린이놀이시설",
    "type": "어린이놀이시설",
    "address": null,
    "tel": "",
    "lat": 35.2982,
    "lng": 128.587
  },
  {
    "name": "창원 감계 힐스테이트 2차 어린이놀이터(211동 뒤)",
    "category": "어린이놀이시설",
    "type": "어린이놀이시설",
    "address": null,
    "tel": "",
    "lat": 35.2982,
    "lng": 128.587
  },
  {
    "name": "창원 감계 힐스테이트 2차 유아놀이터(205동 앞)",
    "category": "어린이놀이시설",
    "type": "어린이놀이시설",
    "address": null,
    "tel": "",
    "lat": 35.2982,
    "lng": 128.587
  },
  {
    "name": "감계초등학교 어린이놀이시설",
    "category": "어린이놀이시설",
    "type": "어린이놀이시설",
    "address": "경상남도 창원시 의창구 북면 감계로140번길 51",
    "tel": "",
    "lat": 35.300408,
    "lng": 128.588496
  },
  {
    "name": "감계4호 근린공원",
    "category": "어린이놀이시설",
    "type": "어린이놀이시설",
    "address": "경남 창원시 의창구 북면 감계리",
    "tel": "",
    "lat": 35.2982,
    "lng": 128.587
  },
  {
    "name": "키콕스 꿈드림어린이집(옥상놀이터)",
    "category": "어린이놀이시설",
    "type": "어린이놀이시설",
    "address": "경상남도 창원시 의창구 차룡로14번길 48 (팔용동)",
    "tel": "",
    "lat": 35.238915,
    "lng": 128.629919
  },
  {
    "name": "코아루아파트 101동 앞 어린이놀이터1",
    "category": "어린이놀이시설",
    "type": "어린이놀이시설",
    "address": null,
    "tel": "",
    "lat": 35.319822,
    "lng": 128.572897
  },
  {
    "name": "코아루아파트 103동 앞 어린이놀이터2",
    "category": "어린이놀이시설",
    "type": "어린이놀이시설",
    "address": null,
    "tel": "",
    "lat": 35.319822,
    "lng": 128.572897
  },
  {
    "name": "북면 무동 센텀 파라디아 아파트 놀이터",
    "category": "어린이놀이시설",
    "type": "어린이놀이시설",
    "address": null,
    "tel": "",
    "lat": 35.319822,
    "lng": 128.572897
  },
  {
    "name": "창원무동센텀파라디아아파트 어린이놀이터-1(실개울놀이터)",
    "category": "어린이놀이시설",
    "type": "어린이놀이시설",
    "address": "경상남도 창원시 의창구 북면 무동서로 29",
    "tel": "",
    "lat": 35.319252,
    "lng": 128.579688
  },
  {
    "name": "창원무동센텀파라디아아파트 어린이놀이터-2(열매놀이터)",
    "category": "어린이놀이시설",
    "type": "어린이놀이시설",
    "address": "경상남도 창원시 의창구 북면 무동서로 29",
    "tel": "",
    "lat": 35.319252,
    "lng": 128.579688
  },
  {
    "name": "창원무동센텀파라디아아파트 어린이놀이터-3(햇살놀이터)",
    "category": "어린이놀이시설",
    "type": "어린이놀이시설",
    "address": "경상남도 창원시 의창구 북면 무동서로 29",
    "tel": "",
    "lat": 35.319252,
    "lng": 128.579688
  },
  {
    "name": "성진까치빌라1차아파트",
    "category": "어린이놀이시설",
    "type": "어린이놀이시설",
    "address": "경상남도 창원시 의창구 동읍 단계로 84 (성진까치빌라)",
    "tel": "",
    "lat": 35.277175,
    "lng": 128.70505
  },
  {
    "name": "창원일반산단Z블럭 103동 놀이터",
    "category": "어린이놀이시설",
    "type": "어린이놀이시설",
    "address": null,
    "tel": "",
    "lat": 35.3252,
    "lng": 128.7095
  },
  {
    "name": "창원일반산단Z블럭 105동 놀이터",
    "category": "어린이놀이시설",
    "type": "어린이놀이시설",
    "address": null,
    "tel": "",
    "lat": 35.3252,
    "lng": 128.7095
  },
  {
    "name": "창원일반산단Z블럭 마운딩놀이터(102동)",
    "category": "어린이놀이시설",
    "type": "어린이놀이시설",
    "address": null,
    "tel": "",
    "lat": 35.3252,
    "lng": 128.7095
  },
  {
    "name": "감계1호 근린공원",
    "category": "어린이놀이시설",
    "type": "어린이놀이시설",
    "address": "경상남도 창원시 의창구 북면 감계리",
    "tel": "",
    "lat": 35.2982,
    "lng": 128.587
  },
  {
    "name": "신방지구 어린이공원 내 놀이시설",
    "category": "어린이놀이시설",
    "type": "어린이놀이시설",
    "address": null,
    "tel": "",
    "lat": 35.2922,
    "lng": 128.6813
  },
  {
    "name": "감계아내에코프리미엄2차 어린이놀이터(203동앞)",
    "category": "어린이놀이시설",
    "type": "어린이놀이시설",
    "address": null,
    "tel": "",
    "lat": 35.301335,
    "lng": 128.598072
  },
  {
    "name": "감계아내에코프리미엄2차 어린이놀이터2(201동앞)",
    "category": "어린이놀이시설",
    "type": "어린이놀이시설",
    "address": null,
    "tel": "",
    "lat": 35.301125,
    "lng": 128.597943
  },
  {
    "name": "감계아내에코프리미엄2차 어린이놀이터3(215동앞)",
    "category": "어린이놀이시설",
    "type": "어린이놀이시설",
    "address": null,
    "tel": "",
    "lat": 35.30116,
    "lng": 128.598115
  },
  {
    "name": "감계아내에코프리미엄2차 어린이놀이터4(209동옆)",
    "category": "어린이놀이시설",
    "type": "어린이놀이시설",
    "address": null,
    "tel": "",
    "lat": 35.301247,
    "lng": 128.598029
  },
  {
    "name": "감계아내에코프리미엄2차 유아놀이터(207동옆)",
    "category": "어린이놀이시설",
    "type": "어린이놀이시설",
    "address": null,
    "tel": "",
    "lat": 35.301265,
    "lng": 128.598051
  },
  {
    "name": "창원진달래유치원 어린이놀이시설",
    "category": "어린이놀이시설",
    "type": "어린이놀이시설",
    "address": "경상남도 창원시 의창구 북면 동전무동길26번길 19",
    "tel": "",
    "lat": 35.317693,
    "lng": 128.598675
  },
  {
    "name": "감계초등학교 병설유치원 어린이놀이시설",
    "category": "어린이놀이시설",
    "type": "어린이놀이시설",
    "address": "경상남도 창원시 의창구 북면 감계로140번길 51",
    "tel": "",
    "lat": 35.300408,
    "lng": 128.588496
  },
  {
    "name": "창원중동유니시티1단지 어린이놀이터1(103동 옆)",
    "category": "어린이놀이시설",
    "type": "어린이놀이시설",
    "address": null,
    "tel": "",
    "lat": 35.253745,
    "lng": 128.625306
  },
  {
    "name": "창원중동유니시티1단지 어린이놀이터2(104동 뒤)",
    "category": "어린이놀이시설",
    "type": "어린이놀이시설",
    "address": null,
    "tel": "",
    "lat": 35.25378,
    "lng": 128.625413
  },
  {
    "name": "창원중동유니시티1단지 어린이놀이터3(111동 뒤)",
    "category": "어린이놀이시설",
    "type": "어린이놀이시설",
    "address": null,
    "tel": "",
    "lat": 35.253813,
    "lng": 128.62526
  },
  {
    "name": "창원중동유니시티 유아놀이터(105동 앞)",
    "category": "어린이놀이시설",
    "type": "어린이놀이시설",
    "address": null,
    "tel": "",
    "lat": 35.253815,
    "lng": 128.625328
  },
  {
    "name": "창원중동유니시티2단지 어린이놀이터1(205동 뒤)",
    "category": "어린이놀이시설",
    "type": "어린이놀이시설",
    "address": null,
    "tel": "",
    "lat": 35.2559,
    "lng": 128.6261
  },
  {
    "name": "창원중동유니시티2단지 어린이놀이터2(203동 뒤)",
    "category": "어린이놀이시설",
    "type": "어린이놀이시설",
    "address": null,
    "tel": "",
    "lat": 35.2559,
    "lng": 128.6261
  },
  {
    "name": "창원중동유니시티2단지 유아놀이터(205동 옆)",
    "category": "어린이놀이시설",
    "type": "어린이놀이시설",
    "address": null,
    "tel": "",
    "lat": 35.2559,
    "lng": 128.6261
  },
  {
    "name": "창원중동유니시티1단지 포켓쉼터(113동 뒤)",
    "category": "어린이놀이시설",
    "type": "어린이놀이시설",
    "address": null,
    "tel": "",
    "lat": 35.253727,
    "lng": 128.625285
  },
  {
    "name": "감계2호 근린공원",
    "category": "어린이놀이시설",
    "type": "어린이놀이시설",
    "address": "경상남도 창원시 의창구 북면 감계로156번길 5-11",
    "tel": "",
    "lat": 35.297103,
    "lng": 128.586758
  },
  {
    "name": "사화모험체험존 1",
    "category": "어린이놀이시설",
    "type": "어린이놀이시설",
    "address": "경상남도 창원시 의창구 우곡로 10 (도계동)",
    "tel": "",
    "lat": 35.252139,
    "lng": 128.637079
  },
  {
    "name": "사화모험체험존 2",
    "category": "어린이놀이시설",
    "type": "어린이놀이시설",
    "address": "경상남도 창원시 의창구 우곡로 10 (도계동)",
    "tel": "",
    "lat": 35.252139,
    "lng": 128.637079
  },
  {
    "name": "사화모험체험존 3",
    "category": "어린이놀이시설",
    "type": "어린이놀이시설",
    "address": "경상남도 창원시 의창구 우곡로 10 (도계동)",
    "tel": "",
    "lat": 35.252139,
    "lng": 128.637079
  },
  {
    "name": "타요 홈플러스 창원점",
    "category": "어린이놀이시설",
    "type": "어린이놀이시설",
    "address": "경상남도 창원시 의창구 창원대로 415 (팔용동)",
    "tel": "",
    "lat": 35.234037,
    "lng": 128.643616
  },
  {
    "name": "다이닝원 창원점",
    "category": "어린이놀이시설",
    "type": "어린이놀이시설",
    "address": "경상남도 창원시 의창구 용동로83번안길 36 (사림동)",
    "tel": "",
    "lat": 35.239512,
    "lng": 128.699994
  },
  {
    "name": "창원중동유니시티3단지 어린이놀이터1(306동앞)",
    "category": "어린이놀이시설",
    "type": "어린이놀이시설",
    "address": null,
    "tel": "",
    "lat": 35.2559,
    "lng": 128.6261
  },
  {
    "name": "창원중동유니시티3단지 어린이놀이터2 (302동 앞)",
    "category": "어린이놀이시설",
    "type": "어린이놀이시설",
    "address": null,
    "tel": "",
    "lat": 35.2559,
    "lng": 128.6261
  },
  {
    "name": "창원중동유니시티3단지 유아놀이터 (어린이집 앞)",
    "category": "어린이놀이시설",
    "type": "어린이놀이시설",
    "address": null,
    "tel": "",
    "lat": 35.2559,
    "lng": 128.6261
  },
  {
    "name": "창원중동유니시티3단지 주민 운동시설 (303동 뒤)",
    "category": "어린이놀이시설",
    "type": "어린이놀이시설",
    "address": null,
    "tel": "",
    "lat": 35.2559,
    "lng": 128.6261
  },
  {
    "name": "창원중동유니시티4단지 어린이놀이터3 (408동 앞)",
    "category": "어린이놀이시설",
    "type": "어린이놀이시설",
    "address": null,
    "tel": "",
    "lat": 35.258375,
    "lng": 128.638313
  },
  {
    "name": "창원중동유니시티4단지 유아놀이터 ( 403동 옆)",
    "category": "어린이놀이시설",
    "type": "어린이놀이시설",
    "address": null,
    "tel": "",
    "lat": 35.258375,
    "lng": 128.638313
  },
  {
    "name": "창원중동유니시티4단지 어린이놀이터2 (406동 앞)",
    "category": "어린이놀이시설",
    "type": "어린이놀이시설",
    "address": null,
    "tel": "",
    "lat": 35.258375,
    "lng": 128.638313
  },
  {
    "name": "창원중동유니시티4단지 어린이놀이터1 (410동 뒤)",
    "category": "어린이놀이시설",
    "type": "어린이놀이시설",
    "address": null,
    "tel": "",
    "lat": 35.258375,
    "lng": 128.638313
  },
  {
    "name": "우성전원아파트 어린이놀이시설",
    "category": "어린이놀이시설",
    "type": "어린이놀이시설",
    "address": "경상남도 창원시 의창구 동읍 무성길47번길 9 (우성전원아파트)",
    "tel": "",
    "lat": 35.28927,
    "lng": 128.69825
  },
  {
    "name": "사격공원 어린이놀이터",
    "category": "어린이놀이시설",
    "type": "어린이놀이시설",
    "address": null,
    "tel": "",
    "lat": 0.0,
    "lng": 0.0
  },
  {
    "name": "잭슨나인스-창원점",
    "category": "어린이놀이시설",
    "type": "어린이놀이시설",
    "address": "경상남도 창원시 의창구 북면 신촌본포로 5",
    "tel": "",
    "lat": 35.347816,
    "lng": 128.608187
  },
  {
    "name": "대패생각 창원중동점 내 실내놀이시설",
    "category": "어린이놀이시설",
    "type": "어린이놀이시설",
    "address": "경상남도 창원시 의창구 원이대로56번길 2-1 (도계동)",
    "tel": "",
    "lat": 35.257069,
    "lng": 128.633614
  },
  {
    "name": "달천공원 유아숲체험원",
    "category": "어린이놀이시설",
    "type": "어린이놀이시설",
    "address": "경상남도 창원시 의창구 북면 달천길 145",
    "tel": "",
    "lat": 35.283464,
    "lng": 128.597879
  },
  {
    "name": "중동 유니시티4단지 내 맘스키즈카페 실내놀이시설",
    "category": "어린이놀이시설",
    "type": "어린이놀이시설",
    "address": "경상남도 창원시 의창구 중동로 78 (중동, 창원중동유니시티4단지)",
    "tel": "",
    "lat": 35.254393,
    "lng": 128.631603
  },
  {
    "name": "힐스테이트 아티움시티아파트 캠핑놀이터포디움(101~4동 중앙)",
    "category": "어린이놀이시설",
    "type": "어린이놀이시설",
    "address": null,
    "tel": "",
    "lat": 0.0,
    "lng": 0.0
  },
  {
    "name": "힐스테이트 아티움시티아파트 옥토포드놀이터포디움(102~3동 중앙)",
    "category": "어린이놀이시설",
    "type": "어린이놀이시설",
    "address": null,
    "tel": "",
    "lat": 0.0,
    "lng": 0.0
  },
  {
    "name": "힐스테이트 아티움시티아파트 유아놀이터(103동 유치원 정면)",
    "category": "어린이놀이시설",
    "type": "어린이놀이시설",
    "address": null,
    "tel": "",
    "lat": 0.0,
    "lng": 0.0
  },
  {
    "name": "창원 아티움시티 내 실내놀이시설",
    "category": "어린이놀이시설",
    "type": "어린이놀이시설",
    "address": "경상남도 창원시 의창구 창원대로397번길 11 (팔용동, 힐스테이트 아티움시티)",
    "tel": "",
    "lat": 35.235885,
    "lng": 128.641409
  },
  {
    "name": "갓골소공원",
    "category": "어린이놀이시설",
    "type": "어린이놀이시설",
    "address": null,
    "tel": "",
    "lat": 35.2671,
    "lng": 128.6097
  },
  {
    "name": "의창초등학교 어린이놀이시설",
    "category": "어린이놀이시설",
    "type": "어린이놀이시설",
    "address": "경상남도 창원시 의창구 중동남로 85 (중동)",
    "tel": "",
    "lat": 35.25371,
    "lng": 128.629511
  },
  {
    "name": "의창초등학교 병설유치원 어린이놀이시설",
    "category": "어린이놀이시설",
    "type": "어린이놀이시설",
    "address": "경상남도 창원시 의창구 중동남로 85 (중동)",
    "tel": "",
    "lat": 35.25371,
    "lng": 128.629511
  },
  {
    "name": "창원중동유니시티3단지",
    "category": "어린이놀이시설",
    "type": "어린이놀이시설",
    "address": null,
    "tel": "",
    "lat": 35.2559,
    "lng": 128.6261
  },
  {
    "name": "시립무동별빛어린이집",
    "category": "어린이놀이시설",
    "type": "어린이놀이시설",
    "address": null,
    "tel": "",
    "lat": 35.319822,
    "lng": 128.572897
  },
  {
    "name": "신방초등학교 어린이놀이시설(실내_강당)",
    "category": "어린이놀이시설",
    "type": "어린이놀이시설",
    "address": "경상남도 창원시 의창구 동읍 동읍로 121-11",
    "tel": "",
    "lat": 35.287116,
    "lng": 128.677948
  },
  {
    "name": "우암초등학교 병설유치원 어린이놀이시설",
    "category": "어린이놀이시설",
    "type": "어린이놀이시설",
    "address": "경상남도 창원시 의창구 대산면 우암로 35",
    "tel": "",
    "lat": 35.334394,
    "lng": 128.729642
  },
  {
    "name": "무동꿈유치원 어린이놀이시설",
    "category": "어린이놀이시설",
    "type": "어린이놀이시설",
    "address": "경상남도 창원시 의창구 북면 무동서로 81",
    "tel": "",
    "lat": 35.323556,
    "lng": 128.580822
  },
  {
    "name": "창원한들초등학교(생태학습장)",
    "category": "어린이놀이시설",
    "type": "어린이놀이시설",
    "address": "경상남도 창원시 의창구 소봉로 43 (봉림동)",
    "tel": "",
    "lat": 35.25348,
    "lng": 128.668601
  },
  {
    "name": "코아루 파크놀이방",
    "category": "어린이놀이시설",
    "type": "어린이놀이시설",
    "address": null,
    "tel": "",
    "lat": 35.315665,
    "lng": 128.586714
  },
  {
    "name": "창원진달래유치원 어린이놀이시설2",
    "category": "어린이놀이시설",
    "type": "어린이놀이시설",
    "address": "경상남도 창원시 의창구 북면 동전무동길26번길 19",
    "tel": "",
    "lat": 35.317693,
    "lng": 128.598675
  },
  {
    "name": "진달래어린이공원",
    "category": "어린이놀이시설",
    "type": "어린이놀이시설",
    "address": null,
    "tel": "",
    "lat": 0.0,
    "lng": 0.0
  },
  {
    "name": "창원중동유니시티1단지",
    "category": "어린이놀이시설",
    "type": "어린이놀이시설",
    "address": "경상남도 창원시 의창구 중동로 34 (중동, 창원중동유니시티1단지)",
    "tel": "",
    "lat": 35.253792,
    "lng": 128.625262
  },
  {
    "name": "국가공인진갈비 창원주남점 내 실내놀이서설",
    "category": "어린이놀이시설",
    "type": "어린이놀이시설",
    "address": null,
    "tel": "",
    "lat": 35.2922,
    "lng": 128.6813
  },
  {
    "name": "창원시립의안어린이집",
    "category": "어린이놀이시설",
    "type": "어린이놀이시설",
    "address": "경상남도 창원시 의창구 중동",
    "tel": "",
    "lat": 35.2559,
    "lng": 128.6261
  },
  {
    "name": "행복수",
    "category": "어린이놀이시설",
    "type": "어린이놀이시설",
    "address": "경남 창원시 의창구 평산로 96",
    "tel": "",
    "lat": 0.0,
    "lng": 0.0
  },
  {
    "name": "창원 무동지구 동원 로얄듀크1차 아파트 유아놀이터(어린이집 옆)",
    "category": "어린이놀이시설",
    "type": "어린이놀이시설",
    "address": null,
    "tel": "",
    "lat": 0.0,
    "lng": 0.0
  },
  {
    "name": "창원무동지구동원로얄듀크1차아파트 어린이 놀이터1(103동 앞)",
    "category": "어린이놀이시설",
    "type": "어린이놀이시설",
    "address": null,
    "tel": "",
    "lat": 0.0,
    "lng": 0.0
  },
  {
    "name": "하늘어린이공원",
    "category": "어린이놀이시설",
    "type": "어린이놀이시설",
    "address": null,
    "tel": "",
    "lat": 35.2416,
    "lng": 128.6265
  },
  {
    "name": "흥한웰가아파트 어린이놀이터1",
    "category": "어린이놀이시설",
    "type": "어린이놀이시설",
    "address": "경상남도 창원시 의창구 천주로 33 (동정동)",
    "tel": "",
    "lat": 35.264514,
    "lng": 128.617227
  },
  {
    "name": "북면신우아파트 어린이놀이터",
    "category": "어린이놀이시설",
    "type": "어린이놀이시설",
    "address": "경상남도 창원시 의창구 북면 신촌본포로 12-10  (신우아파트)",
    "tel": "",
    "lat": 35.347074,
    "lng": 128.608478
  },
  {
    "name": "송정주공아파트 유아놀이터(복리동옆)",
    "category": "어린이놀이시설",
    "type": "어린이놀이시설",
    "address": "경상남도 창원시 의창구 동읍 용정길 26  (송정주공아파트)",
    "tel": "",
    "lat": 35.278008,
    "lng": 128.701854
  },
  {
    "name": "송정주공아파트 어린이놀이터1(105동앞)",
    "category": "어린이놀이시설",
    "type": "어린이놀이시설",
    "address": "경상남도 창원시 의창구 동읍 용정길 26  (송정주공아파트)",
    "tel": "",
    "lat": 35.278008,
    "lng": 128.701854
  },
  {
    "name": "송정주공아파트 어린이놀이터2(108동앞)",
    "category": "어린이놀이시설",
    "type": "어린이놀이시설",
    "address": "경상남도 창원시 의창구 동읍 용정길 26  (송정주공아파트)",
    "tel": "",
    "lat": 35.278008,
    "lng": 128.701854
  },
  {
    "name": "늘푸른마을코오롱아파트 어린이놀이터",
    "category": "어린이놀이시설",
    "type": "어린이놀이시설",
    "address": "경상남도 창원시 의창구 지귀로95번길 7  (봉곡동, 늘푸른마을코오롱아파트)",
    "tel": "",
    "lat": 35.247893,
    "lng": 128.657189
  },
  {
    "name": "이슬어린이공원",
    "category": "어린이놀이시설",
    "type": "어린이놀이시설",
    "address": null,
    "tel": "",
    "lat": 35.2452,
    "lng": 128.6445
  },
  {
    "name": "국립창원대학교",
    "category": "대학교",
    "type": "대학교",
    "address": "경상남도 창원시 의창구 창원대학로 20 (사림동, 창원대학교) ",
    "tel": "055-213-2114",
    "lat": 35.243475,
    "lng": 128.69289
  },
  {
    "name": "창원문성대학교",
    "category": "대학교",
    "type": "대학교",
    "address": "경상남도 창원시 성산구 충혼로 91(두대동) ",
    "tel": "055-279-5114",
    "lat": 35.234424,
    "lng": 128.659641
  },
  {
    "name": "국립창원대학교 산업대학원",
    "category": "대학교",
    "type": "대학교",
    "address": "경상남도 창원시 의창구 창원대학로 20 (사림동, 창원대학교) ",
    "tel": "055-213-2365",
    "lat": 35.243475,
    "lng": 128.69289
  },
  {
    "name": "국립창원대학교 대학원",
    "category": "대학교",
    "type": "대학교",
    "address": "경상남도 창원시 의창구 창원대학로 20 (사림동, 창원대학교) ",
    "tel": "055-213-2390",
    "lat": 35.243475,
    "lng": 128.69289
  },
  {
    "name": "국립창원대학교 경영대학원",
    "category": "대학교",
    "type": "대학교",
    "address": "경상남도 창원시 의창구 창원대학로 20 (사림동, 창원대학교) ",
    "tel": "055-213-2333",
    "lat": 35.243475,
    "lng": 128.69289
  },
  {
    "name": "국립창원대학교 교육대학원",
    "category": "대학교",
    "type": "대학교",
    "address": "경상남도 창원시 의창구 창원대학로 20 (사림동, 창원대학교) ",
    "tel": "055-213-2390",
    "lat": 35.243475,
    "lng": 128.69289
  },
  {
    "name": "국립창원대학교 보건대학원",
    "category": "대학교",
    "type": "대학교",
    "address": "경상남도 창원시 의창구 창원대학로 20 (사림동, 창원대학교) ",
    "tel": "055-213-2353",
    "lat": 35.243475,
    "lng": 128.69289
  },
  {
    "name": "국립창원대학교 사회복지대학원",
    "category": "대학교",
    "type": "대학교",
    "address": "경상남도 창원시 의창구 창원대학로 20 (사림동, 창원대학교) ",
    "tel": "055-213-2323",
    "lat": 35.243475,
    "lng": 128.69289
  },
  {
    "name": "국립창원대학교 행정대학원",
    "category": "대학교",
    "type": "대학교",
    "address": "경상남도 창원시 의창구 창원대학로 20 (사림동, 창원대학교) ",
    "tel": "055-213-2323",
    "lat": 35.243475,
    "lng": 128.69289
  },
  {
    "name": "창원시 직업재활센터",
    "category": "약자보호시설",
    "type": "장애인편의시설",
    "address": "경상남도 창원시 의창구 원이대로114번길 6 (도계동)",
    "tel": "055-288-3220",
    "lat": 35.252987,
    "lng": 128.637106
  },
  {
    "name": "로뎀그룹홈",
    "category": "약자보호시설",
    "type": "장애인편의시설",
    "address": "경상남도 창원시 의창구 동읍 동읍로83번길 64, 302호",
    "tel": "055-275-5831",
    "lat": 35.284013,
    "lng": 128.676431
  },
  {
    "name": "마창밀알공동생활 가정",
    "category": "약자보호시설",
    "type": "장애인편의시설",
    "address": "경상남도 창원시 의창구 중동로 77, 302동 2704호(중동, 유니시티3단지)",
    "tel": "055-286-9514",
    "lat": 35.25684,
    "lng": 128.63137
  },
  {
    "name": "밀알 행복지기동산",
    "category": "약자보호시설",
    "type": "장애인편의시설",
    "address": "경상남도 창원시 의창구 북면 감계로 221, 108동 1904호 창원감계푸르지오아파트",
    "tel": "055-286-9514",
    "lat": 35.299915,
    "lng": 128.585833
  },
  {
    "name": "백향그룹홈",
    "category": "약자보호시설",
    "type": "장애인편의시설",
    "address": "경상남도 창원시 의창구 동읍 동읍로83번길 64, 202호",
    "tel": "055-275-5831",
    "lat": 35.284013,
    "lng": 128.676431
  },
  {
    "name": "베델그룹홈",
    "category": "약자보호시설",
    "type": "장애인편의시설",
    "address": "경상남도 창원시 의창구 동읍 동읍로83번길 64, 201호",
    "tel": "055-275-5831",
    "lat": 35.284013,
    "lng": 128.676431
  },
  {
    "name": "보람의 집",
    "category": "약자보호시설",
    "type": "장애인편의시설",
    "address": "경상남도 창원시 의창구 지귀로 120번길 19, 101호",
    "tel": "055-288-1424",
    "lat": 35.245015,
    "lng": 128.656172
  },
  {
    "name": "사랑의 여울목",
    "category": "약자보호시설",
    "type": "장애인편의시설",
    "address": "경상남도 창원시 의창구 명서로116번길 7, 1층(명서동)",
    "tel": "055-265-2403",
    "lat": 35.247592,
    "lng": 128.646943
  },
  {
    "name": "사랑의 집",
    "category": "약자보호시설",
    "type": "장애인편의시설",
    "address": "경상남도 창원시 의창구 동읍 자여로93번길 24, 201호(송정빌라)",
    "tel": "055-252-0639",
    "lat": 35.276731,
    "lng": 128.702556
  },
  {
    "name": "소망원",
    "category": "약자보호시설",
    "type": "장애인편의시설",
    "address": "경상남도 창원시 의창구 북면 신촌본포로333번길 111-32",
    "tel": "055-299-1735",
    "lat": 35.361352,
    "lng": 128.633856
  },
  {
    "name": "에셀그룹홈",
    "category": "약자보호시설",
    "type": "장애인편의시설",
    "address": "경상남도 창원시 의창구 동읍 동읍로83번길 64, 204호",
    "tel": "055-275-5831",
    "lat": 35.284013,
    "lng": 128.676431
  },
  {
    "name": "예향그룹홈",
    "category": "약자보호시설",
    "type": "장애인편의시설",
    "address": "경상남도 창원시 의창구 동읍 동읍로83번길 64, 203호",
    "tel": "055-275-5831",
    "lat": 35.284013,
    "lng": 128.676431
  },
  {
    "name": "은혜원",
    "category": "약자보호시설",
    "type": "장애인편의시설",
    "address": "경상남도 창원시 의창구 북면 신촌본포로333번길 111-32",
    "tel": "055-299-1735",
    "lat": 35.361352,
    "lng": 128.633856
  },
  {
    "name": "한누리",
    "category": "약자보호시설",
    "type": "장애인편의시설",
    "address": "경상남도 창원시 의창구 북면 신촌본포로 333번길 111-32",
    "tel": "055-299-1735",
    "lat": 35.361352,
    "lng": 128.633856
  },
  {
    "name": "사랑의 오두막",
    "category": "약자보호시설",
    "type": "장애인편의시설",
    "address": "경상남도 창원시 의창구 명서로77번길 28-5, 1층 (명서동)",
    "tel": "055-299-4529",
    "lat": 35.251163,
    "lng": 128.651669
  },
  {
    "name": "동진장애인주간보호센터",
    "category": "약자보호시설",
    "type": "장애인편의시설",
    "address": "경상남도 창원시 동읍 동읍로 503번길 10",
    "tel": "055-299-2233",
    "lat": 35.311065,
    "lng": 128.656521
  },
  {
    "name": "장애인주간보호시설 도담도담",
    "category": "약자보호시설",
    "type": "장애인편의시설",
    "address": "경상남도 창원시 의창구 북면 신촌본포로63번길20-37",
    "tel": "055-298-9838",
    "lat": 35.346753,
    "lng": 128.61854
  },
  {
    "name": "창원시각장애인주간보호센터",
    "category": "약자보호시설",
    "type": "장애인편의시설",
    "address": "경상남도 창원시 의창구 도계로 29-1, 4층(동원빌딩)",
    "tel": "055-288-8518",
    "lat": 35.260928,
    "lng": 128.635396
  },
  {
    "name": "창원시장애인체육관",
    "category": "약자보호시설",
    "type": "장애인편의시설",
    "address": "경상남도 창원시 의창구 봉곡로 97번길 87",
    "tel": "055-237-6485",
    "lat": 35.250392,
    "lng": 128.679443
  },
  {
    "name": "창원시립곰두리국민체육센터",
    "category": "약자보호시설",
    "type": "장애인편의시설",
    "address": "경상남도 창원시 의창구 원이대로 114번길 6 (도계동)",
    "tel": "055-238-0220",
    "lat": 35.252987,
    "lng": 128.637106
  },
  {
    "name": "창원장애인생활이동지원센터",
    "category": "약자보호시설",
    "type": "장애인편의시설",
    "address": "경상남도 창원시 의창구 도계로 29-1, 5층 (도계동)",
    "tel": "055-288-8514",
    "lat": 35.260928,
    "lng": 128.635396
  },
  {
    "name": "창원시재가복지센터",
    "category": "약자보호시설",
    "type": "장애인편의시설",
    "address": "경상남도 창원시 의창구 봉곡로 97번길 87",
    "tel": "055-237-6485",
    "lat": 35.250392,
    "lng": 128.679443
  },
  {
    "name": "창원시재활교재대출센터",
    "category": "약자보호시설",
    "type": "장애인편의시설",
    "address": "경상남도 창원시 의창구 봉곡로 97번길 85, 경상남도장애인종합복지관",
    "tel": "055-265-9191",
    "lat": 35.250464,
    "lng": 128.678918
  },
  {
    "name": "창원시장애인종합복지관",
    "category": "약자보호시설",
    "type": "장애인편의시설",
    "address": "경상남도 창원시 의창구 봉곡로 97번길 87",
    "tel": "055-237-6485",
    "lat": 35.250392,
    "lng": 128.679443
  },
  {
    "name": "경상남도장애인종합복지관",
    "category": "약자보호시설",
    "type": "장애인편의시설",
    "address": "경상남도 창원시 의창구 봉곡로 97번길 85",
    "tel": "055-237-2223",
    "lat": 35.250309,
    "lng": 128.67863
  },
  {
    "name": "두레풍장",
    "category": "약자보호시설",
    "type": "장애인편의시설",
    "address": "경상남도 창원시 의창구 원이대로55번길 12-14 (도계동)",
    "tel": "055-298-9854",
    "lat": 35.257389,
    "lng": 128.635858
  },
  {
    "name": "베델 장애인보호작업장",
    "category": "약자보호시설",
    "type": "장애인편의시설",
    "address": "경상남도 창원시 의창구 동읍 동읍로83번길 64",
    "tel": "055-275-5831",
    "lat": 35.284013,
    "lng": 128.676431
  },
  {
    "name": "사랑의집",
    "category": "약자보호시설",
    "type": "장애인편의시설",
    "address": "경상남도 창원시 의창구 대산면 주남로382번길 23",
    "tel": "055-252-0597",
    "lat": 35.317819,
    "lng": 128.698892
  },
  {
    "name": "설봄화반",
    "category": "약자보호시설",
    "type": "장애인편의시설",
    "address": "경상남도 창원시 의창구 동읍 의창대로421번길 18-4",
    "tel": "055-293-9994",
    "lat": 35.269756,
    "lng": 128.639281
  },
  {
    "name": "창원시 보호작업센터",
    "category": "약자보호시설",
    "type": "장애인편의시설",
    "address": "경상남도 창원시 의창구 원이대로114번길 6 (도계동)",
    "tel": "055-288-3224",
    "lat": 35.252987,
    "lng": 128.637106
  },
  {
    "name": "한창코리아",
    "category": "약자보호시설",
    "type": "장애인편의시설",
    "address": "경상남도 창원시 의창구 천주로1번길 14 (서상동, 산림조합 지하1층)",
    "tel": "055-601-1004",
    "lat": 35.262804,
    "lng": 128.617231
  },
  {
    "name": "해우림 장애인보호작업장",
    "category": "약자보호시설",
    "type": "장애인편의시설",
    "address": "경상남도 창원시 의창구 의안로32번길 41, 1층 (소답동, / 부속용도시설 공장; 창원시 의창구 북면 감계로156번길 15 2동 1층)",
    "tel": "055-255-2735",
    "lat": 35.26355,
    "lng": 128.627923
  },
  {
    "name": "경상남도농아인지원센터",
    "category": "약자보호시설",
    "type": "장애인편의시설",
    "address": "경상남도 창원시 의창구 동읍 동읍로 457번길 48 경남사회복지센터 1층",
    "tel": "055-252-8885",
    "lat": 35.309609,
    "lng": 128.651196
  },
  {
    "name": "창원여성의전화 부설 창원성폭력상담소",
    "category": "약자보호시설",
    "type": "성폭력피해상담소",
    "address": "경상남도 창원시 성산구 신월로 42, 토월복합상가 725호",
    "tel": "055-267-1364",
    "lat": 35.228021,
    "lng": 128.69192
  },
  {
    "name": "창원한마음병원",
    "category": "약자보호시설",
    "type": "전담의료기관",
    "address": "경상남도 창원시 의창구 용동로 57번길 8",
    "tel": "055-225-1129",
    "lat": 35.237961,
    "lng": 128.698677
  },
  {
    "name": "감계중학교",
    "category": "초중고",
    "type": "초중고",
    "address": "경상남도 창원시 의창구 북면 감계리 253-2",
    "tel": "",
    "lat": 35.300241,
    "lng": 128.587302
  },
  {
    "name": "감계초등학교",
    "category": "초중고",
    "type": "초중고",
    "address": "경상남도 창원시 의창구 북면 감계리 253-4",
    "tel": "",
    "lat": 35.300378,
    "lng": 128.588482
  },
  {
    "name": "금산초등학교",
    "category": "초중고",
    "type": "초중고",
    "address": "경상남도 김해시 진영읍 좌곤리 356-1",
    "tel": "",
    "lat": 35.291914,
    "lng": 128.708922
  },
  {
    "name": "길곡초등학교",
    "category": "초중고",
    "type": "초중고",
    "address": "경상남도 창녕군 길곡면 증산리 704",
    "tel": "",
    "lat": 35.385026,
    "lng": 128.567793
  },
  {
    "name": "사화초등학교",
    "category": "초중고",
    "type": "초중고",
    "address": "경상남도 창원시 의창구 팔용동 75",
    "tel": "",
    "lat": 35.252266,
    "lng": 128.617292
  },
  {
    "name": "동명중학교",
    "category": "초중고",
    "type": "초중고",
    "address": "경상남도 밀양시 하남읍 수산리 436-1",
    "tel": "",
    "lat": 35.373218,
    "lng": 128.712991
  },
  {
    "name": "밀양동명고등학교",
    "category": "초중고",
    "type": "초중고",
    "address": "경상남도 밀양시 하남읍 수산리 466",
    "tel": "",
    "lat": 35.373213,
    "lng": 128.712905
  },
  {
    "name": "대산초등학교",
    "category": "초중고",
    "type": "초중고",
    "address": "경상남도 창원시 의창구 대산면 가술리 149-12",
    "tel": "",
    "lat": 35.340282,
    "lng": 128.709513
  },
  {
    "name": "봉강초등학교",
    "category": "초중고",
    "type": "초중고",
    "address": "경상남도 창원시 의창구 동읍 봉강리 115-12",
    "tel": "",
    "lat": 35.350797,
    "lng": 128.655248
  },
  {
    "name": "명도초등학교",
    "category": "초중고",
    "type": "초중고",
    "address": "경상남도 창원시 의창구 명곡동 119",
    "tel": "",
    "lat": 35.255759,
    "lng": 128.643695
  },
  {
    "name": "명서중학교",
    "category": "초중고",
    "type": "초중고",
    "address": "경상남도 창원시 의창구 명서동 28-1",
    "tel": "",
    "lat": 35.251704,
    "lng": 128.643959
  },
  {
    "name": "명서초등학교",
    "category": "초중고",
    "type": "초중고",
    "address": "경상남도 창원시 의창구 명서동 28-2",
    "tel": "",
    "lat": 35.250016,
    "lng": 128.643344
  },
  {
    "name": "부곡초등학교학포분교장",
    "category": "초중고",
    "type": "초중고",
    "address": "경상남도 창녕군 부곡면 학포리 558",
    "tel": "",
    "lat": 35.381924,
    "lng": 128.633477
  },
  {
    "name": "도계중학교",
    "category": "초중고",
    "type": "초중고",
    "address": "경상남도 창원시 의창구 도계동 468-1",
    "tel": "",
    "lat": 35.255662,
    "lng": 128.634211
  },
  {
    "name": "도계초등학교",
    "category": "초중고",
    "type": "초중고",
    "address": "경상남도 창원시 의창구 도계동 357-1",
    "tel": "",
    "lat": 35.259238,
    "lng": 128.639503
  },
  {
    "name": "무동초등학교",
    "category": "초중고",
    "type": "초중고",
    "address": "경상남도 창원시 의창구 북면 무동리 121-2",
    "tel": "",
    "lat": 35.320442,
    "lng": 128.581794
  },
  {
    "name": "북면초등학교",
    "category": "초중고",
    "type": "초중고",
    "address": "경상남도 창원시 의창구 북면 감계리 231-2",
    "tel": "",
    "lat": 35.305293,
    "lng": 128.600062
  },
  {
    "name": "북면초등학교승산분교장",
    "category": "초중고",
    "type": "초중고",
    "address": "경상남도 창원시 의창구 북면 대산리 58-1",
    "tel": "",
    "lat": 35.303938,
    "lng": 128.627632
  },
  {
    "name": "소답초등학교",
    "category": "초중고",
    "type": "초중고",
    "address": "경상남도 창원시 의창구 소답동 144-1",
    "tel": "",
    "lat": 35.265154,
    "lng": 128.628892
  },
  {
    "name": "수산초등학교",
    "category": "초중고",
    "type": "초중고",
    "address": "경상남도 밀양시 하남읍 수산리 468-5",
    "tel": "",
    "lat": 35.37645,
    "lng": 128.71223
  },
  {
    "name": "온천초등학교",
    "category": "초중고",
    "type": "초중고",
    "address": "경상남도 창원시 의창구 북면 신촌리 612-2",
    "tel": "",
    "lat": 35.349409,
    "lng": 128.60493
  },
  {
    "name": "신등초등학교",
    "category": "초중고",
    "type": "초중고",
    "address": "경상남도 창원시 의창구 대산면 제동리 456-44",
    "tel": "",
    "lat": 35.321005,
    "lng": 128.699189
  },
  {
    "name": "신방초등학교",
    "category": "초중고",
    "type": "초중고",
    "address": "경상남도 창원시 의창구 동읍 신방리 668-7",
    "tel": "",
    "lat": 35.286305,
    "lng": 128.678762
  },
  {
    "name": "우암초등학교",
    "category": "초중고",
    "type": "초중고",
    "address": "경상남도 창원시 의창구 대산면 우암리 345-3",
    "tel": "",
    "lat": 35.334404,
    "lng": 128.729749
  },
  {
    "name": "팔룡중학교",
    "category": "초중고",
    "type": "초중고",
    "address": "경상남도 창원시 의창구 팔용동 74",
    "tel": "",
    "lat": 35.252225,
    "lng": 128.61757
  },
  {
    "name": "하천초등학교",
    "category": "초중고",
    "type": "초중고",
    "address": "경상남도 창원시 의창구 북면 하천리 944",
    "tel": "",
    "lat": 35.369684,
    "lng": 128.604193
  },
  {
    "name": "한얼중학교",
    "category": "초중고",
    "type": "초중고",
    "address": "경상남도 김해시 진영읍 여래리 479",
    "tel": "",
    "lat": 35.304494,
    "lng": 128.742066
  },
  {
    "name": "화양초등학교",
    "category": "초중고",
    "type": "초중고",
    "address": "경상남도 창원시 의창구 동읍 화양리 988-1",
    "tel": "",
    "lat": 35.305625,
    "lng": 128.652003
  },
  {
    "name": "의창초등학교",
    "category": "초중고",
    "type": "초중고",
    "address": "경상남도 창원시 의창구 중동 789",
    "tel": "",
    "lat": 35.253579,
    "lng": 128.629595
  },
  {
    "name": "일동초등학교",
    "category": "초중고",
    "type": "초중고",
    "address": "경상남도 창원시 의창구 대산면 일동리 328-1",
    "tel": "",
    "lat": 35.368599,
    "lng": 128.687308
  },
  {
    "name": "창덕중학교",
    "category": "초중고",
    "type": "초중고",
    "address": "경상남도 창원시 의창구 동읍 용잠리 282",
    "tel": "",
    "lat": 35.277441,
    "lng": 128.68882
  },
  {
    "name": "창북중학교",
    "category": "초중고",
    "type": "초중고",
    "address": "경상남도 창원시 의창구 북면 무동리 125-1",
    "tel": "",
    "lat": 35.346845,
    "lng": 128.602403
  },
  {
    "name": "창원고등학교",
    "category": "초중고",
    "type": "초중고",
    "address": "경상남도 창원시 의창구 도계동 902",
    "tel": "",
    "lat": 35.255172,
    "lng": 128.642528
  },
  {
    "name": "창원과학고등학교",
    "category": "초중고",
    "type": "초중고",
    "address": "경상남도 창원시 의창구 서상동 697",
    "tel": "",
    "lat": 35.25689,
    "lng": 128.62007
  },
  {
    "name": "자여초등학교",
    "category": "초중고",
    "type": "초중고",
    "address": "경상남도 창원시 의창구 동읍 단계리 252",
    "tel": "",
    "lat": 35.272844,
    "lng": 128.705678
  },
  {
    "name": "창원대산고등학교",
    "category": "초중고",
    "type": "초중고",
    "address": "경상남도 창원시 의창구 대산면 제동리 274-5",
    "tel": "",
    "lat": 35.333345,
    "lng": 128.710348
  },
  {
    "name": "창원대산중학교",
    "category": "초중고",
    "type": "초중고",
    "address": "경상남도 창원시 의창구 대산면 제동리 280",
    "tel": "",
    "lat": 35.33416,
    "lng": 128.710446
  },
  {
    "name": "창원동중학교",
    "category": "초중고",
    "type": "초중고",
    "address": "경상남도 창원시 의창구 동읍 신방리 868",
    "tel": "",
    "lat": 35.291345,
    "lng": 128.674842
  },
  {
    "name": "창원명곡고등학교",
    "category": "초중고",
    "type": "초중고",
    "address": "경상남도 창원시 의창구 명곡동 24-5",
    "tel": "",
    "lat": 35.254562,
    "lng": 128.64884
  },
  {
    "name": "창원명지여자고등학교",
    "category": "초중고",
    "type": "초중고",
    "address": "경상남도 창원시 의창구 명서동 3-2",
    "tel": "",
    "lat": 35.25184,
    "lng": 128.648941
  },
  {
    "name": "창원성민여자고등학교",
    "category": "초중고",
    "type": "초중고",
    "address": "경상남도 창원시 의창구 팔용동 171-2",
    "tel": "",
    "lat": 35.258844,
    "lng": 128.615348
  },
  {
    "name": "창원여자중학교",
    "category": "초중고",
    "type": "초중고",
    "address": "경상남도 창원시 의창구 팔용동 186",
    "tel": "",
    "lat": 35.259777,
    "lng": 128.616019
  },
  {
    "name": "창원중학교",
    "category": "초중고",
    "type": "초중고",
    "address": "경상남도 창원시 의창구 도계동 901",
    "tel": "",
    "lat": 35.255418,
    "lng": 128.641885
  },
  {
    "name": "창원초등학교",
    "category": "초중고",
    "type": "초중고",
    "address": "경상남도 창원시 의창구 서상동 513-4",
    "tel": "",
    "lat": 35.266039,
    "lng": 128.619244
  },
  {
    "name": "창원한들초등학교",
    "category": "초중고",
    "type": "초중고",
    "address": "경상남도 창원시 의창구 봉림동 530",
    "tel": "",
    "lat": 35.253619,
    "lng": 128.668361
  },
  {
    "name": "중동초등학교",
    "category": "초중고",
    "type": "초중고",
    "address": "경상남도 창원시 의창구 서상동 657",
    "tel": "",
    "lat": 35.259501,
    "lng": 128.623403
  },
  {
    "name": "진영고등학교",
    "category": "초중고",
    "type": "초중고",
    "address": "경상남도 김해시 진영읍 진영리 275-21",
    "tel": "",
    "lat": 35.304768,
    "lng": 128.730005
  },
  {
    "name": "진영금병초등학교",
    "category": "초중고",
    "type": "초중고",
    "address": "경상남도 김해시 진영읍 진영리 1611-5",
    "tel": "",
    "lat": 35.3097,
    "lng": 128.734776
  },
  {
    "name": "진영대창초등학교",
    "category": "초중고",
    "type": "초중고",
    "address": "경상남도 김해시 진영읍 여래리 384-9",
    "tel": "",
    "lat": 35.301269,
    "lng": 128.739714
  },
  {
    "name": "진영대흥초등학교",
    "category": "초중고",
    "type": "초중고",
    "address": "경상남도 김해시 진영읍 진영리 270-1",
    "tel": "",
    "lat": 35.303873,
    "lng": 128.725509
  },
  {
    "name": "진영여자중학교",
    "category": "초중고",
    "type": "초중고",
    "address": "경상남도 김해시 진영읍 진영리 275-45",
    "tel": "",
    "lat": 35.304321,
    "lng": 128.731851
  },
  {
    "name": "진영장등중학교",
    "category": "초중고",
    "type": "초중고",
    "address": "경남 김해시 진영읍 진영리 1706",
    "tel": "",
    "lat": 35.312376,
    "lng": 128.730784
  },
  {
    "name": "진영장등초등학교",
    "category": "초중고",
    "type": "초중고",
    "address": "경남 김해시 진영읍 진영리 1706",
    "tel": "",
    "lat": 35.312376,
    "lng": 128.730784
  },
  {
    "name": "진영제일고등학교",
    "category": "초중고",
    "type": "초중고",
    "address": "경상남도 김해시 진영읍 여래리 113",
    "tel": "",
    "lat": 35.303731,
    "lng": 128.743287
  },
  {
    "name": "진영중앙초등학교",
    "category": "초중고",
    "type": "초중고",
    "address": "경상남도 김해시 진영읍 진영리 1587",
    "tel": "",
    "lat": 35.309238,
    "lng": 128.726662
  },
  {
    "name": "진영중학교",
    "category": "초중고",
    "type": "초중고",
    "address": "경상남도 김해시 진영읍 진영리 1611-6",
    "tel": "",
    "lat": 35.309055,
    "lng": 128.734459
  },
  {
    "name": "고요숲속샘터유치원",
    "category": "유아시설",
    "type": "유아시설",
    "address": "경상남도 창원시 의창구 동읍 신방리 702-6",
    "tel": "",
    "lat": 35.287262,
    "lng": 128.680998
  },
  {
    "name": "나무와아이들유치원",
    "category": "유아시설",
    "type": "유아시설",
    "address": "경상남도 김해시 진영읍 여래리 297-1",
    "tel": "",
    "lat": 35.297842,
    "lng": 128.737355
  },
  {
    "name": "노벨유치원",
    "category": "유아시설",
    "type": "유아시설",
    "address": "경상남도 창원시 의창구 명서동 87-2",
    "tel": "",
    "lat": 35.246444,
    "lng": 128.641099
  },
  {
    "name": "꽃누리별누리유치원",
    "category": "유아시설",
    "type": "유아시설",
    "address": "경상남도 창원시 의창구 도계동 416-5",
    "tel": "",
    "lat": 35.25627,
    "lng": 128.641204
  },
  {
    "name": "명곡유치원",
    "category": "유아시설",
    "type": "유아시설",
    "address": "경상남도 창원시 의창구 명서동 80-2",
    "tel": "",
    "lat": 35.247032,
    "lng": 128.644582
  },
  {
    "name": "리라자연생태유치원",
    "category": "유아시설",
    "type": "유아시설",
    "address": "경상남도 창원시 의창구 북면 무곡리 833",
    "tel": "",
    "lat": 35.333606,
    "lng": 128.574547
  },
  {
    "name": "바다의별유치원",
    "category": "유아시설",
    "type": "유아시설",
    "address": "경상남도 김해시 진영읍 본산리 1086",
    "tel": "",
    "lat": 35.318414,
    "lng": 128.744942
  },
  {
    "name": "바른나무유치원",
    "category": "유아시설",
    "type": "유아시설",
    "address": "경상남도 창원시 의창구 팔용동 124-1",
    "tel": "",
    "lat": 35.255458,
    "lng": 128.615295
  },
  {
    "name": "살레시오성미유치원",
    "category": "유아시설",
    "type": "유아시설",
    "address": "경상남도 창원시 의창구 소답동 127-2",
    "tel": "",
    "lat": 35.267814,
    "lng": 128.627758
  },
  {
    "name": "삼성이칼러지유치원",
    "category": "유아시설",
    "type": "유아시설",
    "address": "경상남도 김해시 진영읍 진영리 1533",
    "tel": "",
    "lat": 35.305994,
    "lng": 128.722594
  },
  {
    "name": "아람우리꽃들유치원",
    "category": "유아시설",
    "type": "유아시설",
    "address": "경상남도 창원시 의창구 서상동 549",
    "tel": "",
    "lat": 35.26455,
    "lng": 128.619316
  },
  {
    "name": "아름다운성아유치원",
    "category": "유아시설",
    "type": "유아시설",
    "address": "경상남도 창원시 의창구 북면 신촌리 321-1",
    "tel": "",
    "lat": 35.358574,
    "lng": 128.61651
  },
  {
    "name": "원흥사금강유치원",
    "category": "유아시설",
    "type": "유아시설",
    "address": "경상남도 창원시 의창구 도계동 912",
    "tel": "",
    "lat": 35.251601,
    "lng": 128.636469
  },
  {
    "name": "진영유치원",
    "category": "유아시설",
    "type": "유아시설",
    "address": "경남 김해시 진영읍 본산리 1552",
    "tel": "",
    "lat": 35.315101,
    "lng": 128.738977
  },
  {
    "name": "창원유치원",
    "category": "유아시설",
    "type": "유아시설",
    "address": "경상남도 창원시 의창구 소답동 436-1",
    "tel": "",
    "lat": 35.266912,
    "lng": 128.622917
  },
  {
    "name": "창원진달래유치원",
    "category": "유아시설",
    "type": "유아시설",
    "address": "경상남도 창원시 의창구 북면 동전리 141-3",
    "tel": "",
    "lat": 35.31751,
    "lng": 128.598499
  },
  {
    "name": "하나유치원",
    "category": "유아시설",
    "type": "유아시설",
    "address": "경상남도 창원시 의창구 북면 감계리 1000",
    "tel": "",
    "lat": 35.299836,
    "lng": 128.589831
  },
  {
    "name": "하늘땅유치원",
    "category": "유아시설",
    "type": "유아시설",
    "address": "경상남도 창원시 의창구 북면 동전리 654",
    "tel": "",
    "lat": 35.314018,
    "lng": 128.587096
  },
  {
    "name": "청아유치원",
    "category": "유아시설",
    "type": "유아시설",
    "address": "경상남도 김해시 진영읍 방동리 302-2",
    "tel": "",
    "lat": 35.289004,
    "lng": 128.709986
  },
  {
    "name": "가람어린이집",
    "category": "유아시설",
    "type": "유아시설",
    "address": "경상남도 김해시 진영읍 진영리 1564",
    "tel": "",
    "lat": 35.304829,
    "lng": 128.722193
  },
  {
    "name": "경상남도사회서비스원김해시중흥어린이집",
    "category": "유아시설",
    "type": "유아시설",
    "address": "경상남도 김해시 진영읍 진영리 1690",
    "tel": "",
    "lat": 35.310127,
    "lng": 128.720353
  },
  {
    "name": "가온누리어린이집",
    "category": "유아시설",
    "type": "유아시설",
    "address": "경상남도 김해시 진영읍 진영리 1705",
    "tel": "",
    "lat": 35.312668,
    "lng": 128.731624
  },
  {
    "name": "가은어린이집",
    "category": "유아시설",
    "type": "유아시설",
    "address": "경상남도 창원시 의창구 동읍 신방리 52",
    "tel": "",
    "lat": 35.285451,
    "lng": 128.683071
  },
  {
    "name": "감계누리어린이집",
    "category": "유아시설",
    "type": "유아시설",
    "address": "경상남도 창원시 의창구 북면 감계리 230-1",
    "tel": "",
    "lat": 35.303614,
    "lng": 128.597768
  },
  {
    "name": "감계빅스맘어린이집",
    "category": "유아시설",
    "type": "유아시설",
    "address": "경상남도 창원시 의창구 북면 감계리 227-2",
    "tel": "",
    "lat": 35.303946,
    "lng": 128.590114
  },
  {
    "name": "감계아이숲어린이집",
    "category": "유아시설",
    "type": "유아시설",
    "address": "경상남도 창원시 의창구 북면 감계리 231-10",
    "tel": "",
    "lat": 35.303826,
    "lng": 128.598357
  },
  {
    "name": "고운맘어린이집",
    "category": "유아시설",
    "type": "유아시설",
    "address": "null",
    "tel": "",
    "lat": 35.317847,
    "lng": 128.583138
  },
  {
    "name": "동부산솔밭어린이집",
    "category": "유아시설",
    "type": "유아시설",
    "address": "null",
    "tel": "",
    "lat": 35.275839,
    "lng": 128.705202
  },
  {
    "name": "동창원어린이집",
    "category": "유아시설",
    "type": "유아시설",
    "address": "null",
    "tel": "",
    "lat": 35.277302,
    "lng": 128.703135
  },
  {
    "name": "동읍다람어린이집",
    "category": "유아시설",
    "type": "유아시설",
    "address": "경상남도 창원시 의창구 동읍 용잠리 235",
    "tel": "",
    "lat": 35.28042,
    "lng": 128.68986
  },
  {
    "name": "동화어린이집",
    "category": "유아시설",
    "type": "유아시설",
    "address": "경상남도 창원시 의창구 팔용동 123-2",
    "tel": "",
    "lat": 35.2535,
    "lng": 128.619645
  },
  {
    "name": "달팽이꽃어린이집",
    "category": "유아시설",
    "type": "유아시설",
    "address": "경상남도 김해시 진영읍 진영리 1884",
    "tel": "",
    "lat": 35.306628,
    "lng": 128.719049
  },
  {
    "name": "도계에덴어린이집",
    "category": "유아시설",
    "type": "유아시설",
    "address": "경상남도 창원시 의창구 도계동 320-13",
    "tel": "",
    "lat": 35.26243,
    "lng": 128.639646
  },
  {
    "name": "노아어린이집",
    "category": "유아시설",
    "type": "유아시설",
    "address": "null",
    "tel": "",
    "lat": 35.308583,
    "lng": 128.732974
  },
  {
    "name": "다숲어린이집",
    "category": "유아시설",
    "type": "유아시설",
    "address": "경상남도 창원시 의창구 서상동 649",
    "tel": "",
    "lat": 35.261199,
    "lng": 128.61835
  },
  {
    "name": "다원어린이집",
    "category": "유아시설",
    "type": "유아시설",
    "address": "경상남도 창원시 의창구 팔용동 195-1",
    "tel": "",
    "lat": 35.260983,
    "lng": 128.616471
  },
  {
    "name": "다인어린이집",
    "category": "유아시설",
    "type": "유아시설",
    "address": "null",
    "tel": "",
    "lat": 35.303614,
    "lng": 128.597768
  },
  {
    "name": "꼬마사랑어린이집",
    "category": "유아시설",
    "type": "유아시설",
    "address": "null",
    "tel": "",
    "lat": 35.377159,
    "lng": 128.711039
  },
  {
    "name": "꼬마사랑어린이집",
    "category": "유아시설",
    "type": "유아시설",
    "address": "null",
    "tel": "",
    "lat": 35.37717,
    "lng": 128.711162
  },
  {
    "name": "꿈나래어린이집",
    "category": "유아시설",
    "type": "유아시설",
    "address": "경상남도 창원시 의창구 팔용동 122",
    "tel": "",
    "lat": 35.253747,
    "lng": 128.616502
  },
  {
    "name": "꿈땅어린이집",
    "category": "유아시설",
    "type": "유아시설",
    "address": "null",
    "tel": "",
    "lat": 35.303838,
    "lng": 128.596532
  },
  {
    "name": "꿈샘어린이집",
    "category": "유아시설",
    "type": "유아시설",
    "address": "경상남도 창원시 의창구 동읍 단계리 277",
    "tel": "",
    "lat": 35.273126,
    "lng": 128.705603
  },
  {
    "name": "나무와샘어린이집",
    "category": "유아시설",
    "type": "유아시설",
    "address": "경상남도 창원시 의창구 북면 무동리 123-1",
    "tel": "",
    "lat": 35.319148,
    "lng": 128.583163
  },
  {
    "name": "꼬마숲어린이집",
    "category": "유아시설",
    "type": "유아시설",
    "address": "경상남도 창원시 의창구 북면 감계리 227-1",
    "tel": "",
    "lat": 35.302561,
    "lng": 128.589612
  },
  {
    "name": "꼬망쎄어린이집",
    "category": "유아시설",
    "type": "유아시설",
    "address": "경상남도 창원시 의창구 팔용동 122",
    "tel": "",
    "lat": 35.253747,
    "lng": 128.616502
  },
  {
    "name": "꽃가람어린이집",
    "category": "유아시설",
    "type": "유아시설",
    "address": "null",
    "tel": "",
    "lat": 35.303614,
    "lng": 128.597768
  },
  {
    "name": "꽃뜰어린이집",
    "category": "유아시설",
    "type": "유아시설",
    "address": "경상남도 김해시 진영읍 진영리 1611-4",
    "tel": "",
    "lat": 35.300898,
    "lng": 128.72904
  },
  {
    "name": "꼬마또래어린이집",
    "category": "유아시설",
    "type": "유아시설",
    "address": "경상남도 창원시 의창구 팔용동 122",
    "tel": "",
    "lat": 35.253747,
    "lng": 128.616502
  },
  {
    "name": "꽃새미어린이집",
    "category": "유아시설",
    "type": "유아시설",
    "address": "null",
    "tel": "",
    "lat": 35.262112,
    "lng": 128.640162
  },
  {
    "name": "브레인영재어린이집",
    "category": "유아시설",
    "type": "유아시설",
    "address": "경상남도 창원시 의창구 도계동 351-2",
    "tel": "",
    "lat": 35.261191,
    "lng": 128.639403
  },
  {
    "name": "사랑의어린이집",
    "category": "유아시설",
    "type": "유아시설",
    "address": "null",
    "tel": "",
    "lat": 35.250985,
    "lng": 128.65033
  },