[
  {
    "name": "마산고용복지플러스센터",
    "category": "관공서",
    "type": "관공서",
    "address": "경상남도 창원시 마산회원구 3·15대로 628",
    "tel": "055-259-1500",
    "lat": 35.229249,
    "lng": 128.576004
  },
  {
    "name": "국립3.15민주묘지관리소",
    "category": "관공서",
    "type": "관공서",
    "address": "경상남도 창원시 마산회원구 3·15성역로 75 (구암동, 국립3.15기념관)",
    "tel": "055-253-9315",
    "lat": 35.252672,
    "lng": 128.587522
  },
  {
    "name": "마산양덕동우체국",
    "category": "관공서",
    "type": "관공서",
    "address": "경상남도 창원시 마산회원구 양덕동2길 37 (양덕동)",
    "tel": "055-293-4262",
    "lat": 35.223113,
    "lng": 128.589352
  },
  {
    "name": "마산회성동우체국",
    "category": "관공서",
    "type": "관공서",
    "address": "경상남도 창원시 마산회원구 북성로 285 (회성동)",
    "tel": "055-252-2004",
    "lat": 35.231183,
    "lng": 128.565448
  },
  {
    "name": "마산봉암동우체국",
    "category": "관공서",
    "type": "관공서",
    "address": "경상남도 창원시 마산회원구 봉암북14길 2(봉암동)",
    "tel": "055-296-0222",
    "lat": 35.217843,
    "lng": 128.605671
  },
  {
    "name": "마산구암동우체국",
    "category": "관공서",
    "type": "관공서",
    "address": "경상남도 창원시 마산회원구 금강로 283 (구암동)",
    "tel": "055-295-2050",
    "lat": 35.252556,
    "lng": 128.595146
  },
  {
    "name": "마산삼계우체국",
    "category": "관공서",
    "type": "관공서",
    "address": "경상남도 창원시 마산회원구 내서읍 삼계로 30",
    "tel": "055-232-0080",
    "lat": 35.232177,
    "lng": 128.501512
  },
  {
    "name": "마산내서우체국",
    "category": "관공서",
    "type": "관공서",
    "address": "경상남도 창원시 마산회원구 내서읍 중리공단로 225-1",
    "tel": "055-231-0009",
    "lat": 35.248929,
    "lng": 128.517795
  },
  {
    "name": "마산회성시장우편취급국",
    "category": "관공서",
    "type": "관공서",
    "address": "경상남도 창원시 마산회원구 회성시장1길 16 (회성동)",
    "tel": "055-295-8248",
    "lat": 35.233109,
    "lng": 128.559017
  },
  {
    "name": "마산태화우편취급국",
    "category": "관공서",
    "type": "관공서",
    "address": "경상남도 창원시 마산회원구 회원동16길 50 (회원동)",
    "tel": "055-248-0014",
    "lat": 35.220396,
    "lng": 128.57159
  },
  {
    "name": "마산합성1동우편취급국",
    "category": "관공서",
    "type": "관공서",
    "address": "경상남도 창원시 마산회원구 합성서1길 119 (합성동)",
    "tel": "055-292-0840",
    "lat": 35.241897,
    "lng": 128.584046
  },
  {
    "name": "마산팔용우편취급국",
    "category": "관공서",
    "type": "관공서",
    "address": "경상남도 창원시 마산회원구 팔용로 139 (합성동)",
    "tel": "055-296-2005",
    "lat": 35.241565,
    "lng": 128.59009
  },
  {
    "name": "마산대학교우편취급국",
    "category": "관공서",
    "type": "관공서",
    "address": "경상남도 창원시 마산회원구 내서읍 함마대로 2640 마산대학",
    "tel": "055-232-3163",
    "lat": 35.258901,
    "lng": 128.504081
  },
  {
    "name": "마산중리우편취급국",
    "category": "관공서",
    "type": "관공서",
    "address": "경상남도 창원시 마산회원구 내서읍 호원로 241-1",
    "tel": "055-231-7714",
    "lat": 35.255044,
    "lng": 128.521265
  },
  {
    "name": "마산회원도서관",
    "category": "관공서",
    "type": "관공서",
    "address": "경상남도 창원시 마산회원구 3·15대로 558 (회원동)",
    "tel": "055-225-7461",
    "lat": 35.224583,
    "lng": 128.573574
  },
  {
    "name": "구암1동행정복지센터",
    "category": "관공서",
    "type": "관공서",
    "address": "경상남도 창원시 마산회원구 구암서2길 95",
    "tel": "055-230-5660",
    "lat": 35.249413,
    "lng": 128.593522
  },
  {
    "name": "구암2동행정복지센터",
    "category": "관공서",
    "type": "관공서",
    "address": "경상남도 창원시 마산회원구 구암남16길 12",
    "tel": "055-230-5710",
    "lat": 35.249011,
    "lng": 128.598428
  },
  {
    "name": "내서읍행정복지센터",
    "category": "관공서",
    "type": "관공서",
    "address": "경상남도 창원시 마산회원구 내서읍 중리상곡로 65",
    "tel": "055-230-5010",
    "lat": 35.246781,
    "lng": 128.507654
  },
  {
    "name": "봉암동행정복지센터",
    "category": "관공서",
    "type": "관공서",
    "address": "경상남도 창원시 마산회원구 봉양로 148",
    "tel": "055-230-5760",
    "lat": 35.218104,
    "lng": 128.602593
  },
  {
    "name": "석전동행정복지센터",
    "category": "관공서",
    "type": "관공서",
    "address": "경상남도 창원시 마산회원구 석전동4길 52",
    "tel": "055-230-5360",
    "lat": 35.230265,
    "lng": 128.573108
  },
  {
    "name": "양덕1동행정복지센터",
    "category": "관공서",
    "type": "관공서",
    "address": "경상남도 창원시 마산회원구 팔용로 25",
    "tel": "055-230-5460",
    "lat": 35.232255,
    "lng": 128.586068
  },
  {
    "name": "양덕2동행정복지센터",
    "category": "관공서",
    "type": "관공서",
    "address": "경상남도 창원시 마산회원구 율림교로 3",
    "tel": "055-230-5510",
    "lat": 35.229166,
    "lng": 128.583905
  },
  {
    "name": "합성1동행정복지센터",
    "category": "관공서",
    "type": "관공서",
    "address": "경상남도 창원시 마산회원구 합성서3길 21",
    "tel": "055-230-5560",
    "lat": 35.242174,
    "lng": 128.583922
  },
  {
    "name": "합성2동행정복지센터",
    "category": "관공서",
    "type": "관공서",
    "address": "경상남도 창원시 마산회원구 합성남8길 46",
    "tel": "055-230-5610",
    "lat": 35.239019,
    "lng": 128.586759
  },
  {
    "name": "회성동행정복지센터",
    "category": "관공서",
    "type": "관공서",
    "address": "경상남도 창원시 마산회원구 북성로 327",
    "tel": "055-230-5410",
    "lat": 35.23306,
    "lng": 128.561687
  },
  {
    "name": "회원1동행정복지센터",
    "category": "관공서",
    "type": "관공서",
    "address": "경상남도 창원시 마산회원구 회원동11길 7",
    "tel": "055-230-5210",
    "lat": 35.218226,
    "lng": 128.57425
  },
  {
    "name": "회원2동행정복지센터",
    "category": "관공서",
    "type": "관공서",
    "address": "경상남도 창원시 마산회원구회원서12길14",
    "tel": "055-230-5260",
    "lat": 35.216625,
    "lng": 128.559857
  },
  {
    "name": "마산회원구청",
    "category": "관공서",
    "type": "관공서",
    "address": "경상남도 창원시 마산회원구 삼호로 63 (양덕동)",
    "tel": "055-230-2114",
    "lat": 35.220723,
    "lng": 128.579586
  },
  {
    "name": "창원롯데캐슬센텀골드-물놀이터",
    "category": "어린이놀이시설",
    "type": "어린이놀이시설",
    "address": "경남 창원시 마산회원구 양덕로 10",
    "tel": "",
    "lat": 35.222421,
    "lng": 128.593785
  },
  {
    "name": "몬스터파크 마산",
    "category": "어린이놀이시설",
    "type": "어린이놀이시설",
    "address": "경남 창원시 마산회원구 삼호로 56",
    "tel": "",
    "lat": 35.222644,
    "lng": 128.585753
  },
  {
    "name": "양덕솔빛유치원 어린이놀이시설",
    "category": "어린이놀이시설",
    "type": "어린이놀이시설",
    "address": "경남 창원시 마산회원구 삼호로 108",
    "tel": "",
    "lat": 35.225327,
    "lng": 128.581676
  },
  {
    "name": "히어로플레이파크 마산",
    "category": "어린이놀이시설",
    "type": "어린이놀이시설",
    "address": "경남 창원시 마산회원구 내서읍 광려천서로 81",
    "tel": "",
    "lat": 35.249024,
    "lng": 128.510669
  },
  {
    "name": "샤브마니아  실내놀이시설",
    "category": "어린이놀이시설",
    "type": "어린이놀이시설",
    "address": "경남 창원시 마산회원구 내서읍 광려천서로 205",
    "tel": "",
    "lat": 35.257847,
    "lng": 128.51766
  },
  {
    "name": "아이행복센터",
    "category": "어린이놀이시설",
    "type": "어린이놀이시설",
    "address": "경남 창원시 마산회원구 석전북18길 10",
    "tel": "",
    "lat": 35.231203,
    "lng": 128.567043
  },
  {
    "name": "창원두산위브더센트럴 1단지 어린이놀이터1(103동앞)",
    "category": "어린이놀이시설",
    "type": "어린이놀이시설",
    "address": "경남 창원시 마산회원구 합성동 286-1",
    "tel": "",
    "lat": 35.237483,
    "lng": 128.588031
  },
  {
    "name": "창원두산위브더센트럴 1단지 어린이놀이터2(어린이집앞)",
    "category": "어린이놀이시설",
    "type": "어린이놀이시설",
    "address": "경남 창원시 마산회원구 합성동 286-1",
    "tel": "",
    "lat": 35.237513,
    "lng": 128.588042
  },
  {
    "name": "창원두산위브더센트럴 2단지 어린이놀이터(205동앞)",
    "category": "어린이놀이시설",
    "type": "어린이놀이시설",
    "address": "경남 창원시 마산회원구 합성동 286-1",
    "tel": "",
    "lat": 35.237553,
    "lng": 128.588031
  },
  {
    "name": "창원 롯데캐슬 하버팰리스 어린이 놀이터1번",
    "category": "어린이놀이시설",
    "type": "어린이놀이시설",
    "address": "경남 창원시 마산회원구 양덕동2길 20",
    "tel": "",
    "lat": 35.221995,
    "lng": 128.590718
  },
  {
    "name": "창원 롯데캐슬 하버팰리스 유아놀이터",
    "category": "어린이놀이시설",
    "type": "어린이놀이시설",
    "address": "경남 창원시 마산회원구 양덕동2길 20",
    "tel": "",
    "lat": 35.221995,
    "lng": 128.590718
  },
  {
    "name": "창원롯데캐슬하버팰리스 -물놀이터",
    "category": "어린이놀이시설",
    "type": "어린이놀이시설",
    "address": "경남 창원시 마산회원구 양덕동2길 20",
    "tel": "",
    "lat": 35.221941,
    "lng": 128.59052
  },
  {
    "name": "봉덕초등학교 병설유치원 어린이놀이대",
    "category": "어린이놀이시설",
    "type": "어린이놀이시설",
    "address": "경남 창원시 마산회원구 봉덕1길 14",
    "tel": "",
    "lat": 35.222535,
    "lng": 128.594538
  },
  {
    "name": "회원일출어린이공원",
    "category": "어린이놀이시설",
    "type": "어린이놀이시설",
    "address": "창원시 마산회원구 회원동 650",
    "tel": "",
    "lat": 35.215815,
    "lng": 128.560067
  },
  {
    "name": "라라코스트 롯데마트 마산 양덕점",
    "category": "어린이놀이시설",
    "type": "어린이놀이시설",
    "address": "경남 창원시 마산회원구 삼호로 80",
    "tel": "",
    "lat": 35.225472,
    "lng": 128.585734
  },
  {
    "name": "구암손주사랑어린이공원(8호)",
    "category": "어린이놀이시설",
    "type": "어린이놀이시설",
    "address": "경상남도 창원시 마산회원구 구암북8길 9 (구암동)",
    "tel": "",
    "lat": 35.253519,
    "lng": 128.594024
  },
  {
    "name": "합성우리아이어린이공원(13호)",
    "category": "어린이놀이시설",
    "type": "어린이놀이시설",
    "address": "경상남도 창원시 마산회원구 합성동11길 69 (합성동)",
    "tel": "",
    "lat": 35.241881,
    "lng": 128.588307
  },
  {
    "name": "석전도담도담어린이공원(3호)",
    "category": "어린이놀이시설",
    "type": "어린이놀이시설",
    "address": "경상남도 창원시 마산회원구 석전동13길 6 (석전동)",
    "tel": "",
    "lat": 35.232843,
    "lng": 128.577298
  },
  {
    "name": "양덕어울림어린이공원(11호)",
    "category": "어린이놀이시설",
    "type": "어린이놀이시설",
    "address": "경상남도 창원시 마산회원구 팔용로 65-1 (양덕동)",
    "tel": "",
    "lat": 35.235487,
    "lng": 128.588435
  },
  {
    "name": "봉암언덕위어린이공원(18호)",
    "category": "어린이놀이시설",
    "type": "어린이놀이시설",
    "address": "경상남도 창원시 마산회원구 봉암북10길 16 (봉암동)",
    "tel": "",
    "lat": 35.22094,
    "lng": 128.597934
  },
  {
    "name": "회원탄생어린이공원(4호)",
    "category": "어린이놀이시설",
    "type": "어린이놀이시설",
    "address": "경상남도 창원시 마산회원구 회원동11길 2 (회원동)",
    "tel": "",
    "lat": 35.218416,
    "lng": 128.573867
  },
  {
    "name": "회원백화어린이공원(23호)",
    "category": "어린이놀이시설",
    "type": "어린이놀이시설",
    "address": "경상남도 창원시 마산회원구 회원북28길 82 (회원동)",
    "tel": "",
    "lat": 35.221856,
    "lng": 128.567606
  },
  {
    "name": "중리본동행복어린이공원(44호)",
    "category": "어린이놀이시설",
    "type": "어린이놀이시설",
    "address": "경상남도 창원시 마산회원구 내서읍 중리1길 87-11",
    "tel": "",
    "lat": 35.249439,
    "lng": 128.509004
  },
  {
    "name": "삼계숲속달님어린이공원(76호)",
    "category": "어린이놀이시설",
    "type": "어린이놀이시설",
    "address": "경상남도 창원시 마산회원구 내서읍 숲속로 20-1",
    "tel": "",
    "lat": 35.229916,
    "lng": 128.497064
  },
  {
    "name": "숲속자람터어린이집놀이터",
    "category": "어린이놀이시설",
    "type": "어린이놀이시설",
    "address": "경상남도 창원시 마산회원구 내서읍 삼계로 288-18",
    "tel": "",
    "lat": 35.242564,
    "lng": 128.479035
  },
  {
    "name": "코오롱하늘채1차아파트  어린이놀이터4 (한샘유치원앞놀이터)",
    "category": "어린이놀이시설",
    "type": "어린이놀이시설",
    "address": "경상남도 창원시 마산회원구 내서읍 호원로 361-3 (코오롱하늘채1차아파트)",
    "tel": "",
    "lat": 35.267428,
    "lng": 128.525415
  },
  {
    "name": "구암대동아파트 109동 놀이터",
    "category": "어린이놀이시설",
    "type": "어린이놀이시설",
    "address": "경상남도 창원시 마산회원구 구암남16길 54 (구암동, 구암대동타운)",
    "tel": "",
    "lat": 35.248936,
    "lng": 128.599828
  },
  {
    "name": "대동피렌체아파트 어린이놀이터",
    "category": "어린이놀이시설",
    "type": "어린이놀이시설",
    "address": "경상남도 창원시 마산회원구 양덕옛1길 33 (석전동)",
    "tel": "",
    "lat": 35.226546,
    "lng": 128.574521
  },
  {
    "name": "한주아파트 어린이놀이터",
    "category": "어린이놀이시설",
    "type": "어린이놀이시설",
    "address": "경상남도 창원시 마산회원구 내서읍 함마대로 2821 (한주아파트)",
    "tel": "",
    "lat": 35.248158,
    "lng": 128.520706
  },
  {
    "name": "화인태양아파트 어린이놀이터",
    "category": "어린이놀이시설",
    "type": "어린이놀이시설",
    "address": "경상남도 창원시 마산회원구 내서읍 광려천북로 206 (화인태양맨션)",
    "tel": "",
    "lat": 35.268149,
    "lng": 128.523961
  },
  {
    "name": "정우맨션 어린이놀이터",
    "category": "어린이놀이시설",
    "type": "어린이놀이시설",
    "address": "경상남도 창원시 마산회원구 양덕동2길 106 (양덕동)",
    "tel": "",
    "lat": 35.22621,
    "lng": 128.588488
  },
  {
    "name": "조은나오스빌아파트 어린이놀이터",
    "category": "어린이놀이시설",
    "type": "어린이놀이시설",
    "address": "경상남도 창원시 마산회원구 내서읍 삼풍로 2 (조은아파트)",
    "tel": "",
    "lat": 35.226585,
    "lng": 128.504643
  },
  {
    "name": "삼계대동이미지아파트 놀이터2(113동옆)",
    "category": "어린이놀이시설",
    "type": "어린이놀이시설",
    "address": "경상남도 창원시 마산회원구 내서읍 광려로 28 (삼계대동이미지1차아파트)",
    "tel": "",
    "lat": 35.222969,
    "lng": 128.501628
  },
  {
    "name": "숲속마을주공6단지아파트(603동) 놀이터",
    "category": "어린이놀이시설",
    "type": "어린이놀이시설",
    "address": "경상남도 창원시 마산회원구 내서읍 숲속로 27 (숲속마을주공6단지아파트)",
    "tel": "",
    "lat": 35.228725,
    "lng": 128.498002
  },
  {
    "name": "삼계주공3단지아파트 어린이놀이터1",
    "category": "어린이놀이시설",
    "type": "어린이놀이시설",
    "address": "경상남도 창원시 마산회원구 내서읍 삼계본동1길 86 (숲속마을주공3단지아파트)",
    "tel": "",
    "lat": 35.232087,
    "lng": 128.496504
  },
  {
    "name": "타워맨션 어린이놀이터",
    "category": "어린이놀이시설",
    "type": "어린이놀이시설",
    "address": "경상남도 창원시 마산회원구 양덕동9길 43 (양덕동, 타워맨션)",
    "tel": "",
    "lat": 35.229664,
    "lng": 128.586552
  },
  {
    "name": "배진아파트 어린이놀이터",
    "category": "어린이놀이시설",
    "type": "어린이놀이시설",
    "address": "경상남도 창원시 마산회원구 구암반계길 17 (구암동)",
    "tel": "",
    "lat": 35.249732,
    "lng": 128.603612
  },
  {
    "name": "코오롱하늘채1차아파트  어린이놀이터1 101동 뒤",
    "category": "어린이놀이시설",
    "type": "어린이놀이시설",
    "address": "경상남도 창원시 마산회원구 내서읍 호원로 361-3 (코오롱하늘채1차아파트)",
    "tel": "",
    "lat": 35.267428,
    "lng": 128.525415
  },
  {
    "name": "회원노을어린이공원(24호)",
    "category": "어린이놀이시설",
    "type": "어린이놀이시설",
    "address": "경상남도 창원시 마산회원구 회원북26길 45 (회원동, 80교방1지구 국민주택)",
    "tel": "",
    "lat": 35.219446,
    "lng": 128.564034
  },
  {
    "name": "중리동신샛별어린이공원(43호)",
    "category": "어린이놀이시설",
    "type": "어린이놀이시설",
    "address": "경상남도 창원시 마산회원구 내서읍 중리상곡로 124",
    "tel": "",
    "lat": 35.2465,
    "lng": 128.5179
  },
  {
    "name": "회성당산어린이공원(21호)",
    "category": "어린이놀이시설",
    "type": "어린이놀이시설",
    "address": "경상남도 창원시 마산회원구 북성로 351 (회성동)",
    "tel": "",
    "lat": 35.233076,
    "lng": 128.561637
  },
  {
    "name": "창원시립석전어린이집",
    "category": "어린이놀이시설",
    "type": "어린이놀이시설",
    "address": "경상남도 창원시 마산회원구 석전북11길 6-10 (석전동)",
    "tel": "",
    "lat": 35.232514,
    "lng": 128.570232
  },
  {
    "name": "배진APT 놀이터",
    "category": "어린이놀이시설",
    "type": "어린이놀이시설",
    "address": "경상남도 창원시 마산회원구 양덕남8길 9 (양덕동)",
    "tel": "",
    "lat": 35.222395,
    "lng": 128.586709
  },
  {
    "name": "백로아파트 어린이놀이터(조합,그네,흔들기구 5종,모래만 검사)",
    "category": "어린이놀이시설",
    "type": "어린이놀이시설",
    "address": "경상남도 창원시 마산회원구 내서읍 중리상곡로 20",
    "tel": "",
    "lat": 35.243509,
    "lng": 128.505123
  },
  {
    "name": "봉암돌고래어린이공원(17호)",
    "category": "어린이놀이시설",
    "type": "어린이놀이시설",
    "address": "경상남도 창원시 마산회원구 봉덕2길 58 (봉암동)",
    "tel": "",
    "lat": 35.222982,
    "lng": 128.596921
  },
  {
    "name": "회성살구어린이공원(22호)",
    "category": "어린이놀이시설",
    "type": "어린이놀이시설",
    "address": null,
    "tel": "",
    "lat": 35.233076,
    "lng": 128.561637
  },
  {
    "name": "석전초등학교 어린이놀이시설",
    "category": "어린이놀이시설",
    "type": "어린이놀이시설",
    "address": "경상남도 창원시 마산회원구 석전동로 8 (석전동)",
    "tel": "",
    "lat": 35.232262,
    "lng": 128.57615
  },
  {
    "name": "구암꿈빛어린이공원(10호)",
    "category": "어린이놀이시설",
    "type": "어린이놀이시설",
    "address": "경상남도 창원시 마산회원구 구암남13길 12 (구암동)",
    "tel": "",
    "lat": 35.249493,
    "lng": 128.598302
  },
  {
    "name": "합성기차소리어린이공원(14호)",
    "category": "어린이놀이시설",
    "type": "어린이놀이시설",
    "address": "경상남도 창원시 마산회원구 합성서12길 12 (합성동)",
    "tel": "",
    "lat": 35.239643,
    "lng": 128.580631
  },
  {
    "name": "상곡햇살어린이공원(47호)",
    "category": "어린이놀이시설",
    "type": "어린이놀이시설",
    "address": "경상남도 창원시 마산회원구 내서읍 상곡로 65",
    "tel": "",
    "lat": 35.245434,
    "lng": 128.499645
  },
  {
    "name": "구암튼튼아이 어린이공원(16호)",
    "category": "어린이놀이시설",
    "type": "어린이놀이시설",
    "address": "경상남도 창원시 마산회원구 구암북2길 88 (구암동)",
    "tel": "",
    "lat": 35.254897,
    "lng": 128.596593
  },
  {
    "name": "양덕중앙 어린이공원(7호)",
    "category": "어린이놀이시설",
    "type": "어린이놀이시설",
    "address": "경상남도 창원시 마산회원구 양덕북16길 49 (양덕동)",
    "tel": "",
    "lat": 35.23231,
    "lng": 128.586212
  },
  {
    "name": "석전다정 어린이공원(20호)",
    "category": "어린이놀이시설",
    "type": "어린이놀이시설",
    "address": "경상남도 창원시 마산회원구 석전북18길 10 (석전동)",
    "tel": "",
    "lat": 35.231203,
    "lng": 128.567043
  },
  {
    "name": "회원꿈동산 어린이공원(5호)",
    "category": "어린이놀이시설",
    "type": "어린이놀이시설",
    "address": "경상남도 창원시 마산회원구 회원동14길 54 (회원동)",
    "tel": "",
    "lat": 35.221262,
    "lng": 128.572548
  },
  {
    "name": "구암신산 어린이공원(9호)",
    "category": "어린이놀이시설",
    "type": "어린이놀이시설",
    "address": "경상남도 창원시 마산회원구 소계천서길 49 (구암동, 경남아파트)",
    "tel": "",
    "lat": 35.256915,
    "lng": 128.597468
  },
  {
    "name": "더푸른아파트 115동 놀이터",
    "category": "어린이놀이시설",
    "type": "어린이놀이시설",
    "address": "경상남도 창원시 마산회원구 내서읍 삼계10길 22 (더푸른아파트)",
    "tel": "",
    "lat": 35.235454,
    "lng": 128.502999
  },
  {
    "name": "더푸른아파트 105동 놀이터",
    "category": "어린이놀이시설",
    "type": "어린이놀이시설",
    "address": "경상남도 창원시 마산회원구 내서읍 삼계10길 22 (더푸른아파트)",
    "tel": "",
    "lat": 35.235454,
    "lng": 128.502999
  },
  {
    "name": "더푸른아파트 관리동 놀이터",
    "category": "어린이놀이시설",
    "type": "어린이놀이시설",
    "address": "경상남도 창원시 마산회원구 내서읍 삼계10길 22 (더푸른아파트)",
    "tel": "",
    "lat": 35.235454,
    "lng": 128.502999
  },
  {
    "name": "한우아파트 놀이터(조합,매트만 검사)",
    "category": "어린이놀이시설",
    "type": "어린이놀이시설",
    "address": "경상남도 창원시 마산회원구 구암북12길 66 (구암동)",
    "tel": "",
    "lat": 35.25741,
    "lng": 128.596354
  },
  {
    "name": "팔룡초등학교 어린이놀이시설(병설유치원 겸용)",
    "category": "어린이놀이시설",
    "type": "어린이놀이시설",
    "address": "경상남도 창원시 마산회원구 학교단지로 31 (합성동)",
    "tel": "",
    "lat": 35.242276,
    "lng": 128.594025
  },
  {
    "name": "북성초등학교 어린이놀이시설",
    "category": "어린이놀이시설",
    "type": "어린이놀이시설",
    "address": "경상남도 창원시 마산회원구 석전북1길 3 (석전동)",
    "tel": "",
    "lat": 35.231743,
    "lng": 128.570175
  },
  {
    "name": "마산 크라운 아파트 어린이 놀이터",
    "category": "어린이놀이시설",
    "type": "어린이놀이시설",
    "address": "경상남도 창원시 마산회원구 구암북12길 49 (구암동)",
    "tel": "",
    "lat": 35.256612,
    "lng": 128.59662
  },
  {
    "name": "삼계대동이미지아파트 놀이터1(106동앞)",
    "category": "어린이놀이시설",
    "type": "어린이놀이시설",
    "address": "경상남도 창원시 마산회원구 내서읍 광려로 28 (삼계대동이미지1차아파트)",
    "tel": "",
    "lat": 35.222969,
    "lng": 128.501628
  },
  {
    "name": "마산 메트로시티 아파트 120동 물빛소리마당 놀이터",
    "category": "어린이놀이시설",
    "type": "어린이놀이시설",
    "address": "경상남도 창원시 마산회원구 양덕서로 30 (양덕동)",
    "tel": "",
    "lat": 35.227308,
    "lng": 128.582403
  },
  {
    "name": "삼계주공아파트2단지 205동앞 놀이터",
    "category": "어린이놀이시설",
    "type": "어린이놀이시설",
    "address": "경상남도 창원시 마산회원구 내서읍 삼계2길 24",
    "tel": "",
    "lat": 35.229085,
    "lng": 128.502987
  },
  {
    "name": "삼계주공아파트2단지 202동앞 놀이터",
    "category": "어린이놀이시설",
    "type": "어린이놀이시설",
    "address": "경상남도 창원시 마산회원구 내서읍 삼계2길 24",
    "tel": "",
    "lat": 35.229085,
    "lng": 128.502987
  },
  {
    "name": "마산 메트로시티 아파트 피로티 놀이공간",
    "category": "어린이놀이시설",
    "type": "어린이놀이시설",
    "address": "경상남도 창원시 마산회원구 양덕서로 30 (양덕동)",
    "tel": "",
    "lat": 35.227308,
    "lng": 128.582403
  },
  {
    "name": "메트로시티아파트 데크층 106동앞 놀이터1",
    "category": "어린이놀이시설",
    "type": "어린이놀이시설",
    "address": "경상남도 창원시 마산회원구 양덕서로 30 (양덕동)",
    "tel": "",
    "lat": 35.227308,
    "lng": 128.582403
  },
  {
    "name": "메트로시티아파트 데크층 110동앞 놀이터3",
    "category": "어린이놀이시설",
    "type": "어린이놀이시설",
    "address": "경상남도 창원시 마산회원구 양덕서로 30 (양덕동)",
    "tel": "",
    "lat": 35.227308,
    "lng": 128.582403
  },
  {
    "name": "메트로시티아파트 데크층 113동앞 놀이터4",
    "category": "어린이놀이시설",
    "type": "어린이놀이시설",
    "address": "경상남도 창원시 마산회원구 양덕서로 30 (양덕동)",
    "tel": "",
    "lat": 35.227308,
    "lng": 128.582403
  },
  {
    "name": "메트로시티아파트 데크층 104동앞 놀이터2",
    "category": "어린이놀이시설",
    "type": "어린이놀이시설",
    "address": "경상남도 창원시 마산회원구 양덕서로 30 (양덕동)",
    "tel": "",
    "lat": 35.227308,
    "lng": 128.582403
  },
  {
    "name": "중리주공아파트1단지 101동앞 놀이터",
    "category": "어린이놀이시설",
    "type": "어린이놀이시설",
    "address": "경상남도 창원시 마산회원구 내서읍 상곡로 49 (상곡주공아파트1단지)",
    "tel": "",
    "lat": 35.243411,
    "lng": 128.49988
  },
  {
    "name": "합성합포성지어린이공원(12호)",
    "category": "어린이놀이시설",
    "type": "어린이놀이시설",
    "address": "경상남도 창원시 마산회원구 합포성지길 14 (합성동)",
    "tel": "",
    "lat": 35.2434,
    "lng": 128.58327
  },
  {
    "name": "중리자연숲어린이공원(45호)",
    "category": "어린이놀이시설",
    "type": "어린이놀이시설",
    "address": "경상남도 창원시 마산회원구 내서읍 중리1길 37-15 (알뜰의집빌라)",
    "tel": "",
    "lat": 35.247657,
    "lng": 128.507572
  },
  {
    "name": "상곡문화어린이공원(46호)",
    "category": "어린이놀이시설",
    "type": "어린이놀이시설",
    "address": "경상남도 창원시 마산회원구 내서읍 상곡로 16",
    "tel": "",
    "lat": 35.242735,
    "lng": 128.5036
  },
  {
    "name": "삼계삼풍대어린이공원(65호)",
    "category": "어린이놀이시설",
    "type": "어린이놀이시설",
    "address": "경상남도 창원시 마산회원구 내서읍 삼풍로 93",
    "tel": "",
    "lat": 35.233969,
    "lng": 128.501292
  },
  {
    "name": "삼계더푸른어린이공원(66호)",
    "category": "어린이놀이시설",
    "type": "어린이놀이시설",
    "address": "경상남도 창원시 마산회원구 내서읍 삼계11길 41",
    "tel": "",
    "lat": 35.238457,
    "lng": 128.503584
  },
  {
    "name": "삼계숲속햇님어린이공원(77호)",
    "category": "어린이놀이시설",
    "type": "어린이놀이시설",
    "address": "경상남도 창원시 마산회원구 내서읍 숲속로 29",
    "tel": "",
    "lat": 35.228557,
    "lng": 128.497493
  },
  {
    "name": "감천초등학교 병설유치원 어린이놀이시설",
    "category": "어린이놀이시설",
    "type": "어린이놀이시설",
    "address": "경상남도 창원시 마산회원구 내서읍 감천로 53",
    "tel": "",
    "lat": 35.207218,
    "lng": 128.51545
  },
  {
    "name": "광려초등학교 병설유치원 어린이놀이시설",
    "category": "어린이놀이시설",
    "type": "어린이놀이시설",
    "address": "경상남도 창원시 마산회원구 내서읍 삼계1길 47",
    "tel": "",
    "lat": 35.228068,
    "lng": 128.503216
  },
  {
    "name": "(21.3.1.자 휴원)교동초등학교 병설유치원 어린이놀이시설",
    "category": "어린이놀이시설",
    "type": "어린이놀이시설",
    "address": "경상남도 창원시 마산회원구 무학로 589 (회원동)",
    "tel": "",
    "lat": 35.221501,
    "lng": 128.562263
  },
  {
    "name": "북성초등학교 병설유치원 어린이놀이시설",
    "category": "어린이놀이시설",
    "type": "어린이놀이시설",
    "address": "경상남도 창원시 마산회원구 석전북1길 3 (석전동)",
    "tel": "",
    "lat": 35.231743,
    "lng": 128.570175
  },
  {
    "name": "중리초등학교 어린이놀이시설",
    "category": "어린이놀이시설",
    "type": "어린이놀이시설",
    "address": "경상남도 창원시 마산회원구 내서읍 호계안길 22",
    "tel": "",
    "lat": 35.255668,
    "lng": 128.520244
  },
  {
    "name": "합성초등학교 병설유치원 어린이놀이시설",
    "category": "어린이놀이시설",
    "type": "어린이놀이시설",
    "address": "경상남도 창원시 마산회원구 합성북16길 75 (합성동)",
    "tel": "",
    "lat": 35.242785,
    "lng": 128.581986
  },
  {
    "name": "회원초등학교 병설유치원 어린이놀이시설",
    "category": "어린이놀이시설",
    "type": "어린이놀이시설",
    "address": "경상남도 창원시 마산회원구 회원남로 51 (회원동)",
    "tel": "",
    "lat": 35.219837,
    "lng": 128.566715
  },
  {
    "name": "글로벌아이유치원 어린이놀이시설",
    "category": "어린이놀이시설",
    "type": "어린이놀이시설",
    "address": "경상남도 창원시 마산회원구 양덕북12길 38 (양덕동)",
    "tel": "",
    "lat": 35.2351,
    "lng": 128.585649
  },
  {
    "name": "새싹유치원 어린이놀이시설",
    "category": "어린이놀이시설",
    "type": "어린이놀이시설",
    "address": "경상남도 창원시 마산회원구 합성서1길 94 (합성동)",
    "tel": "",
    "lat": 35.240642,
    "lng": 128.583487
  },
  {
    "name": "석화유치원 어린이놀이시설",
    "category": "어린이놀이시설",
    "type": "어린이놀이시설",
    "address": "경상남도 창원시 마산회원구 구암반계길 24 (구암동)",
    "tel": "",
    "lat": 35.249609,
    "lng": 128.604005
  },
  {
    "name": "세화유치원 어린이놀이시설",
    "category": "어린이놀이시설",
    "type": "어린이놀이시설",
    "address": "경상남도 창원시 마산회원구 양덕동14길 5 (양덕동)",
    "tel": "",
    "lat": 35.231965,
    "lng": 128.586745
  },
  {
    "name": "삼학사금강유치원 어린이놀이시설",
    "category": "어린이놀이시설",
    "type": "어린이놀이시설",
    "address": "경상남도 창원시 마산회원구 무학로 559 (회원동)",
    "tel": "",
    "lat": 35.217863,
    "lng": 128.560348
  },
  {
    "name": "천사유치원 어린이놀이시설",
    "category": "어린이놀이시설",
    "type": "어린이놀이시설",
    "address": "경상남도 창원시 마산회원구 구암서2길 110-1 (구암동)",
    "tel": "",
    "lat": 35.249577,
    "lng": 128.594475
  },
  {
    "name": "감천초등학교 어린이놀이시설",
    "category": "어린이놀이시설",
    "type": "어린이놀이시설",
    "address": "경상남도 창원시 마산회원구 내서읍 감천로 53",
    "tel": "",
    "lat": 35.207218,
    "lng": 128.51545
  },
  {
    "name": "광려초등학교 어린이놀이시설",
    "category": "어린이놀이시설",
    "type": "어린이놀이시설",
    "address": "경상남도 창원시 마산회원구 내서읍 삼계1길 47",
    "tel": "",
    "lat": 35.228516,
    "lng": 128.503073
  },
  {
    "name": "교동초등학교 어린이놀이시설",
    "category": "어린이놀이시설",
    "type": "어린이놀이시설",
    "address": "경상남도 창원시 마산회원구 무학로 589 (회원동)",
    "tel": "",
    "lat": 35.221501,
    "lng": 128.562263
  },
  {
    "name": "삼계초등학교 어린이놀이시설",
    "category": "어린이놀이시설",
    "type": "어린이놀이시설",
    "address": "경상남도 창원시 마산회원구 내서읍 삼계로 36",
    "tel": "",
    "lat": 35.232535,
    "lng": 128.500275
  },
  {
    "name": "안계초등학교 어린이놀이시설",
    "category": "어린이놀이시설",
    "type": "어린이놀이시설",
    "address": "경상남도 창원시 마산회원구 내서읍 삼계숲길 246",
    "tel": "",
    "lat": 35.231412,
    "lng": 128.494466
  },
  {
    "name": "호계초등학교 어린이놀이시설",
    "category": "어린이놀이시설",
    "type": "어린이놀이시설",
    "address": "경상남도 창원시 마산회원구 내서읍 광려천북로 182",
    "tel": "",
    "lat": 35.265741,
    "lng": 128.5228
  },
  {
    "name": "호계초등학교 병설유치원 어린이놀이시설",
    "category": "어린이놀이시설",
    "type": "어린이놀이시설",
    "address": "경상남도 창원시 마산회원구 내서읍 광려천북로 182",
    "tel": "",
    "lat": 35.265741,
    "lng": 128.5228
  },
  {
    "name": "구암초등학교 병설유치원 어린이놀이시설",
    "category": "어린이놀이시설",
    "type": "어린이놀이시설",
    "address": "경상남도 창원시 마산회원구 구암북19길 153 (구암동)",
    "tel": "",
    "lat": 35.258252,
    "lng": 128.594244
  },
  {
    "name": "경남혜림학교 어린이놀이시설",
    "category": "어린이놀이시설",
    "type": "어린이놀이시설",
    "address": "경상남도 창원시 마산회원구 합성북2길 48 (합성동)",
    "tel": "",
    "lat": 35.243693,
    "lng": 128.580188
  },
  {
    "name": "마산중앙초등학교 어린이놀이시설",
    "category": "어린이놀이시설",
    "type": "어린이놀이시설",
    "address": "경상남도 창원시 마산회원구 팔용로 280 (구암동)",
    "tel": "",
    "lat": 35.248375,
    "lng": 128.602654
  },
  {
    "name": "대상아파트 어린이놀이터",
    "category": "어린이놀이시설",
    "type": "어린이놀이시설",
    "address": "경상남도 창원시 마산회원구 양덕북17길 48 (양덕동)",
    "tel": "",
    "lat": 35.235668,
    "lng": 128.5833
  },
  {
    "name": "코오롱하늘채1차아파트  어린이놀이터2 108동옆",
    "category": "어린이놀이시설",
    "type": "어린이놀이시설",
    "address": "경상남도 창원시 마산회원구 내서읍 호원로 361-3  (코오롱타운아파트)",
    "tel": "",
    "lat": 35.267428,
    "lng": 128.525415
  },
  {
    "name": "코오롱하늘채1차아파트 어린이놀이터3 113동앞",
    "category": "어린이놀이시설",
    "type": "어린이놀이시설",
    "address": "경상남도 창원시 마산회원구 내서읍 호원로 361-3  (코오롱타운아파트)",
    "tel": "",
    "lat": 35.267428,
    "lng": 128.525415
  },
  {
    "name": "코오롱하늘채2차아파트 204동앞 놀이터",
    "category": "어린이놀이시설",
    "type": "어린이놀이시설",
    "address": "경상남도 창원시 마산회원구 내서읍 호원로 359  (코오롱하늘채2차아파트)",
    "tel": "",
    "lat": 35.263926,
    "lng": 128.523371
  },
  {
    "name": "코오롱하늘채2차아파트 208동앞 놀이터",
    "category": "어린이놀이시설",
    "type": "어린이놀이시설",
    "address": "경상남도 창원시 마산회원구 내서읍 호원로 359  (코오롱하늘채2차아파트)",
    "tel": "",
    "lat": 35.263926,
    "lng": 128.523371
  },
  {
    "name": "쏠티동산어린이집 놀이터",
    "category": "어린이놀이시설",
    "type": "어린이놀이시설",
    "address": "경상남도 창원시 마산회원구 상곡안길 21",
    "tel": "",
    "lat": 35.243484,
    "lng": 128.502877
  },
  {
    "name": "호계사랑어린이집",
    "category": "어린이놀이시설",
    "type": "어린이놀이시설",
    "address": "경상남도 창원시 마산회원구 내서읍 구미길 42-4",
    "tel": "",
    "lat": 35.252869,
    "lng": 128.52206
  },
  {
    "name": "코오롱하늘채2차아파트 217동옆 놀이터",
    "category": "어린이놀이시설",
    "type": "어린이놀이시설",
    "address": "경상남도 창원시 마산회원구 내서읍 호원로 359  (코오롱하늘채2차아파트)",
    "tel": "",
    "lat": 35.263926,
    "lng": 128.523371
  },
  {
    "name": "청우어린이집놀이터",
    "category": "어린이놀이시설",
    "type": "어린이놀이시설",
    "address": "경상남도 창원시 마산회원구 회원남33길 32",
    "tel": "",
    "lat": 35.218328,
    "lng": 128.562067
  },
  {
    "name": "조이 어린이집 놀이터",
    "category": "어린이놀이시설",
    "type": "어린이놀이시설",
    "address": "경상남도 창원시 마산회원구 양덕동12길 27 (양덕동)",
    "tel": "",
    "lat": 35.230738,
    "lng": 128.586067
  },
  {
    "name": "글로벌창의숲어린이집",
    "category": "어린이놀이시설",
    "type": "어린이놀이시설",
    "address": "경상남도 창원시 마산회원구 금강로 301 (구암동)",
    "tel": "",
    "lat": 35.253587,
    "lng": 128.596328
  },
  {
    "name": "소명어린이집 놀이터",
    "category": "어린이놀이시설",
    "type": "어린이놀이시설",
    "address": "경상남도 창원시 마산회원구 소계천서길 103 (구암동)",
    "tel": "",
    "lat": 35.259087,
    "lng": 128.595926
  },
  {
    "name": "글로벌창의어린이집놀이터",
    "category": "어린이놀이시설",
    "type": "어린이놀이시설",
    "address": "경상남도 창원시 마산회원구 구암북3길 9 (구암동)",
    "tel": "",
    "lat": 35.251842,
    "lng": 128.592642
  },
  {
    "name": "해든미래클어린이집놀이터",
    "category": "어린이놀이시설",
    "type": "어린이놀이시설",
    "address": "경상남도 창원시 마산회원구 회원동29길 63 (회원동)",
    "tel": "",
    "lat": 35.218644,
    "lng": 128.575616
  },
  {
    "name": "구암대동아파트 101동 놀이터",
    "category": "어린이놀이시설",
    "type": "어린이놀이시설",
    "address": "경상남도 창원시 마산회원구 구암남14길 18  (구암동, 대동아파트)",
    "tel": "",
    "lat": 35.249621,
    "lng": 128.600315
  },
  {
    "name": "계명어린이집놀이터",
    "category": "어린이놀이시설",
    "type": "어린이놀이시설",
    "address": "경상남도 창원시 마산회원구 팔용로 23 (양덕동)",
    "tel": "",
    "lat": 35.231973,
    "lng": 128.585987
  },
  {
    "name": "구암대동아파트 107동 놀이터",
    "category": "어린이놀이시설",
    "type": "어린이놀이시설",
    "address": "경상남도 창원시 마산회원구 구암남14길 18  (구암동, 대동아파트)",
    "tel": "",
    "lat": 35.249621,
    "lng": 128.600315
  },
  {
    "name": "바른손어린이집놀이터",
    "category": "어린이놀이시설",
    "type": "어린이놀이시설",
    "address": "경상남도 창원시 마산회원구 구암북15길 49 (구암동)",
    "tel": "",
    "lat": 35.255304,
    "lng": 128.594769
  },
  {
    "name": "동신1차아파트 어린이놀이터",
    "category": "어린이놀이시설",
    "type": "어린이놀이시설",
    "address": "경상남도 창원시 마산회원구 내서읍 중리상곡로 114  (동신1차아파트)",
    "tel": "",
    "lat": 35.2501,
    "lng": 128.511191
  },
  {
    "name": "한백아파트 어린이놀이터",
    "category": "어린이놀이시설",
    "type": "어린이놀이시설",
    "address": "경상남도 창원시 마산회원구 내서읍 광려천북로 198  (한백아파트)",
    "tel": "",
    "lat": 35.2595,
    "lng": 128.5189
  },
  {
    "name": "신우아파트 어린이놀이터",
    "category": "어린이놀이시설",
    "type": "어린이놀이시설",
    "address": "경상남도 창원시 마산회원구 구암남21길 3  (구암동, 신우아파트)  ",
    "tel": "",
    "lat": 35.252719,
    "lng": 128.602156
  },
  {
    "name": "양덕경남아파트 어린이놀이터",
    "category": "어린이놀이시설",
    "type": "어린이놀이시설",
    "address": "경상남도 창원시 마산회원구 양덕동17길 22 (양덕동, 경남아파트)",
    "tel": "",
    "lat": 35.234231,
    "lng": 128.590832
  },
  {
    "name": "숲속주공5단지 어린이놀이터1",
    "category": "어린이놀이시설",
    "type": "어린이놀이시설",
    "address": "경상남도 창원시 마산회원구 내서읍 숲속로 30  (숲속마을주공5단지아파트)",
    "tel": "",
    "lat": 35.229141,
    "lng": 128.496541
  },
  {
    "name": "일우근주아파트 어린이놀이터",
    "category": "어린이놀이시설",
    "type": "어린이놀이시설",
    "address": "경상남도 창원시 마산회원구 석전북2길 64 (석전동, 일우근주맨션)",
    "tel": "",
    "lat": 35.232335,
    "lng": 128.568775
  },
  {
    "name": "장미아파트 어린이놀이터",
    "category": "어린이놀이시설",
    "type": "어린이놀이시설",
    "address": "경상남도 창원시 마산회원구 내서읍 중리상곡로 18",
    "tel": "",
    "lat": 35.243076,
    "lng": 128.504513
  },
  {
    "name": "한우리1차아파트 어린이놀이터3",
    "category": "어린이놀이시설",
    "type": "어린이놀이시설",
    "address": "경상남도 창원시 마산회원구 내서읍 삼계1길 48  (한우리아파트1단지)",
    "tel": "",
    "lat": 35.228626,
    "lng": 128.50455
  },
  {
    "name": "삼계대동이미지아파트 놀이터3(201동앞)",
    "category": "어린이놀이시설",
    "type": "어린이놀이시설",
    "address": "경상남도 창원시 마산회원구 내서읍 광려로 29  (삼계대동이미지2차아파트)",
    "tel": "",
    "lat": 35.224012,
    "lng": 128.503587
  },
  {
    "name": "무학아파트 어린이놀이터",
    "category": "어린이놀이시설",
    "type": "어린이놀이시설",
    "address": "경상남도 창원시 마산회원구 금강로 35  (합성동, 무학아파트)",
    "tel": "",
    "lat": 35.239296,
    "lng": 128.578666
  },
  {
    "name": "숲속마을주공6단지아파트(607동)놀이터",
    "category": "어린이놀이시설",
    "type": "어린이놀이시설",
    "address": "경상남도 창원시 마산회원구 내서읍 숲속로 27  (숲속마을주공6단지아파트)",
    "tel": "",
    "lat": 35.228725,
    "lng": 128.498002
  },
  {
    "name": "서안양덕타운 어린이놀이터",
    "category": "어린이놀이시설",
    "type": "어린이놀이시설",
    "address": "경상남도 창원시 마산회원구 팔용로 62-1  (양덕동, 서안양덕타운)",
    "tel": "",
    "lat": 35.234346,
    "lng": 128.589218
  },
  {
    "name": "구암대동2차아파트 201동 놀이터",
    "category": "어린이놀이시설",
    "type": "어린이놀이시설",
    "address": "경상남도 창원시 마산회원구 구암남5길 60  (구암동, 대동아파트)",
    "tel": "",
    "lat": 35.246411,
    "lng": 128.593062
  },
  {
    "name": "구암대동2차아파트 202동 놀이터",
    "category": "어린이놀이시설",
    "type": "어린이놀이시설",
    "address": "경상남도 창원시 마산회원구 구암남5길 60  (구암동, 대동아파트)",
    "tel": "",
    "lat": 35.246411,
    "lng": 128.593062
  },
  {
    "name": "삼계초등학교 병설유치원 어린이놀이시설",
    "category": "어린이놀이시설",
    "type": "어린이놀이시설",
    "address": "경상남도 창원시 마산회원구 내서읍 삼계로 36",
    "tel": "",
    "lat": 35.232535,
    "lng": 128.500275
  },
  {
    "name": "한일타운 어린이놀이터",
    "category": "어린이놀이시설",
    "type": "어린이놀이시설",
    "address": "경상남도 창원시 마산회원구 팔용로 76 (합성동)",
    "tel": "",
    "lat": 35.235933,
    "lng": 128.58937
  },
  {
    "name": "동남타운 어린이놀이터",
    "category": "어린이놀이시설",
    "type": "어린이놀이시설",
    "address": "경상남도 창원시 마산회원구 내서읍 상곡로 5",
    "tel": "",
    "lat": 35.242089,
    "lng": 128.503726
  },
  {
    "name": "한일유앤아이아파트 어린이놀이터",
    "category": "어린이놀이시설",
    "type": "어린이놀이시설",
    "address": "경상남도 창원시 마산회원구 내서읍 광려천남로 245  (한일유앤아이오르젠아파트)",
    "tel": "",
    "lat": 35.231943,
    "lng": 128.506325
  },
  {
    "name": "양덕신성미소지움아파트 어린이놀이터",
    "category": "어린이놀이시설",
    "type": "어린이놀이시설",
    "address": "경상남도 창원시 마산회원구 양덕북17길 73 (양덕동)",
    "tel": "",
    "lat": 35.234199,
    "lng": 128.583707
  },
  {
    "name": "유한미소안아파트 놀이터",
    "category": "어린이놀이시설",
    "type": "어린이놀이시설",
    "address": "경상남도 창원시 마산회원구 양덕천길 47 (양덕동)",
    "tel": "",
    "lat": 35.23231,
    "lng": 128.586212
  },
  {
    "name": "내서초등학교 병설유치원 어린이놀이시설",
    "category": "어린이놀이시설",
    "type": "어린이놀이시설",
    "address": "경상남도 창원시 마산회원구 북성로 480 (두척동)",
    "tel": "",
    "lat": 35.238168,
    "lng": 128.5454
  },
  {
    "name": "중리초등학교 병설유치원 어린이놀이시설",
    "category": "어린이놀이시설",
    "type": "어린이놀이시설",
    "address": "경상남도 창원시 마산회원구 내서읍 호계안길 22",
    "tel": "",
    "lat": 35.255668,
    "lng": 128.520244
  },
  {
    "name": "봉암서광아파트 어린이놀이터",
    "category": "어린이놀이시설",
    "type": "어린이놀이시설",
    "address": "경상남도 창원시 마산회원구 봉양로 241 (봉암동, 서광아파트)",
    "tel": "",
    "lat": 35.216575,
    "lng": 128.612906
  },
  {
    "name": "양덕푸르내 어린이공원(185호)",
    "category": "어린이놀이시설",
    "type": "어린이놀이시설",
    "address": "경상남도 창원시 마산회원구 양덕서로 30 (양덕동, 메트로시티)",
    "tel": "",
    "lat": 35.227308,
    "lng": 128.582403
  },
  {
    "name": "양덕가고파 어린이공원(184호)",
    "category": "어린이놀이시설",
    "type": "어린이놀이시설",
    "address": "경상남도 창원시 마산회원구 삼호로 108 (양덕동)",
    "tel": "",
    "lat": 35.225327,
    "lng": 128.581676
  },
  {
    "name": "창원시립구암어린이집",
    "category": "어린이놀이시설",
    "type": "어린이놀이시설",
    "address": "경상남도 창원시 마산회원구 구암서1길 235 (구암동)",
    "tel": "",
    "lat": 35.252581,
    "lng": 128.600284
  },
  {
    "name": "달나라어린이집놀이터",
    "category": "어린이놀이시설",
    "type": "어린이놀이시설",
    "address": "경상남도 창원시 마산회원구 교방시장1길 57 (회원동)",
    "tel": "",
    "lat": 35.218263,
    "lng": 128.574247
  },
  {
    "name": "건우맨션",
    "category": "어린이놀이시설",
    "type": "어린이놀이시설",
    "address": "경상남도 창원시 마산회원구 회원서1길 70 (석전동, 건우맨션)",
    "tel": "",
    "lat": 35.224635,
    "lng": 128.56995
  },
  {
    "name": "사회복지법인 금강어린이집",
    "category": "어린이놀이시설",
    "type": "어린이놀이시설",
    "address": "경상남도 창원시 마산회원구 양덕로 151 (양덕동, 한일타운2차아파트)",
    "tel": "",
    "lat": 35.231364,
    "lng": 128.581721
  },
  {
    "name": "비전스카이아파트 놀이터",
    "category": "어린이놀이시설",
    "type": "어린이놀이시설",
    "address": "경상남도 창원시 마산회원구 해안대로 607 (양덕동)",
    "tel": "",
    "lat": 35.23231,
    "lng": 128.586212
  },
  {
    "name": "해와달아이어린이집놀이터",
    "category": "어린이놀이시설",
    "type": "어린이놀이시설",
    "address": "경상남도 창원시 마산회원구 내서읍 호계안길 36-13",
    "tel": "",
    "lat": 35.256299,
    "lng": 128.519932
  },
  {
    "name": "삼계유치원 어린이놀이시설",
    "category": "어린이놀이시설",
    "type": "어린이놀이시설",
    "address": "경상남도 창원시 마산회원구 내서읍 삼계로 127-11",
    "tel": "",
    "lat": 35.232834,
    "lng": 128.491106
  },
  {
    "name": "상일초등학교 어린이놀이시설",
    "category": "어린이놀이시설",
    "type": "어린이놀이시설",
    "address": "경상남도 창원시 마산회원구 내서읍 광려천서로 21",
    "tel": "",
    "lat": 35.244635,
    "lng": 128.507075
  },
  {
    "name": "창원시립회성어린이집",
    "category": "어린이놀이시설",
    "type": "어린이놀이시설",
    "address": "경상남도 창원시 마산회원구 회성시장2길 20 (회성동)",
    "tel": "",
    "lat": 35.233326,
    "lng": 128.556952
  },
  {
    "name": "아셀어린이집놀이터",
    "category": "어린이놀이시설",
    "type": "어린이놀이시설",
    "address": "경상남도 창원시 마산회원구 양덕북1길 23 (양덕동)",
    "tel": "",
    "lat": 35.231649,
    "lng": 128.584363
  },
  {
    "name": "구암경남아파트 1,2동놀이터",
    "category": "어린이놀이시설",
    "type": "어린이놀이시설",
    "address": "경상남도 창원시 마산회원구 소계천서길 49 (구암동)",
    "tel": "",
    "lat": 35.249383,
    "lng": 128.593525
  },
  {
    "name": "구암경남아파트 3,4동 놀이터",
    "category": "어린이놀이시설",
    "type": "어린이놀이시설",
    "address": "경상남도 창원시 마산회원구 소계천서길 49 (구암동)",
    "tel": "",
    "lat": 35.249383,
    "lng": 128.593525
  },
  {
    "name": "양덕초등학교 어린이놀이시설",
    "category": "어린이놀이시설",
    "type": "어린이놀이시설",
    "address": "경상남도 창원시 마산회원구 양덕동12길 86 (양덕동)",
    "tel": "",
    "lat": 35.233885,
    "lng": 128.588425
  },
  {
    "name": "회원초등학교 어린이놀이시설",
    "category": "어린이놀이시설",
    "type": "어린이놀이시설",
    "address": "경상남도 창원시 마산회원구 회원남로 51 (회원동)",
    "tel": "",
    "lat": 35.219837,
    "lng": 128.566715
  },
  {
    "name": "국제한마음타운아파트 102동",
    "category": "어린이놀이시설",
    "type": "어린이놀이시설",
    "address": "경상남도 창원시 마산회원구 내서읍 호계본동로 38 (호계국제아파트)",
    "tel": "",
    "lat": 35.264272,
    "lng": 128.521723
  },
  {
    "name": "국제한마음타운아파트 103동",
    "category": "어린이놀이시설",
    "type": "어린이놀이시설",
    "address": "경상남도 창원시 마산회원구 내서읍 호계본동로 38 (호계국제아파트)",
    "tel": "",
    "lat": 35.264272,
    "lng": 128.521723
  },
  {
    "name": "전안초등학교 어린이놀이시설",
    "category": "어린이놀이시설",
    "type": "어린이놀이시설",
    "address": "경상남도 창원시 마산회원구 내서읍 광려로 100",
    "tel": "",
    "lat": 35.218028,
    "lng": 128.502168
  },
  {
    "name": "에코소명유치원 어린이놀이시설",
    "category": "어린이놀이시설",
    "type": "어린이놀이시설",
    "address": "경상남도 창원시 마산회원구 소계천서길 113 (구암동)",
    "tel": "",
    "lat": 35.259197,
    "lng": 128.595437
  },
  {
    "name": "꽃내음풀내음해돋이유치원 어린이놀이시설",
    "category": "어린이놀이시설",
    "type": "어린이놀이시설",
    "address": "경상남도 창원시 마산회원구 내서읍 광려로 183",
    "tel": "",
    "lat": 35.212622,
    "lng": 128.507895
  },
  {
    "name": "동신2차아파트 놀이터",
    "category": "어린이놀이시설",
    "type": "어린이놀이시설",
    "address": "경상남도 창원시 마산회원구 내서읍 중리상곡로 134 (동신2차아파트)",
    "tel": "",
    "lat": 35.251383,
    "lng": 128.512113
  },
  {
    "name": "숲속유치원 어린이놀이시설",
    "category": "어린이놀이시설",
    "type": "어린이놀이시설",
    "address": "경상남도 창원시 마산회원구 내서읍 삼계숲길 225",
    "tel": "",
    "lat": 35.230132,
    "lng": 128.494369
  },
  {
    "name": "온뜨레피움유치원 어린이놀이시설",
    "category": "어린이놀이시설",
    "type": "어린이놀이시설",
    "address": "경상남도 창원시 마산회원구 내서읍 중리상곡로 136",
    "tel": "",
    "lat": 35.251976,
    "lng": 128.512117
  },
  {
    "name": "서진아파트 놀이터",
    "category": "어린이놀이시설",
    "type": "어린이놀이시설",
    "address": "경상남도 창원시 마산회원구 내서읍 경남대로 1019",
    "tel": "",
    "lat": 35.241274,
    "lng": 128.504446
  },
  {
    "name": "구암2동 어린이놀이터",
    "category": "어린이놀이시설",
    "type": "어린이놀이시설",
    "address": "경상남도 창원시 마산회원구 구암남3길 19-1 (구암동)",
    "tel": "",
    "lat": 35.246076,
    "lng": 128.592109
  },
  {
    "name": "보라아파트 놀이터",
    "category": "어린이놀이시설",
    "type": "어린이놀이시설",
    "address": "경상남도 창원시 마산회원구 내서읍 광려천북로 90",
    "tel": "",
    "lat": 35.2595,
    "lng": 128.5189
  },
  {
    "name": "신우골든타워",
    "category": "어린이놀이시설",
    "type": "어린이놀이시설",
    "address": "경상남도 창원시 마산회원구 내서읍 호원로 371 (신우타워아파트)",
    "tel": "",
    "lat": 35.266076,
    "lng": 128.526217
  },
  {
    "name": "석전칙칙폭폭 어린이공원(211호)",
    "category": "어린이놀이시설",
    "type": "어린이놀이시설",
    "address": null,
    "tel": "",
    "lat": 35.230297,
    "lng": 128.573103
  },
  {
    "name": "한우리2차아파트",
    "category": "어린이놀이시설",
    "type": "어린이놀이시설",
    "address": "경상남도 창원시 마산회원구 내서읍 삼계1길 18",
    "tel": "",
    "lat": 35.227124,
    "lng": 128.503985
  },
  {
    "name": "일우아파트 어린이놀이터",
    "category": "어린이놀이시설",
    "type": "어린이놀이시설",
    "address": "경상남도 창원시 마산회원구 석전남23길 6  (석전동, 일우아파트)",
    "tel": "",
    "lat": 35.230297,
    "lng": 128.573103
  },
  {
    "name": "일화어린이집놀이터",
    "category": "어린이놀이시설",
    "type": "어린이놀이시설",
    "address": "경상남도 창원시 마산회원구 내서읍 상곡안길 106-14",
    "tel": "",
    "lat": 35.246029,
    "lng": 128.50007
  },
  {
    "name": "마산동도센트리움아파트 놀이터",
    "category": "어린이놀이시설",
    "type": "어린이놀이시설",
    "address": "경상남도 창원시 마산회원구 양덕옛2길 129 (석전동, 창원 마산역 동도센트리움)",
    "tel": "",
    "lat": 35.233492,
    "lng": 128.579798
  },
  {
    "name": "석전초등학교 병설유치원 어린이놀이시설",
    "category": "어린이놀이시설",
    "type": "어린이놀이시설",
    "address": "경상남도 창원시 마산회원구 석전동로 8 (석전동)",
    "tel": "",
    "lat": 35.232262,
    "lng": 128.57615
  },
  {
    "name": "지예슬유치원 어린이놀이시설",
    "category": "어린이놀이시설",
    "type": "어린이놀이시설",
    "address": "경상남도 창원시 마산회원구 회성동5길 6 (회성동)",
    "tel": "",
    "lat": 35.232707,
    "lng": 128.565302
  },
  {
    "name": "한일3차아파트 제1놀이터(중앙)",
    "category": "어린이놀이시설",
    "type": "어린이놀이시설",
    "address": "경상남도 창원시 마산회원구 삼호로 151 (양덕동)",
    "tel": "",
    "lat": 35.226596,
    "lng": 128.576063
  },
  {
    "name": "한일3차아파트 제2놀이터(305동 뒤)",
    "category": "어린이놀이시설",
    "type": "어린이놀이시설",
    "address": "경상남도 창원시 마산회원구 삼호로 151 (양덕동)",
    "tel": "",
    "lat": 35.226684,
    "lng": 128.575934
  },
  {
    "name": "구암동KTX하부 어린이놀이터1 (마산방향)",
    "category": "어린이놀이시설",
    "type": "어린이놀이시설",
    "address": "경상남도 창원시 마산회원구 구암서1길 87 (구암동)",
    "tel": "",
    "lat": 35.248618,
    "lng": 128.593704
  },
  {
    "name": "구암동KTX하부 어린이놀이터2 (창원방향)",
    "category": "어린이놀이시설",
    "type": "어린이놀이시설",
    "address": "경상남도 창원시 마산회원구 구암서1길 87 (구암동)",
    "tel": "",
    "lat": 35.248618,
    "lng": 128.593704
  },
  {
    "name": "양덕초등학교 병설유치원 어린이놀이시설",
    "category": "어린이놀이시설",
    "type": "어린이놀이시설",
    "address": "경상남도 창원시 마산회원구 양덕동12길 86 (양덕동)",
    "tel": "",
    "lat": 35.233885,
    "lng": 128.588425
  },
  {
    "name": "회원동 쉼터 놀이터",
    "category": "어린이놀이시설",
    "type": "어린이놀이시설",
    "address": "경상남도 창원시 마산회원구 회원서1길 50-2 (회원동, 곰빌라)",
    "tel": "",
    "lat": 35.223539,
    "lng": 128.569435
  },
  {
    "name": "가고파초등학교 어린이놀이시설",
    "category": "어린이놀이시설",
    "type": "어린이놀이시설",
    "address": "경상남도 창원시 마산회원구 삼호로 110 (양덕동)",
    "tel": "",
    "lat": 35.225783,
    "lng": 128.580382
  },
  {
    "name": "삼계현대아파트 어린이놀이터1(101동)",
    "category": "어린이놀이시설",
    "type": "어린이놀이시설",
    "address": "경상남도 창원시 마산회원구 내서읍 삼풍로 82 (삼계현대아파트)",
    "tel": "",
    "lat": 35.233498,
    "lng": 128.502823
  },
  {
    "name": "삼계현대아파트 어린이놀이터2(103동)",
    "category": "어린이놀이시설",
    "type": "어린이놀이시설",
    "address": "경상남도 창원시 마산회원구 내서읍 삼풍로 82 (삼계현대아파트)",
    "tel": "",
    "lat": 35.233498,
    "lng": 128.502823
  },
  {
    "name": "숲속마을주공6단지아파트(604동)놀이터",
    "category": "어린이놀이시설",
    "type": "어린이놀이시설",
    "address": "경상남도 창원시 마산회원구 숲속로 27(삼계숲속마을주공6단지)",
    "tel": "",
    "lat": 35.228725,
    "lng": 128.498002
  },
  {
    "name": "세한그린파크 어린이놀이터",
    "category": "어린이놀이시설",
    "type": "어린이놀이시설",
    "address": "경상남도 창원시 마산회원구 광려천북로 74(내서읍, 세한그린파크)",
    "tel": "",
    "lat": 35.256534,
    "lng": 128.519451
  },
  {
    "name": "대동아파트 어린이놀이터1(108동옆)",
    "category": "어린이놀이시설",
    "type": "어린이놀이시설",
    "address": "경상남도 창원시 마산회원구 삼계5길 30(내서읍, 대동아파트)",
    "tel": "",
    "lat": 35.23091,
    "lng": 128.502588
  },
  {
    "name": "대동아파트 어린이놀이터2(관리동옆)",
    "category": "어린이놀이시설",
    "type": "어린이놀이시설",
    "address": "경상남도 창원시 마산회원구 삼계5길 30(내서읍, 대동아파트)",
    "tel": "",
    "lat": 35.23091,
    "lng": 128.502588
  },
  {
    "name": "구암초등학교 어린이놀이시설",
    "category": "어린이놀이시설",
    "type": "어린이놀이시설",
    "address": "경상남도 창원시 마산회원구 구암북19길 153 (구암동)",
    "tel": "",
    "lat": 35.258252,
    "lng": 128.594244
  },
  {
    "name": "삼계주공3단지아파트 어린이놀이터2",
    "category": "어린이놀이시설",
    "type": "어린이놀이시설",
    "address": "경상남도 창원시 마산회원구 내서읍 삼계본동1길 86",
    "tel": "",
    "lat": 35.232087,
    "lng": 128.496504
  },
  {
    "name": "마산중앙초등학교 병설유치원 어린이놀이시설",
    "category": "어린이놀이시설",
    "type": "어린이놀이시설",
    "address": "경상남도 창원시 마산회원구 팔용로 280 (구암동)",
    "tel": "",
    "lat": 35.248375,
    "lng": 128.602654
  },
  {
    "name": "가고파유치원 어린이놀이시설",
    "category": "어린이놀이시설",
    "type": "어린이놀이시설",
    "address": "경상남도 창원시 마산회원구 회원남32길 14 (회원동)",
    "tel": "",
    "lat": 35.217667,
    "lng": 128.562391
  },
  {
    "name": "한일타운4차아파트 403동놀이터",
    "category": "어린이놀이시설",
    "type": "어린이놀이시설",
    "address": "경상남도 창원시 마산회원구 양덕서로 45 (양덕동，한일4차아파트)",
    "tel": "",
    "lat": 35.228778,
    "lng": 128.580485
  },
  {
    "name": "한일타운4차아파트 405동놀이터",
    "category": "어린이놀이시설",
    "type": "어린이놀이시설",
    "address": "경상남도 창원시 마산회원구 양덕서로 45 (양덕동，한일4차아파트)",
    "tel": "",
    "lat": 35.22831,
    "lng": 128.580662
  },
  {
    "name": "한일타운4차아파트 407동놀이터",
    "category": "어린이놀이시설",
    "type": "어린이놀이시설",
    "address": "경상남도 창원시 마산회원구 양덕서로 45 (양덕동，한일4차아파트)",
    "tel": "",
    "lat": 35.228174,
    "lng": 128.579498
  },
  {
    "name": "내서초등학교 어린이놀이시설",
    "category": "어린이놀이시설",
    "type": "어린이놀이시설",
    "address": "경상남도 창원시 마산회원구 북성로 480 (두척동)",
    "tel": "",
    "lat": 35.238168,
    "lng": 128.5454
  },
  {
    "name": "코오롱하늘채2차아파트 210동앞 놀이터",
    "category": "어린이놀이시설",
    "type": "어린이놀이시설",
    "address": "경상남도 창원시 마산회원구 내서읍 호원로 359 (코오롱하늘채2차아파트)",
    "tel": "",
    "lat": 35.263926,
    "lng": 128.523371
  },
  {
    "name": "코오롱하늘채2차아파트 경로당앞 놀이터",
    "category": "어린이놀이시설",
    "type": "어린이놀이시설",
    "address": "경상남도 창원시 마산회원구 내서읍 호원로 359 (코오롱하늘채2차아파트)",
    "tel": "",
    "lat": 35.263926,
    "lng": 128.523371
  },
  {
    "name": "원계대동다숲아파트 108동 어린이놀이터",
    "category": "어린이놀이시설",
    "type": "어린이놀이시설",
    "address": "경상남도 창원시 마산회원구 내서읍 광려천남로 267 (원계대동다숲아파트)",
    "tel": "",
    "lat": 35.228062,
    "lng": 128.506435
  },
  {
    "name": "숲속마을주공4단지 어린이놀이터1(402동)",
    "category": "어린이놀이시설",
    "type": "어린이놀이시설",
    "address": "경상남도 창원시 마산회원구 내서읍 숲속로 6",
    "tel": "",
    "lat": 35.231071,
    "lng": 128.496919
  },
  {
    "name": "숲속마을주공4단지 어린이놀이터2(406동)",
    "category": "어린이놀이시설",
    "type": "어린이놀이시설",
    "address": "경상남도 창원시 마산회원구 내서읍 숲속로 6",
    "tel": "",
    "lat": 35.231071,
    "lng": 128.496919
  },
  {
    "name": "봉암푸르내아파트",
    "category": "어린이놀이시설",
    "type": "어린이놀이시설",
    "address": "경상남도 창원시 마산회원구 봉암공단5길 47 (봉암동, 봉암푸르내아파트)",
    "tel": "",
    "lat": 35.216033,
    "lng": 128.597573
  },
  {
    "name": "더푸른아파트 105동놀이터",
    "category": "어린이놀이시설",
    "type": "어린이놀이시설",
    "address": "경상남도 창원시 마산회원구 내서읍 삼계10길 22 (더푸른아파트)",
    "tel": "",
    "lat": 35.235454,
    "lng": 128.502999
  },
  {
    "name": "숲속주공5단지 어린이놀이터2",
    "category": "어린이놀이시설",
    "type": "어린이놀이시설",
    "address": "경상남도 창원시 마산회원구 내서읍 숲속로 30 (숲속마을주공5단지아파트)",
    "tel": "",
    "lat": 35.229159,
    "lng": 128.496511
  },
  {
    "name": "회원주공아파트 어린이놀이터",
    "category": "어린이놀이시설",
    "type": "어린이놀이시설",
    "address": "경상남도 창원시 마산회원구 회원서11길 21 (회원동, 마산회원주공아파트)",
    "tel": "",
    "lat": 35.217106,
    "lng": 128.559573
  },
  {
    "name": "서마산철길공원",
    "category": "어린이놀이시설",
    "type": "어린이놀이시설",
    "address": "경상남도 창원시 마산회원구 석전남14길 7-1 (석전동)",
    "tel": "",
    "lat": 35.1533,
    "lng": 129.0633
  },
  {
    "name": "메트로시티2차아파트 3놀이터(207동)",
    "category": "어린이놀이시설",
    "type": "어린이놀이시설",
    "address": "경상남도 창원시 마산회원구 삼호로 80 (양덕동, 메트로시티 2단지)",
    "tel": "",
    "lat": 35.225472,
    "lng": 128.585734
  },
  {
    "name": "메트로시티2단지 205동 앞 놀이터",
    "category": "어린이놀이시설",
    "type": "어린이놀이시설",
    "address": "경상남도 창원시 마산회원구 삼호로 80 (양덕동, 메트로시티 2단지)",
    "tel": "",
    "lat": 35.225472,
    "lng": 128.585734
  },
  {
    "name": "상곡도토리 어린이공원(48호)",
    "category": "어린이놀이시설",
    "type": "어린이놀이시설",
    "address": "경상남도 창원시 마산회원구 내서읍 상곡안길 63",
    "tel": "",
    "lat": 35.244483,
    "lng": 128.500774
  },
  {
    "name": "블루힐스 아파트",
    "category": "어린이놀이시설",
    "type": "어린이놀이시설",
    "address": "경상남도 창원시 마산회원구 내서읍 광려로 55 (삼계블루힐스아파트)[*미고시]",
    "tel": "",
    "lat": 35.222277,
    "lng": 128.502834
  },
  {
    "name": "창원메트로시티아파트203동앞어린이놀이터",
    "category": "어린이놀이시설",
    "type": "어린이놀이시설",
    "address": "경상남도 창원시 마산회원구 삼호로 80 (양덕동, 메트로시티 2단지)",
    "tel": "",
    "lat": 35.225472,
    "lng": 128.585734
  },
  {
    "name": "창원메트로시티아파트201동뒤어린이놀이터",
    "category": "어린이놀이시설",
    "type": "어린이놀이시설",
    "address": "경상남도 창원시 마산회원구 삼호로 80 (양덕동, 메트로시티 2단지)",
    "tel": "",
    "lat": 35.225472,
    "lng": 128.585734
  },
  {
    "name": "챔피온(롯데마트 양덕점)",
    "category": "어린이놀이시설",
    "type": "어린이놀이시설",
    "address": "경남 창원시 마산회원구 삼호로 80",
    "tel": "",
    "lat": 35.225472,
    "lng": 128.585734
  },
  {
    "name": "양덕코오롱하늘채 내 놀이터 1 (101동 옆)",
    "category": "어린이놀이시설",
    "type": "어린이놀이시설",
    "address": null,
    "tel": "",
    "lat": 35.23231,
    "lng": 128.586212
  },
  {
    "name": "양덕코오롱하늘채 내 놀이터 2 (102동 옆)",
    "category": "어린이놀이시설",
    "type": "어린이놀이시설",
    "address": null,
    "tel": "",
    "lat": 35.23231,
    "lng": 128.586212
  },
  {
    "name": "팔룡공원 자연학습장 어린이놀이시설",
    "category": "어린이놀이시설",
    "type": "어린이놀이시설",
    "address": null,
    "tel": "",
    "lat": 35.217595,
    "lng": 128.602463
  },
  {
    "name": "등뼈감자탕 실내놀이시설",
    "category": "어린이놀이시설",
    "type": "어린이놀이시설",
    "address": "경상남도 창원시 마산회원구 내서읍 호원로 311",
    "tel": "",
    "lat": 35.261203,
    "lng": 128.522826
  },
  {
    "name": "경남종합사회복지관 어린이놀이시설",
    "category": "어린이놀이시설",
    "type": "어린이놀이시설",
    "address": "경상남도 창원시 마산회원구 팔용로 272 (구암동)",
    "tel": "",
    "lat": 35.247538,
    "lng": 128.601024
  },
  {
    "name": "구암한경새싹 어린이공원(15호)",
    "category": "어린이놀이시설",
    "type": "어린이놀이시설",
    "address": null,
    "tel": "",
    "lat": 35.249383,
    "lng": 128.593525
  },
  {
    "name": "석전동 다음아파트 내 놀이시설",
    "category": "어린이놀이시설",
    "type": "어린이놀이시설",
    "address": null,
    "tel": "",
    "lat": 35.230297,
    "lng": 128.573103
  },
  {
    "name": "위드필하임아파트 어린이놀이터",
    "category": "어린이놀이시설",
    "type": "어린이놀이시설",
    "address": null,
    "tel": "",
    "lat": 35.23231,
    "lng": 128.586212
  },
  {
    "name": "창원롯데캐슬더퍼스트아파트 111동뒤 놀이터",
    "category": "어린이놀이시설",
    "type": "어린이놀이시설",
    "address": null,
    "tel": "",
    "lat": 35.242217,
    "lng": 128.583989
  },
  {
    "name": "함성하늘동산 어린이공원(210호 어린이공원-어린이용)",
    "category": "어린이놀이시설",
    "type": "어린이놀이시설",
    "address": null,
    "tel": "",
    "lat": 35.242217,
    "lng": 128.583989
  },
  {
    "name": "합성하늘동산 어린이공원(210호 어린이공원-유아용)",
    "category": "어린이놀이시설",
    "type": "어린이놀이시설",
    "address": null,
    "tel": "",
    "lat": 35.242217,
    "lng": 128.583989
  },
  {
    "name": "창원롯데캐슬더퍼스트아파트 어린이놀이터2(104동 앞)",
    "category": "어린이놀이시설",
    "type": "어린이놀이시설",
    "address": null,
    "tel": "",
    "lat": 35.242217,
    "lng": 128.583989
  },
  {
    "name": "창원롯데캐슬더퍼스트아파트 어린이놀이터1(102동 앞)",
    "category": "어린이놀이시설",
    "type": "어린이놀이시설",
    "address": null,
    "tel": "",
    "lat": 35.242217,
    "lng": 128.583989
  },
  {
    "name": "삼학사 어린이놀이시설",
    "category": "어린이놀이시설",
    "type": "어린이놀이시설",
    "address": "경상남도 창원시 마산회원구 무학로 559 (회원동)",
    "tel": "",
    "lat": 35.217863,
    "lng": 128.560348
  },
  {
    "name": "쿠우쿠우 마산점",
    "category": "어린이놀이시설",
    "type": "어린이놀이시설",
    "address": "경상남도 창원시 마산회원구 용마로 130 (양덕동)",
    "tel": "",
    "lat": 35.223583,
    "lng": 128.586088
  },
  {
    "name": "합성초등학교 어린이놀이시설",
    "category": "어린이놀이시설",
    "type": "어린이놀이시설",
    "address": "경상남도 창원시 마산회원구 합성북16길 75 (합성동)",
    "tel": "",
    "lat": 35.242785,
    "lng": 128.581986
  },
  {
    "name": "삼계 물놀이장",
    "category": "어린이놀이시설",
    "type": "어린이놀이시설",
    "address": "경상남도 창원시 마산회원구 내서읍 광려로 8",
    "tel": "",
    "lat": 35.22613,
    "lng": 128.503085
  },
  {
    "name": "창원메트로시티석전아파트 103동 어린이놀이터1",
    "category": "어린이놀이시설",
    "type": "어린이놀이시설",
    "address": null,
    "tel": "",
    "lat": 35.230297,
    "lng": 128.573103
  },
  {
    "name": "창원메트로시티석전아파트 102동 어린이놀이터2",
    "category": "어린이놀이시설",
    "type": "어린이놀이시설",
    "address": null,
    "tel": "",
    "lat": 35.230297,
    "lng": 128.573103
  },
  {
    "name": "창원메트로시티석전아파트 108동 어린이놀이터3",
    "category": "어린이놀이시설",
    "type": "어린이놀이시설",
    "address": null,
    "tel": "",
    "lat": 35.230297,
    "lng": 128.573103
  },
  {
    "name": "창원메트로시티석전아파트 109동 유아놀이터",
    "category": "어린이놀이시설",
    "type": "어린이놀이시설",
    "address": null,
    "tel": "",
    "lat": 35.230297,
    "lng": 128.573103
  },
  {
    "name": "팔룡공원 밤골여울마당 어린이놀이터1",
    "category": "어린이놀이시설",
    "type": "어린이놀이시설",
    "address": "경상남도 창원시 마산회원구 합성남19길 92 (합성동)",
    "tel": "",
    "lat": 35.236975,
    "lng": 128.594306
  },
  {
    "name": "팔룡공원 밤골여울마당 어린이놀이터2",
    "category": "어린이놀이시설",
    "type": "어린이놀이시설",
    "address": "경상남도 창원시 마산회원구 합성남19길 92 (합성동)",
    "tel": "",
    "lat": 35.236975,
    "lng": 128.594306
  },
  {
    "name": "봉암유원지 어린이놀이터",
    "category": "어린이놀이시설",
    "type": "어린이놀이시설",
    "address": null,
    "tel": "",
    "lat": 35.217595,
    "lng": 128.602463
  },
  {
    "name": "삼각지공원(마산회원구)놀이시설",
    "category": "어린이놀이시설",
    "type": "어린이놀이시설",
    "address": null,
    "tel": "",
    "lat": 35.23231,
    "lng": 128.586212
  },
  {
    "name": "E편한세상파크센트럴 유아놀이터(202동.경로당)",
    "category": "어린이놀이시설",
    "type": "어린이놀이시설",
    "address": null,
    "tel": "",
    "lat": 35.218263,
    "lng": 128.574247
  },
  {
    "name": "E편한세상파크센트럴 어린이놀이터1(101동.보육시설)",
    "category": "어린이놀이시설",
    "type": "어린이놀이시설",
    "address": null,
    "tel": "",
    "lat": 35.218263,
    "lng": 128.574247
  },
  {
    "name": "e편한세상 창원파크센트럴 201동 앞 어린이놀이터3",
    "category": "어린이놀이시설",
    "type": "어린이놀이시설",
    "address": "경남 창원시 마산회원구 회원남로 65",
    "tel": "",
    "lat": 35.220985,
    "lng": 128.569942
  },
  {
    "name": "e편한세상 창원파크센트럴 207동 208동 앞 어린이놀이터5",
    "category": "어린이놀이시설",
    "type": "어린이놀이시설",
    "address": "경남 창원시 마산회원구 회원남로 65",
    "tel": "",
    "lat": 35.220985,
    "lng": 128.569942
  },
  {
    "name": "회원두리어린이공원(197호)",
    "category": "어린이놀이시설",
    "type": "어린이놀이시설",
    "address": null,
    "tel": "",
    "lat": 35.218263,
    "lng": 128.574247
  },
  {
    "name": "e편한세상 파크센트럴 APT 203동옆 어린이놀이터2",
    "category": "어린이놀이시설",
    "type": "어린이놀이시설",
    "address": null,
    "tel": "",
    "lat": 35.218263,
    "lng": 128.574247
  },
  {
    "name": "e편한세상 파크센트럴 APT 204동 205동 사이 어린이놀이터4",
    "category": "어린이놀이시설",
    "type": "어린이놀이시설",
    "address": null,
    "tel": "",
    "lat": 35.218263,
    "lng": 128.574247
  },
  {
    "name": "E편한세상파크센트럴 유아놀이터1(101동, 보육시설)",
    "category": "어린이놀이시설",
    "type": "어린이놀이시설",
    "address": null,
    "tel": "",
    "lat": 35.218263,
    "lng": 128.574247
  },
  {
    "name": "화돈화우 마산직영점 실내놀이시설",
    "category": "어린이놀이시설",
    "type": "어린이놀이시설",
    "address": "경상남도 창원시 마산회원구 마산역광장로 6 (석전동)",
    "tel": "",
    "lat": 35.235354,
    "lng": 128.579315
  },
  {
    "name": "봉암 유아숲체험원",
    "category": "어린이놀이시설",
    "type": "어린이놀이시설",
    "address": null,
    "tel": "",
    "lat": 35.217595,
    "lng": 128.602463
  },
  {
    "name": "수피아어린이집",
    "category": "어린이놀이시설",
    "type": "어린이놀이시설",
    "address": "경상남도 창원시 마산회원구 내서읍 옥정1길 9-2",
    "tel": "",
    "lat": 35.24872,
    "lng": 128.522518
  },
  {
    "name": "창원롯데캐슬센텀골드 102동 앞 어린이놀이터",
    "category": "어린이놀이시설",
    "type": "어린이놀이시설",
    "address": null,
    "tel": "",
    "lat": 0.0,
    "lng": 0.0
  },
  {
    "name": "중앙공원 홈런정원",
    "category": "어린이놀이시설",
    "type": "어린이놀이시설",
    "address": null,
    "tel": "",
    "lat": 0.0,
    "lng": 0.0
  },
  {
    "name": "석전무지개어린이공원(19호)",
    "category": "어린이놀이시설",
    "type": "어린이놀이시설",
    "address": "경상남도 창원시 마산회원구 석전서6길 43 (석전동, 개나리맨션)",
    "tel": "",
    "lat": 35.227104,
    "lng": 128.568765
  },
  {
    "name": "안계꿈샘어린이공원(75호)",
    "category": "어린이놀이시설",
    "type": "어린이놀이시설",
    "address": "경상남도 창원시 마산회원구 내서읍 삼계숲길 222-12",
    "tel": "",
    "lat": 35.23087,
    "lng": 128.494968
  },
  {
    "name": "한일2차아파트 203동뒤 놀이터",
    "category": "어린이놀이시설",
    "type": "어린이놀이시설",
    "address": "경상남도 창원시 마산회원구 양덕로 151  (양덕동, 한일타운2차아파트)",
    "tel": "",
    "lat": 35.231364,
    "lng": 128.581721
  },
  {
    "name": "양덕우성아파트 110동 어린이놀이터",
    "category": "어린이놀이시설",
    "type": "어린이놀이시설",
    "address": "경상남도 창원시 마산회원구 양덕옛2길 16  (양덕동, 우성아파트)",
    "tel": "",
    "lat": 35.228813,
    "lng": 128.577248
  },
  {
    "name": "양덕우성아파트 어린이집 놀이터",
    "category": "어린이놀이시설",
    "type": "어린이놀이시설",
    "address": "경상남도 창원시 마산회원구 양덕옛2길 16  (양덕동, 우성아파트)",
    "tel": "",
    "lat": 35.228813,
    "lng": 128.577248
  },
  {
    "name": "양덕우성아파트 관리동 놀이터",
    "category": "어린이놀이시설",
    "type": "어린이놀이시설",
    "address": "경상남도 창원시 마산회원구 양덕옛2길 16  (양덕동, 우성아파트)",
    "tel": "",
    "lat": 35.228813,
    "lng": 128.577248
  },
  {
    "name": "한우리1차아파트 어린이놀이터2",
    "category": "어린이놀이시설",
    "type": "어린이놀이시설",
    "address": "경상남도 창원시 마산회원구 내서읍 삼계1길 48  (한우리아파트1단지)",
    "tel": "",
    "lat": 35.228626,
    "lng": 128.50455
  },
  {
    "name": "서광2차아파트 어린이놀이터",
    "category": "어린이놀이시설",
    "type": "어린이놀이시설",
    "address": "경상남도 창원시 마산회원구 내서읍 호계안길 91",
    "tel": "",
    "lat": 35.257492,
    "lng": 128.520175
  },
  {
    "name": "한효아파트 어린이놀이터",
    "category": "어린이놀이시설",
    "type": "어린이놀이시설",
    "address": "경상남도 창원시 마산회원구 회원동3길 38  (회원동, 한효아파트)",
    "tel": "",
    "lat": 35.217743,
    "lng": 128.571763
  },
  {
    "name": "중앙하이츠아파트 어린이놀이터",
    "category": "어린이놀이시설",
    "type": "어린이놀이시설",
    "address": "경상남도 창원시 마산회원구 팔용로 215 (구암동)",
    "tel": "",
    "lat": 35.247335,
    "lng": 128.594665
  },
  {
    "name": "한성아파트 어린이놀이터",
    "category": "어린이놀이시설",
    "type": "어린이놀이시설",
    "address": "경상남도 창원시 마산회원구 구암북11길 60 (구암동)",
    "tel": "",
    "lat": 35.256999,
    "lng": 128.596417
  },
  {
    "name": "삼계대동다숲아파트 어린이놀이터",
    "category": "어린이놀이시설",
    "type": "어린이놀이시설",
    "address": "경상남도 창원시 마산회원구 내서읍 삼계2길 31  (삼계대동다숲아파트) ",
    "tel": "",
    "lat": 35.230098,
    "lng": 128.504337
  },
  {
    "name": "중리주공2단지 제1놀이터",
    "category": "어린이놀이시설",
    "type": "어린이놀이시설",
    "address": "경상남도 창원시 마산회원구 내서읍 상곡로 67",
    "tel": "",
    "lat": 35.244568,
    "lng": 128.49975
  },
  {
    "name": "한일2차아파트 208동앞 놀이터",
    "category": "어린이놀이시설",
    "type": "어린이놀이시설",
    "address": "경상남도 창원시 마산회원구 양덕로 151  (양덕동, 한일타운2차아파트) ",
    "tel": "",
    "lat": 35.231364,
    "lng": 128.581721
  },
  {
    "name": "한일타운1차아파트 101동 놀이터",
    "category": "어린이놀이시설",
    "type": "어린이놀이시설",
    "address": "경상남도 창원시 마산회원구 양덕서8길 25  (양덕동, 한일타운1차아파트)",
    "tel": "",
    "lat": 35.23101,
    "lng": 128.578736
  },
  {
    "name": "한일타운1차아파트 105동 놀이터",
    "category": "어린이놀이시설",
    "type": "어린이놀이시설",
    "address": "경상남도 창원시 마산회원구 양덕서8길 25  (양덕동, 한일타운1차아파트)",
    "tel": "",
    "lat": 35.230997,
    "lng": 128.57873
  },
  {
    "name": "한우리1차아파트 어린이놀이터1",
    "category": "어린이놀이시설",
    "type": "어린이놀이시설",
    "address": "경상남도 창원시 마산회원구 내서읍 삼계1길 48  (한우리아파트1단지)",
    "tel": "",
    "lat": 35.228626,
    "lng": 128.50455
  },
  {
    "name": "중리현대아파트 어린이놀이터2",
    "category": "어린이놀이시설",
    "type": "어린이놀이시설",
    "address": "경상남도 창원시 마산회원구 내서읍 호원로 186-1",
    "tel": "",
    "lat": 35.251375,
    "lng": 128.522738
  },
  {
    "name": "중리주공2단지 제2놀이터",
    "category": "어린이놀이시설",
    "type": "어린이놀이시설",
    "address": "경상남도 창원시 마산회원구 내서읍 상곡로 67",
    "tel": "",
    "lat": 35.244568,
    "lng": 128.49975
  },
  {
    "name": "광려아이편한어린이공원(64호)",
    "category": "어린이놀이시설",
    "type": "어린이놀이시설",
    "address": "경상남도 창원시 마산회원구 내서읍 삼계1길 47",
    "tel": "",
    "lat": 35.228543,
    "lng": 128.503087
  },
  {
    "name": "삼계화성타운 어린이놀이터",
    "category": "어린이놀이시설",
    "type": "어린이놀이시설",
    "address": "경상남도 창원시 마산회원구 내서읍 삼계8길 31",
    "tel": "",
    "lat": 35.233635,
    "lng": 128.500113
  },
  {
    "name": "신성네스트빌 어린이놀이터",
    "category": "어린이놀이시설",
    "type": "어린이놀이시설",
    "address": "경상남도 창원시 마산회원구 내서읍 상곡로 21  (신성네스트빌)",
    "tel": "",
    "lat": 35.242681,
    "lng": 128.502369
  },
  {
    "name": "성우아파트 어린이놀이터",
    "category": "어린이놀이시설",
    "type": "어린이놀이시설",
    "address": "경상남도 창원시 마산회원구 내서읍 광려천북로 58",
    "tel": "",
    "lat": 35.255489,
    "lng": 128.519109
  },
  {
    "name": "중리현대아파트 어린이놀이터1",
    "category": "어린이놀이시설",
    "type": "어린이놀이시설",
    "address": "경상남도 창원시 마산회원구 내서읍 호원로 186-1",
    "tel": "",
    "lat": 35.251375,
    "lng": 128.522738
  },
  {
    "name": "원계대동다숲아파트 104동 어린이놀이터",
    "category": "어린이놀이시설",
    "type": "어린이놀이시설",
    "address": "경상남도 창원시 마산회원구 내서읍 광려천남로 267",
    "tel": "",
    "lat": 35.229168,
    "lng": 128.5066
  },
  {
    "name": "대림하이빌아파트 어린이놀이터",
    "category": "어린이놀이시설",
    "type": "어린이놀이시설",
    "address": "경상남도 창원시 마산회원구 양덕동2길 76 (양덕동)",
    "tel": "",
    "lat": 35.224643,
    "lng": 128.589563
  },
  {
    "name": "코오롱하늘채2차아파트 216동앞 놀이터",
    "category": "어린이놀이시설",
    "type": "어린이놀이시설",
    "address": "경상남도 창원시 마산회원구 내서읍 호원로 359  (코오롱하늘채2차아파트)",
    "tel": "",
    "lat": 35.263926,
    "lng": 128.523371
  },
  {
    "name": "창신대학교",
    "category": "대학교",
    "type": "대학교",
    "address": "경상남도 창원시 마산회원구 팔용로 262 (합성동, 창신대학) ",
    "tel": "055-250-3001",
    "lat": 35.244911,
    "lng": 128.600334
  },
  {
    "name": "마산대학교",
    "category": "대학교",
    "type": "대학교",
    "address": "경상남도 창원시 마산회원구 내서읍 함마대로 2640 (용담리, 마산대학) ",
    "tel": "055-230-1212",
    "lat": 35.258901,
    "lng": 128.504081
  },
  {
    "name": "창신대학교 대학원",
    "category": "대학교",
    "type": "대학교",
    "address": "경상남도 창원시 마산회원구 팔용로 262 (합성동) 대학원 교학과",
    "tel": "055-250-3150",
    "lat": 35.244911,
    "lng": 128.600334
  },
  {
    "name": "창신대학교 복지문화대학원",
    "category": "대학교",
    "type": "대학교",
    "address": "경상남도 창원시 마산회원구 팔용로 262 (합성동) 대학원 교학과",
    "tel": "055-250-3150",
    "lat": 35.244911,
    "lng": 128.600334
  },
  {
    "name": "창신대학교 부동산경영대학원",
    "category": "대학교",
    "type": "대학교",
    "address": "경상남도 창원시 마산회원구 팔용로 262 (합성동) 대학원 교학과",
    "tel": "055-250-3150",
    "lat": 35.244911,
    "lng": 128.600334
  },
  {
    "name": "다옴 장애인보호작업장",
    "category": "약자보호시설",
    "type": "장애인편의시설",
    "address": "경상남도 창원시 마산회원구 회성시장2길 131 (회성동)",
    "tel": "055-542-7766",
    "lat": 35.23258,
    "lng": 128.56312
  },
  {
    "name": "하얀기업",
    "category": "약자보호시설",
    "type": "장애인편의시설",
    "address": "경상남도 창원시 마산회원구 내서읍 중리공단로5길 28-1",
    "tel": "055-715-9100",
    "lat": 35.248538,
    "lng": 128.515497
  },
  {
    "name": "내서지역장애인주간보호센터",
    "category": "약자보호시설",
    "type": "장애인편의시설",
    "address": "경상남도 창원시 마산회원구 내서읍 호계본동로 78",
    "tel": "055-231-4725",
    "lat": 35.266212,
    "lng": 128.518304
  },
  {
    "name": "내서보호작업장",
    "category": "약자보호시설",
    "type": "장애인편의시설",
    "address": "경상남도 창원시 마산회원구 내서읍 삼계본동1길 54",
    "tel": "055-231-3731",
    "lat": 35.232887,
    "lng": 128.497646
  },
  {
    "name": "경남 장애인생산품판매시설",
    "category": "약자보호시설",
    "type": "장애인편의시설",
    "address": "경상남도 창원시 마산회원구 내서읍 함마대로 2568",
    "tel": "055-274-0888",
    "lat": 35.262541,
    "lng": 128.502999
  },
  {
    "name": "창원시마산수어통역센터",
    "category": "약자보호시설",
    "type": "장애인편의시설",
    "address": "경상남도 창원시 마산회원구 회원동서로 10 중앙캐스빌상가 2층",
    "tel": "055-253-2671",
    "lat": 35.218568,
    "lng": 128.571996
  },
  {
    "name": "스타벅스 신세계마산점",
    "category": "우수다중시설",
    "type": "휴게음식점",
    "address": "-",
    "tel": "",
    "lat": 35.219584,
    "lng": 128.586591
  },
  {
    "name": "롯데리아 마산점(마산시외버스터미널)",
    "category": "우수다중시설",
    "type": "일반음식점",
    "address": "-",
    "tel": "",
    "lat": 35.239382,
    "lng": 128.58382
  },
  {
    "name": "맥도날드 창원내서DT점",
    "category": "우수다중시설",
    "type": "휴게음식점",
    "address": "-",
    "tel": "",
    "lat": 35.248511,
    "lng": 128.510353
  },
  {
    "name": "안동찜닭",
    "category": "우수다중시설",
    "type": "일반음식점",
    "address": "-",
    "tel": "",
    "lat": 35.179753,
    "lng": 128.559912
  },
  {
    "name": "맥도날드 신포DT점",
    "category": "우수다중시설",
    "type": "휴게음식점",
    "address": "-",
    "tel": "",
    "lat": 35.197966,
    "lng": 128.570712
  },
  {
    "name": "CGV영화관(마산점)",
    "category": "우수다중시설",
    "type": "영화상영관",
    "address": "-",
    "tel": "",
    "lat": 35.237587,
    "lng": 128.582809
  },
  {
    "name": "롯데시네마 마산터미널",
    "category": "우수다중시설",
    "type": "영화상영관",
    "address": "-",
    "tel": "",
    "lat": 35.238691,
    "lng": 128.583126
  },
  {
    "name": "롯데시네마 경남대점",
    "category": "우수다중시설",
    "type": "영화상영관",
    "address": "-",
    "tel": "",
    "lat": 35.180779,
    "lng": 128.559749
  },
  {
    "name": "메가박스중앙㈜창원내서지점",
    "category": "우수다중시설",
    "type": "영화상영관",
    "address": "-",
    "tel": "",
    "lat": 35.249038,
    "lng": 128.510676
  },
  {
    "name": "가고파초등학교",
    "category": "초중고",
    "type": "초중고",
    "address": "경상남도 창원시 마산회원구 양덕동 84-3",
    "tel": "",
    "lat": 35.225779,
    "lng": 128.580473
  },
  {
    "name": "경남전자고등학교",
    "category": "초중고",
    "type": "초중고",
    "address": "경상남도 창원시 마산합포구 상남동 21-11",
    "tel": "",
    "lat": 35.213513,
    "lng": 128.571639
  },
  {
    "name": "경남혜림학교",
    "category": "초중고",
    "type": "초중고",
    "address": "경상남도 창원시 마산회원구 합성동 599",
    "tel": "",
    "lat": 35.243469,
    "lng": 128.580404
  },
  {
    "name": "감천초등학교",
    "category": "초중고",
    "type": "초중고",
    "address": "경상남도 창원시 마산회원구 내서읍 감천리 699-4",
    "tel": "",
    "lat": 35.207181,
    "lng": 128.515495
  },
  {
    "name": "경상고등학교",
    "category": "초중고",
    "type": "초중고",
    "address": "경상남도 창원시 의창구 소계동 473",
    "tel": "",
    "lat": 35.260962,
    "lng": 128.600532
  },
  {
    "name": "구암중학교",
    "category": "초중고",
    "type": "초중고",
    "address": "경상남도 창원시 마산회원구 구암동 1346",
    "tel": "",
    "lat": 35.256108,
    "lng": 128.596728
  },
  {
    "name": "구암초등학교",
    "category": "초중고",
    "type": "초중고",
    "address": "경상남도 창원시 마산회원구 구암동 260",
    "tel": "",
    "lat": 35.25827,
    "lng": 128.594341
  },
  {
    "name": "광려중학교",
    "category": "초중고",
    "type": "초중고",
    "address": "경상남도 창원시 마산회원구 내서읍 신감리 1375",
    "tel": "",
    "lat": 35.217585,
    "lng": 128.502982
  },
  {
    "name": "광려초등학교",
    "category": "초중고",
    "type": "초중고",
    "address": "경상남도 창원시 마산회원구 내서읍 삼계리 40",
    "tel": "",
    "lat": 35.228058,
    "lng": 128.503151
  },
  {
    "name": "교동초등학교",
    "category": "초중고",
    "type": "초중고",
    "address": "경상남도 창원시 마산회원구 회원동 639-2",
    "tel": "",
    "lat": 35.221405,
    "lng": 128.562458
  },
  {
    "name": "교방초등학교",
    "category": "초중고",
    "type": "초중고",
    "address": "경상남도 창원시 마산합포구 교방동 376-8",
    "tel": "",
    "lat": 35.213325,
    "lng": 128.565078
  },
  {
    "name": "내서중학교",
    "category": "초중고",
    "type": "초중고",
    "address": "경상남도 창원시 마산회원구 내서읍 중리 1052",
    "tel": "",
    "lat": 35.245796,
    "lng": 128.508196
  },
  {
    "name": "내서초등학교",
    "category": "초중고",
    "type": "초중고",
    "address": "경상남도 창원시 마산회원구 두척동 550-1",
    "tel": "",
    "lat": 35.238139,
    "lng": 128.54557
  },
  {
    "name": "상남초등학교",
    "category": "초중고",
    "type": "초중고",
    "address": "경상남도 창원시 마산합포구 상남동 179-1",
    "tel": "",
    "lat": 35.212436,
    "lng": 128.577111
  },
  {
    "name": "산호초등학교",
    "category": "초중고",
    "type": "초중고",
    "address": "경상남도 창원시 마산합포구 산호동 53-1",
    "tel": "",
    "lat": 35.219718,
    "lng": 128.579595
  },
  {
    "name": "삼계중학교",
    "category": "초중고",
    "type": "초중고",
    "address": "경상남도 창원시 마산회원구 내서읍 삼계리 16",
    "tel": "",
    "lat": 35.233718,
    "lng": 128.499168
  },
  {
    "name": "삼계초등학교",
    "category": "초중고",
    "type": "초중고",
    "address": "경상남도 창원시 마산회원구 내서읍 삼계리 665",
    "tel": "",
    "lat": 35.232892,
    "lng": 128.500321
  },
  {
    "name": "마산가포고등학교",
    "category": "초중고",
    "type": "초중고",
    "address": "경상남도 창원시 마산합포구 가포동 494-1",
    "tel": "",
    "lat": 35.167558,
    "lng": 128.571209
  },
  {
    "name": "마산고등학교",
    "category": "초중고",
    "type": "초중고",
    "address": "경상남도 창원시 마산합포구 완월동 27-3",
    "tel": "",
    "lat": 35.200519,
    "lng": 128.561687
  },
  {
    "name": "마산고운초등학교",
    "category": "초중고",
    "type": "초중고",
    "address": "경남 창원시 마산합포구 월영동 741",
    "tel": "",
    "lat": 35.172715,
    "lng": 128.56139
  },
  {
    "name": "마산공업고등학교",
    "category": "초중고",
    "type": "초중고",
    "address": "경상남도 창원시 마산회원구 합성동 12-3",
    "tel": "",
    "lat": 35.244138,
    "lng": 128.595961
  },
  {
    "name": "마산구암고등학교",
    "category": "초중고",
    "type": "초중고",
    "address": "경상남도 창원시 마산회원구 구암동 44-5",
    "tel": "",
    "lat": 35.246722,
    "lng": 128.596852
  },
  {
    "name": "마산내서여자고등학교",
    "category": "초중고",
    "type": "초중고",
    "address": "경상남도 창원시 마산회원구 내서읍 삼계리 6",
    "tel": "",
    "lat": 35.237296,
    "lng": 128.502881
  },
  {
    "name": "마산동중학교",
    "category": "초중고",
    "type": "초중고",
    "address": "경상남도 창원시 마산회원구 회원동 376-1",
    "tel": "",
    "lat": 35.221095,
    "lng": 128.568166
  },
  {
    "name": "마산무학여자고등학교",
    "category": "초중고",
    "type": "초중고",
    "address": "경상남도 창원시 마산회원구 회원동 145-1",
    "tel": "",
    "lat": 35.223026,
    "lng": 128.574887
  },
  {
    "name": "마산무학여자중학교",
    "category": "초중고",
    "type": "초중고",
    "address": "경상남도 창원시 마산회원구 회원동 145-1",
    "tel": "",
    "lat": 35.223078,
    "lng": 128.574887
  },
  {
    "name": "마산서중학교",
    "category": "초중고",
    "type": "초중고",
    "address": "경상남도 창원시 마산합포구 월영동 534-20",
    "tel": "",
    "lat": 35.178527,
    "lng": 128.557306
  },
  {
    "name": "마산여자고등학교",
    "category": "초중고",
    "type": "초중고",
    "address": "경상남도 창원시 마산합포구 완월동 300",
    "tel": "",
    "lat": 35.195586,
    "lng": 128.561358
  },
  {
    "name": "마산여자중학교",
    "category": "초중고",
    "type": "초중고",
    "address": "경상남도 창원시 마산회원구 회원동 639-1",
    "tel": "",
    "lat": 35.221217,
    "lng": 128.560978
  },
  {
    "name": "마산용마고등학교",
    "category": "초중고",
    "type": "초중고",
    "address": "경상남도 창원시 마산합포구 산호동 438-1",
    "tel": "",
    "lat": 35.212274,
    "lng": 128.582118
  },
  {
    "name": "마산의신여자중학교",
    "category": "초중고",
    "type": "초중고",
    "address": "경상남도 창원시 마산합포구 교방동 207",
    "tel": "",
    "lat": 35.211608,
    "lng": 128.566004
  },
  {
    "name": "마산제일고등학교",
    "category": "초중고",
    "type": "초중고",
    "address": "경상남도 창원시 마산회원구 내서읍 용담리 167-1",
    "tel": "",
    "lat": 35.261642,
    "lng": 128.505486
  },
  {
    "name": "마산제일여자고등학교",
    "category": "초중고",
    "type": "초중고",
    "address": "경상남도 창원시 마산합포구 문화동 4",
    "tel": "",
    "lat": 35.188431,
    "lng": 128.556891
  },
  {
    "name": "마산제일여자중학교",
    "category": "초중고",
    "type": "초중고",
    "address": "경상남도 창원시 마산합포구 문화동 4",
    "tel": "",
    "lat": 35.188431,
    "lng": 128.556898
  },
  {
    "name": "마산중앙고등학교",
    "category": "초중고",
    "type": "초중고",
    "address": "경상남도 창원시 마산합포구 신월동 33-60",
    "tel": "",
    "lat": 35.191927,
    "lng": 128.558426
  },
  {
    "name": "마산중앙중학교",
    "category": "초중고",
    "type": "초중고",
    "address": "경상남도 창원시 마산회원구 합성동 12-1",
    "tel": "",
    "lat": 35.242312,
    "lng": 128.589626
  },
  {
    "name": "마산중앙초등학교",
    "category": "초중고",
    "type": "초중고",
    "address": "경상남도 창원시 의창구 반계동 1509-1",
    "tel": "",
    "lat": 35.248241,
    "lng": 128.602504
  },
  {
    "name": "마산중학교",
    "category": "초중고",
    "type": "초중고",
    "address": "경상남도 창원시 마산합포구 자산동 274",
    "tel": "",
    "lat": 35.203191,
    "lng": 128.562036
  },
  {
    "name": "봉덕초등학교",
    "category": "초중고",
    "type": "초중고",
    "address": "경상남도 창원시 마산회원구 봉암동 435-3",
    "tel": "",
    "lat": 35.22254,
    "lng": 128.594195
  },
  {
    "name": "무학초등학교",
    "category": "초중고",
    "type": "초중고",
    "address": "경상남도 창원시 마산합포구 자산동 119-9",
    "tel": "",
    "lat": 35.203605,
    "lng": 128.567508
  },
  {
    "name": "북성초등학교",
    "category": "초중고",
    "type": "초중고",
    "address": "경상남도 창원시 마산회원구 석전동 203-7",
    "tel": "",
    "lat": 35.231614,
    "lng": 128.569948
  },
  {
    "name": "성호초등학교",
    "category": "초중고",
    "type": "초중고",
    "address": "경상남도 창원시 마산합포구 성호동 57-3",
    "tel": "",
    "lat": 35.20927,
    "lng": 128.571388
  },
  {
    "name": "안계초등학교",
    "category": "초중고",
    "type": "초중고",
    "address": "경상남도 창원시 마산회원구 내서읍 삼계리 503",
    "tel": "",
    "lat": 35.23142,
    "lng": 128.494448
  },
  {
    "name": "완월초등학교",
    "category": "초중고",
    "type": "초중고",
    "address": "경상남도 창원시 마산합포구 완월동 12-8",
    "tel": "",
    "lat": 35.200366,
    "lng": 128.563188
  },
  {
    "name": "양덕여자중학교",
    "category": "초중고",
    "type": "초중고",
    "address": "경상남도 창원시 마산회원구 합성동 16-1",
    "tel": "",
    "lat": 35.243656,
    "lng": 128.594684
  },
  {
    "name": "양덕중학교",
    "category": "초중고",
    "type": "초중고",
    "address": "경상남도 창원시 마산회원구 합성동 17-5",
    "tel": "",
    "lat": 35.24263,
    "lng": 128.595193
  },
  {
    "name": "양덕초등학교",
    "category": "초중고",
    "type": "초중고",
    "address": "경상남도 창원시 마산회원구 양덕동 42",
    "tel": "",
    "lat": 35.233849,
    "lng": 128.588525
  },
  {
    "name": "용마초등학교",
    "category": "초중고",
    "type": "초중고",
    "address": "경상남도 창원시 마산합포구 산호동 237",
    "tel": "",
    "lat": 35.215789,
    "lng": 128.584619
  },
  {
    "name": "상일초등학교",
    "category": "초중고",
    "type": "초중고",
    "address": "경상남도 창원시 마산회원구 내서읍 중리 1053",
    "tel": "",
    "lat": 35.244476,
    "lng": 128.506178
  },
  {
    "name": "석전초등학교",
    "category": "초중고",
    "type": "초중고",
    "address": "경상남도 창원시 마산회원구 석전동 243-1",
    "tel": "",
    "lat": 35.232286,
    "lng": 128.576215
  },
  {
    "name": "예곡초등학교",
    "category": "초중고",
    "type": "초중고",
    "address": "경상남도 함안군 칠원읍 예곡리 433",
    "tel": "",
    "lat": 35.276717,
    "lng": 128.532908
  },
  {
    "name": "성지여자고등학교",
    "category": "초중고",
    "type": "초중고",
    "address": "경상남도 창원시 마산합포구 완월동 206-1",
    "tel": "",
    "lat": 35.19796,
    "lng": 128.559888
  },
  {
    "name": "성지여자중학교",
    "category": "초중고",
    "type": "초중고",
    "address": "경상남도 창원시 마산합포구 완월동 206-5",
    "tel": "",
    "lat": 35.197937,
    "lng": 128.559888
  },
  {
    "name": "회원초등학교",
    "category": "초중고",
    "type": "초중고",
    "address": "경상남도 창원시 마산회원구 회원동 393-1",
    "tel": "",
    "lat": 35.219845,
    "lng": 128.566733
  },
  {
    "name": "월성초등학교",
    "category": "초중고",
    "type": "초중고",
    "address": "경상남도 창원시 마산합포구 완월동 296",
    "tel": "",
    "lat": 35.195972,
    "lng": 128.56041
  },
  {
    "name": "월영초등학교",
    "category": "초중고",
    "type": "초중고",
    "address": "경상남도 창원시 마산합포구 장군동1가 6",
    "tel": "",
    "lat": 35.191672,
    "lng": 128.562874
  },
  {
    "name": "월포초등학교",
    "category": "초중고",
    "type": "초중고",
    "address": "경상남도 창원시 마산합포구 대내동 1-29",
    "tel": "",
    "lat": 35.183008,
    "lng": 128.557557
  },
  {
    "name": "칠원초등학교",
    "category": "초중고",
    "type": "초중고",
    "address": "경상남도 함안군 칠원읍 구성리 730",
    "tel": "",
    "lat": 35.306385,
    "lng": 128.519302
  },
  {
    "name": "팔룡초등학교",
    "category": "초중고",
    "type": "초중고",
    "address": "경상남도 창원시 마산회원구 합성동 17-4",
    "tel": "",
    "lat": 35.24219,
    "lng": 128.593967
  },
  {
    "name": "평산초등학교",
    "category": "초중고",
    "type": "초중고",
    "address": "경상남도 창원시 의창구 팔용동 73",
    "tel": "",
    "lat": 35.250827,
    "lng": 128.616725
  },
  {
    "name": "한일여자고등학교",
    "category": "초중고",
    "type": "초중고",
    "address": "경상남도 창원시 마산회원구 양덕동 888-9",
    "tel": "",
    "lat": 35.229581,
    "lng": 128.578662
  },
  {
    "name": "호계중학교",
    "category": "초중고",
    "type": "초중고",
    "address": "경상남도 창원시 마산회원구 내서읍 호계리 645",
    "tel": "",
    "lat": 35.266835,
    "lng": 128.513975
  },
  {
    "name": "호계초등학교",
    "category": "초중고",
    "type": "초중고",
    "address": "경상남도 창원시 마산회원구 내서읍 호계리 71-1",
    "tel": "",
    "lat": 35.265727,
    "lng": 128.522862
  },
  {
    "name": "합성초등학교",
    "category": "초중고",
    "type": "초중고",
    "address": "경상남도 창원시 마산회원구 합성동 76-5",
    "tel": "",
    "lat": 35.242773,
    "lng": 128.58194
  },
  {
    "name": "합포고등학교",
    "category": "초중고",
    "type": "초중고",
    "address": "경상남도 창원시 마산합포구 교방동 170-1",
    "tel": "",
    "lat": 35.209395,
    "lng": 128.564343
  },
  {
    "name": "합포여자중학교",
    "category": "초중고",
    "type": "초중고",
    "address": "경상남도 창원시 마산회원구 회성동 458-9",
    "tel": "",
    "lat": 35.232148,
    "lng": 128.561752
  },
  {
    "name": "합포중학교",
    "category": "초중고",
    "type": "초중고",
    "address": "경상남도 창원시 마산합포구 산호동 11-7",
    "tel": "",
    "lat": 35.215788,
    "lng": 128.58537
  },
  {
    "name": "합포초등학교",
    "category": "초중고",
    "type": "초중고",
    "address": "경상남도 창원시 마산합포구 산호동 269-5",
    "tel": "",
    "lat": 35.212353,
    "lng": 128.584139
  },
  {
    "name": "호암중학교",
    "category": "초중고",
    "type": "초중고",
    "address": "경상남도 함안군 칠원읍 오곡리 101",
    "tel": "",
    "lat": 35.274686,
    "lng": 128.521589
  },
  {
    "name": "호암초등학교",
    "category": "초중고",
    "type": "초중고",
    "address": "경상남도 함안군 칠원읍 오곡리 97-13",
    "tel": "",
    "lat": 35.274071,
    "lng": 128.520971
  },
  {
    "name": "해운중학교",
    "category": "초중고",
    "type": "초중고",
    "address": "경상남도 창원시 마산합포구 해운동 5-1",
    "tel": "",
    "lat": 35.17758,
    "lng": 128.565297
  },
  {
    "name": "해운초등학교",
    "category": "초중고",
    "type": "초중고",
    "address": "경상남도 창원시 마산합포구 월영동 605-1",
    "tel": "",
    "lat": 35.176257,
    "lng": 128.557835
  },
  {
    "name": "창신중학교",
    "category": "초중고",
    "type": "초중고",
    "address": "경상남도 창원시 마산회원구 봉암동 511-8",
    "tel": "",
    "lat": 35.224342,
    "lng": 128.597401
  },
  {
    "name": "창원예술학교(고)",
    "category": "초중고",
    "type": "초중고",
    "address": "경상남도 창원시 마산회원구 구암동 1333",
    "tel": "",
    "lat": 35.256416,
    "lng": 128.597991
  },
  {
    "name": "중리초등학교",
    "category": "초중고",
    "type": "초중고",
    "address": "경상남도 창원시 마산회원구 내서읍 호계리 305-1",
    "tel": "",
    "lat": 35.255442,
    "lng": 128.519927
  },
  {
    "name": "전안초등학교",
    "category": "초중고",
    "type": "초중고",
    "address": "경상남도 창원시 마산회원구 내서읍 신감리 1373",
    "tel": "",
    "lat": 35.21803,
    "lng": 128.502202
  },
  {
    "name": "가고파유치원",
    "category": "유아시설",
    "type": "유아시설",
    "address": "경상남도 창원시 마산회원구 회원동 656-6",
    "tel": "",
    "lat": 35.217633,
    "lng": 128.562445
  },
  {
    "name": "가람유치원",
    "category": "유아시설",
    "type": "유아시설",
    "address": "경상남도 창원시 의창구 팔용동 71-2",
    "tel": "",
    "lat": 35.25126,
    "lng": 128.615153
  },
  {
    "name": "개나리유치원",
    "category": "유아시설",
    "type": "유아시설",
    "address": "경상남도 창원시 마산회원구 양덕동 93-4",
    "tel": "",
    "lat": 35.235107,
    "lng": 128.585645
  },
  {
    "name": "대자유치원",
    "category": "유아시설",
    "type": "유아시설",
    "address": "경상남도 창원시 마산합포구 추산동 65-2",
    "tel": "",
    "lat": 35.206804,
    "lng": 128.571856
  },
  {
    "name": "꽃내음풀내음해돋이유치원",
    "category": "유아시설",
    "type": "유아시설",
    "address": "경상남도 창원시 마산회원구 내서읍 신감리 1308",
    "tel": "",
    "lat": 35.212442,
    "lng": 128.507868
  },
  {
    "name": "반달유치원",
    "category": "유아시설",
    "type": "유아시설",
    "address": "경상남도 창원시 마산합포구 자산동 330-19",
    "tel": "",
    "lat": 35.20032,
    "lng": 128.55838
  },
  {
    "name": "밝은별명성유치원",
    "category": "유아시설",
    "type": "유아시설",
    "address": "경상남도 창원시 마산회원구 내서읍 삼계리 11",
    "tel": "",
    "lat": 35.233826,
    "lng": 128.501428
  },
  {
    "name": "비둘기동산유치원",
    "category": "유아시설",
    "type": "유아시설",
    "address": "경상남도 창원시 마산회원구 내서읍 호계리 517-3",
    "tel": "",
    "lat": 35.264555,
    "lng": 128.519677
  },
  {
    "name": "삼계유치원",
    "category": "유아시설",
    "type": "유아시설",
    "address": "경상남도 창원시 마산회원구 내서읍 삼계리 755",
    "tel": "",
    "lat": 35.232937,
    "lng": 128.491205
  },
  {
    "name": "삼학사금강유치원",
    "category": "유아시설",
    "type": "유아시설",
    "address": "경상남도 창원시 마산회원구 회원동 646-3",
    "tel": "",
    "lat": 35.217863,
    "lng": 128.560348
  },
  {
    "name": "새싹유치원",
    "category": "유아시설",
    "type": "유아시설",
    "address": "경상남도 창원시 마산회원구 합성동 84-5",
    "tel": "",
    "lat": 35.240792,
    "lng": 128.583449
  },
  {
    "name": "석화유치원",
    "category": "유아시설",
    "type": "유아시설",
    "address": "경상남도 창원시 마산회원구 구암동 1326",
    "tel": "",
    "lat": 35.249679,
    "lng": 128.603903
  },
  {
    "name": "세화유치원",
    "category": "유아시설",
    "type": "유아시설",
    "address": "경상남도 창원시 마산회원구 양덕동 46-40",
    "tel": "",
    "lat": 35.231967,
    "lng": 128.586739
  },
  {
    "name": "아람유치원",
    "category": "유아시설",
    "type": "유아시설",
    "address": "경상남도 창원시 마산합포구 자산동 327-20",
    "tel": "",
    "lat": 35.202358,
    "lng": 128.561138
  },
  {
    "name": "숲속유치원",
    "category": "유아시설",
    "type": "유아시설",
    "address": "경상남도 창원시 마산회원구 내서읍 삼계리 825",
    "tel": "",
    "lat": 35.23014,
    "lng": 128.494361
  },
  {
    "name": "성운유치원",
    "category": "유아시설",
    "type": "유아시설",
    "address": "경상남도 창원시 마산회원구 내서읍 중리 931-2",
    "tel": "",
    "lat": 35.25384,
    "lng": 128.508232
  },
  {
    "name": "세종유치원",
    "category": "유아시설",
    "type": "유아시설",
    "address": "경상남도 창원시 마산합포구 해운동 50-1",
    "tel": "",
    "lat": 35.177745,
    "lng": 128.564333
  },
  {
    "name": "양덕솔빛유치원",
    "category": "유아시설",
    "type": "유아시설",
    "address": "경남 창원시 마산회원구 양덕동 84-6",
    "tel": "",
    "lat": 35.225301,
    "lng": 128.581643
  },
  {
    "name": "에코소명유치원",
    "category": "유아시설",
    "type": "유아시설",
    "address": "경상남도 창원시 마산회원구 구암동 1340-1",
    "tel": "",
    "lat": 35.259196,
    "lng": 128.595441
  },
  {
    "name": "온뜨레피움유치원",
    "category": "유아시설",
    "type": "유아시설",
    "address": "경상남도 창원시 마산회원구 내서읍 중리 1038",
    "tel": "",
    "lat": 35.249946,
    "lng": 128.512043
  },
  {
    "name": "이화유치원",
    "category": "유아시설",
    "type": "유아시설",
    "address": "경상남도 창원시 마산회원구 회원동 633-15",
    "tel": "",
    "lat": 35.22109,
    "lng": 128.565503
  },
  {
    "name": "이안유치원",
    "category": "유아시설",
    "type": "유아시설",
    "address": "경상남도 함안군 칠원읍 오곡리 1-1",
    "tel": "",
    "lat": 35.271149,
    "lng": 128.525669
  },
  {
    "name": "천사유치원",
    "category": "유아시설",
    "type": "유아시설",
    "address": "경상남도 창원시 마산회원구 구암동 10-47",
    "tel": "",
    "lat": 35.249584,
    "lng": 128.594479
  },
  {
    "name": "주원유치원",
    "category": "유아시설",
    "type": "유아시설",
    "address": "경상남도 함안군 칠원읍 구성리 147",
    "tel": "",
    "lat": 35.302952,
    "lng": 128.532184
  },
  {
    "name": "지예슬유치원",
    "category": "유아시설",
    "type": "유아시설",
    "address": "경상남도 창원시 마산회원구 회성동 468-20",
    "tel": "",
    "lat": 35.232719,
    "lng": 128.565309
  },
  {
    "name": "창원산새소리유치원",
    "category": "유아시설",
    "type": "유아시설",
    "address": "경상남도 창원시 의창구 팔용동 70",
    "tel": "",
    "lat": 35.251903,
    "lng": 128.61586
  },
  {
    "name": "코오롱한샘유치원",
    "category": "유아시설",
    "type": "유아시설",
    "address": "경상남도 창원시 마산회원구 내서읍 호계리 10",
    "tel": "",
    "lat": 35.267638,
    "lng": 128.523902
  },
  {
    "name": "고흐와해바라기어린이집",
    "category": "유아시설",
    "type": "유아시설",
    "address": "null",
    "tel": "",
    "lat": 35.233895,
    "lng": 128.586837
  },
  {
    "name": "i - 편한 어린이집",
    "category": "유아시설",
    "type": "유아시설",
    "address": "경상남도 창원시 마산회원구 내서읍 원계리 647",
    "tel": "",
    "lat": 35.229904,
    "lng": 128.506426
  },
  {
    "name": "i블루밍어린이집",
    "category": "유아시설",
    "type": "유아시설",
    "address": "경상남도 창원시 마산합포구 교방동 355-1",
    "tel": "",
    "lat": 35.214948,
    "lng": 128.563107
  },
  {
    "name": "경남숲 어린이집",
    "category": "유아시설",
    "type": "유아시설",
    "address": "경상남도 창원시 마산회원구 양덕동 5-2",
    "tel": "",
    "lat": 35.234496,
    "lng": 128.591037
  },
  {
    "name": "경남청사 예다움어린이집",
    "category": "유아시설",
    "type": "유아시설",
    "address": "경상남도 창원시 마산합포구 신포동1가 78",
    "tel": "",
    "lat": 35.194988,
    "lng": 128.572098
  },
  {
    "name": "BNK창원어린이집",
    "category": "유아시설",
    "type": "유아시설",
    "address": "null",
    "tel": "",
    "lat": 35.230576,
    "lng": 128.58401
  },
  {
    "name": "경동튼튼어린이집",
    "category": "유아시설",
    "type": "유아시설",
    "address": "경상남도 창원시 마산합포구 중앙동2가 1-500",
    "tel": "",
    "lat": 35.199684,
    "lng": 128.567768
  },
  {
    "name": "계명어린이집",
    "category": "유아시설",
    "type": "유아시설",
    "address": "null",
    "tel": "",
    "lat": 35.231981,
    "lng": 128.585993
  },
  {
    "name": "LH열린세상어린이집",
    "category": "유아시설",
    "type": "유아시설",
    "address": "경상남도 함안군 칠원읍 구성리 979",
    "tel": "",
    "lat": 35.303546,
    "lng": 128.522536
  },
  {
    "name": "감계숲어린이집",
    "category": "유아시설",
    "type": "유아시설",
    "address": "경상남도 창원시 의창구 북면 감계리 225-1",
    "tel": "",
    "lat": 35.3005,
    "lng": 128.584234
  },
  {
    "name": "고운어린이집",
    "category": "유아시설",
    "type": "유아시설",
    "address": "경상남도 창원시 마산합포구 월영동 738",
    "tel": "",
    "lat": 35.173064,
    "lng": 128.56343
  },
  {
    "name": "다하어린이집",
    "category": "유아시설",
    "type": "유아시설",
    "address": "null",
    "tel": "",
    "lat": 35.302686,
    "lng": 128.582807
  },
  {
    "name": "동신해나라 어린이집",
    "category": "유아시설",
    "type": "유아시설",
    "address": "경상남도 창원시 마산회원구 내서읍 중리 1036",
    "tel": "",
    "lat": 35.249829,
    "lng": 128.510925
  },
  {
    "name": "동아마을어린이집",
    "category": "유아시설",
    "type": "유아시설",
    "address": "경상남도 창원시 마산합포구 월영동 614-7",
    "tel": "",
    "lat": 35.173293,
    "lng": 128.560317
  },
  {
    "name": "동화마을어린이집",
    "category": "유아시설",
    "type": "유아시설",
    "address": "경상남도 마산시 합성1동 2",
    "tel": "",
    "lat": 35.274672,
    "lng": 128.524464
  },
  {
    "name": "동화마을어린이집",
    "category": "유아시설",
    "type": "유아시설",
    "address": "경상남도 함안군 칠원읍 오곡리 1-1",
    "tel": "",
    "lat": 35.274551,
    "lng": 128.52375
  },
  {
    "name": "딩동댕어린이집",
    "category": "유아시설",
    "type": "유아시설",
    "address": "경상남도 함안군 칠원읍 오곡리 113",
    "tel": "",
    "lat": 35.275972,
    "lng": 128.522585
  },
  {
    "name": "또래어린이집",
    "category": "유아시설",
    "type": "유아시설",
    "address": "null",
    "tel": "",
    "lat": 35.215335,
    "lng": 128.586031
  },
  {
    "name": "단비어린이집",
    "category": "유아시설",
    "type": "유아시설",
    "address": "경상남도 창원시 마산회원구 내서읍 삼계리 7",
    "tel": "",
    "lat": 35.229407,
    "lng": 128.503832
  },
  {
    "name": "달나라 어린이집",
    "category": "유아시설",
    "type": "유아시설",
    "address": "경상남도 창원시 마산회원구 회원동 672-19",
    "tel": "",
    "lat": 35.217233,
    "lng": 128.563986
  },
  {
    "name": "더푸른다솜어린이집",
    "category": "유아시설",
    "type": "유아시설",
    "address": "null",
    "tel": "",
    "lat": 35.235449,
    "lng": 128.503964
  },
  {
    "name": "노벨어린이집",
    "category": "유아시설",
    "type": "유아시설",
    "address": "경상남도 창원시 마산합포구 완월동 353-2",
    "tel": "",
    "lat": 35.196272,
    "lng": 128.559019
  },
  {
    "name": "다빈치 어린이집",
    "category": "유아시설",
    "type": "유아시설",
    "address": "경상남도 창원시 마산회원구 내서읍 상곡리 22",
    "tel": "",
    "lat": 35.243276,
    "lng": 128.501927
  },
  {
    "name": "대동영재 아이짐어린이집",
    "category": "유아시설",
    "type": "유아시설",
    "address": "경상남도 창원시 마산회원구 내서읍 삼계리 34",
    "tel": "",
    "lat": 35.230714,
    "lng": 128.503251
  },
  {
    "name": "대림어린이집",
    "category": "유아시설",
    "type": "유아시설",
    "address": "null",
    "tel": "",
    "lat": 35.224477,
    "lng": 128.589159
  },
  {
    "name": "녹원어린이집",
    "category": "유아시설",
    "type": "유아시설",
    "address": "경상남도 창원시 마산회원구 내서읍 중리 1073",
    "tel": "",
    "lat": 35.246721,
    "lng": 128.506185
  },
  {
    "name": "다솜어린이집",
    "category": "유아시설",
    "type": "유아시설",
    "address": "경상남도 창원시 마산회원구 내서읍 삼계리 21",
    "tel": "",
    "lat": 35.233239,
    "lng": 128.501827
  },
  {
    "name": "도담어린이집",
    "category": "유아시설",
    "type": "유아시설",
    "address": "경상남도 창원시 마산회원구 내서읍 삼계리 37",
    "tel": "",
    "lat": 35.229644,
    "lng": 128.503831
  },
  {
    "name": "누리천사어린이집",
    "category": "유아시설",
    "type": "유아시설",
    "address": "경상남도 창원시 의창구 팔용동 124-1",
    "tel": "",
    "lat": 35.255074,
    "lng": 128.614396
  },
  {
    "name": "도란도란어린이집",
    "category": "유아시설",
    "type": "유아시설",
    "address": "경상남도 창원시 의창구 북면 감계리 225-1",
    "tel": "",
    "lat": 35.302686,
    "lng": 128.582807
  },
  {
    "name": "꿈나라어린이집",
    "category": "유아시설",
    "type": "유아시설",
    "address": "null",
    "tel": "",
    "lat": 35.238609,
    "lng": 128.580622
  },
  {
    "name": "꿈동산어린이집",
    "category": "유아시설",
    "type": "유아시설",
    "address": "경상남도 함안군 칠원읍 용산리 6-2",
    "tel": "",
    "lat": 35.30708,
    "lng": 128.51903
  },
  {
    "name": "꿈드림어린이집",
    "category": "유아시설",
    "type": "유아시설",
    "address": "경상남도 함안군 칠원읍 예곡리 698",
    "tel": "",
    "lat": 35.279243,
    "lng": 128.524436
  },
  {
    "name": "꿈밭어린이집",
    "category": "유아시설",
    "type": "유아시설",
    "address": "경상남도 창원시 의창구 북면 감계리 225-1",
    "tel": "",
    "lat": 35.302686,
    "lng": 128.582807
  },
  {
    "name": "꿈밭어린이집",
    "category": "유아시설",
    "type": "유아시설",
    "address": "경상남도 창원시 성산구 남양동 210-106",
    "tel": "",
    "lat": 35.300573,
    "lng": 128.583412
  },
  {
    "name": "꿈샘아이어린이집",
    "category": "유아시설",
    "type": "유아시설",
    "address": "null",
    "tel": "",
    "lat": 35.228094,
    "lng": 128.504317
  },
  {
    "name": "꿈을키우는어린이집",
    "category": "유아시설",
    "type": "유아시설",
    "address": "null",
    "tel": "",
    "lat": 35.243045,
    "lng": 128.583246
  },
  {
    "name": "꿈쟁이어린이집",
    "category": "유아시설",
    "type": "유아시설",
    "address": "경상남도 창원시 의창구 팔용동 124-1",
    "tel": "",
    "lat": 35.255074,
    "lng": 128.614396
  },
  {
    "name": "그루터기어린이집",
    "category": "유아시설",
    "type": "유아시설",
    "address": "경상남도 창원시 마산회원구 내서읍 삼계리 1048-1",
    "tel": "",
    "lat": 35.236075,
    "lng": 128.487962
  },
  {
    "name": "꼬마오줌싸개어린이집",
    "category": "유아시설",
    "type": "유아시설",
    "address": "null",
    "tel": "",
    "lat": 35.2292,
    "lng": 128.58385
  },
  {
    "name": "꼬마요정 어린이집",
    "category": "유아시설",
    "type": "유아시설",
    "address": "경상남도 창원시 마산회원구 내서읍 호계리 80",
    "tel": "",
    "lat": 35.266235,
    "lng": 128.526292
  },
  {
    "name": "꼬마피카소어린이집",
    "category": "유아시설",
    "type": "유아시설",
    "address": "null",
    "tel": "",
    "lat": 35.233584,
    "lng": 128.584293
  },
  {
    "name": "꼬망새어린이집",
    "category": "유아시설",
    "type": "유아시설",
    "address": "경상남도 창원시 마산합포구 월영동 704-1",
    "tel": "",
    "lat": 35.174336,
    "lng": 128.557325
  },
  {
    "name": "글나기어린이집",
    "category": "유아시설",
    "type": "유아시설",
    "address": "null",
    "tel": "",
    "lat": 35.21478,
    "lng": 128.565658
  },
  {
    "name": "글로리아키즈어린이집",
    "category": "유아시설",
    "type": "유아시설",
    "address": "null",
    "tel": "",
    "lat": 35.201957,
    "lng": 128.566194
  },
  {
    "name": "글로벌창의 어린이집",
    "category": "유아시설",
    "type": "유아시설",
    "address": "경상남도 창원시 마산회원구 구암동 283-1",
    "tel": "",
    "lat": 35.251859,
    "lng": 128.592658
  },
  {
    "name": "글로벌창의숲 어린이집",
    "category": "유아시설",
    "type": "유아시설",
    "address": "경상남도 창원시 마산회원구 구암동 269-9",
    "tel": "",
    "lat": 35.253599,
    "lng": 128.596333
  },
  {
    "name": "금빛어린이집",
    "category": "유아시설",
    "type": "유아시설",
    "address": "null",
    "tel": "",
    "lat": 35.175194,
    "lng": 128.559401
  },
  {
    "name": "금솔어린이집",
    "category": "유아시설",
    "type": "유아시설",
    "address": "경상남도 창원시 마산회원구 석전동 19-19",
    "tel": "",
    "lat": 35.229359,
    "lng": 128.571841
  },
  {
    "name": "금송아지어린이집",
    "category": "유아시설",
    "type": "유아시설",
    "address": "경상남도 창원시 마산합포구 교원동 46",
    "tel": "",
    "lat": 35.213805,
    "lng": 128.569124
  },
  {
    "name": "굿맘아이어린이집",
    "category": "유아시설",
    "type": "유아시설",
    "address": "null",
    "tel": "",
    "lat": 35.229284,
    "lng": 128.577124
  },
  {
    "name": "삼정어린이집",
    "category": "유아시설",
    "type": "유아시설",
    "address": "경상남도 창원시 마산회원구 석전동 239-19",
    "tel": "",
    "lat": 35.230987,
    "lng": 128.575581
  },
  {
    "name": "상곡어린이집",
    "category": "유아시설",
    "type": "유아시설",
    "address": "경상남도 창원시 마산회원구 내서읍 상곡리 213",
    "tel": "",
    "lat": 35.2461,
    "lng": 128.499874
  },
  {
    "name": "사랑샘어린이집",
    "category": "유아시설",
    "type": "유아시설",
    "address": "경상남도 창원시 마산회원구 내서읍 삼계리 289",
    "tel": "",
    "lat": 35.22454,
    "lng": 128.50201
  },
  {
    "name": "사랑숲 어린이집",
    "category": "유아시설",
    "type": "유아시설",
    "address": "경상남도 창원시 마산합포구 해운동 38",
    "tel": "",
    "lat": 35.179205,
    "lng": 128.565507
  },
  {
    "name": "사랑어린이집",
    "category": "유아시설",
    "type": "유아시설",
    "address": "경상남도 창원시 마산회원구 내서읍 삼계리 37",
    "tel": "",
    "lat": 35.229644,
    "lng": 128.503831
  },
  {
    "name": "블루밍어린이집",
    "category": "유아시설",
    "type": "유아시설",
    "address": "경상남도 창원시 마산합포구 월포동 1-1",
    "tel": "",
    "lat": 35.192302,
    "lng": 128.56633
  },
  {
    "name": "비둘기어린이집",
    "category": "유아시설",
    "type": "유아시설",
    "address": "null",
    "tel": "",
    "lat": 35.264605,
    "lng": 128.519697
  },
  {
    "name": "빛고운어린이집",
    "category": "유아시설",
    "type": "유아시설",
    "address": "경상남도 창원시 마산합포구 창포동1가 1",
    "tel": "",
    "lat": 35.184481,
    "lng": 128.562388
  },
  {
    "name": "빛나는 진명어린이집",
    "category": "유아시설",
    "type": "유아시설",
    "address": "경상남도 창원시 마산회원구 회원동 673-1",
    "tel": "",
    "lat": 35.217994,
    "lng": 128.563809
  },
  {
    "name": "보노어린이집",
    "category": "유아시설",
    "type": "유아시설",
    "address": "null",
    "tel": "",
    "lat": 35.195753,
    "lng": 128.562207
  },
  {
    "name": "새봄어린이집",
    "category": "유아시설",
    "type": "유아시설",
    "address": "경상남도 창원시 마산회원구 양덕동 910",
    "tel": "",
    "lat": 35.226116,
    "lng": 128.575489
  },
  {
    "name": "빨주노초어린이집",
    "category": "유아시설",
    "type": "유아시설",
    "address": "경상남도 창원시 마산회원구 회원동 643-28",
    "tel": "",
    "lat": 35.218217,
    "lng": 128.561301
  },
  {
    "name": "사회복지법인금강어린이집",
    "category": "유아시설",
    "type": "유아시설",
    "address": "경상남도 창원시 마산회원구 양덕동 7-36",
    "tel": "",
    "lat": 35.23091,
    "lng": 128.582738
  },
  {
    "name": "사회복지법인마산어린이집",
    "category": "유아시설",
    "type": "유아시설",
    "address": "경상남도 창원시 마산합포구 중앙동2가 1-417",
    "tel": "",
    "lat": 35.194634,
    "lng": 128.569071
  },
  {
    "name": "보물숲어린이집",
    "category": "유아시설",
    "type": "유아시설",
    "address": "null",
    "tel": "",
    "lat": 35.264916,
    "lng": 128.529688
  },
  {
    "name": "보미어린이집",
    "category": "유아시설",
    "type": "유아시설",
    "address": "경상남도 창원시 마산합포구 월영동 614-7",
    "tel": "",
    "lat": 35.175194,
    "lng": 128.559401
  },
  {
    "name": "산들어린이집",
    "category": "유아시설",
    "type": "유아시설",
    "address": "경상남도 창원시 마산회원구 내서읍 삼계리 260",
    "tel": "",
    "lat": 35.224224,
    "lng": 128.50331
  },
  {
    "name": "사과나무어린이집",
    "category": "유아시설",
    "type": "유아시설",
    "address": "경상남도 창원시 마산회원구 내서읍 호계리 352",
    "tel": "",
    "lat": 35.255012,
    "lng": 128.518997
  },
  {
    "name": "사랑꽃 어린이집",
    "category": "유아시설",
    "type": "유아시설",
    "address": "경상남도 함안군 칠원읍 오곡리 1-1",
    "tel": "",
    "lat": 35.274551,
    "lng": 128.52375
  },
  {
    "name": "삼계한샘어린이집",
    "category": "유아시설",
    "type": "유아시설",
    "address": "경상남도 창원시 마산회원구 내서읍 삼계리 575",
    "tel": "",
    "lat": 35.230959,
    "lng": 128.497812
  },
  {
    "name": "삼계현대어린이집",
    "category": "유아시설",
    "type": "유아시설",
    "address": "경상남도 창원시 마산회원구 내서읍 삼계리 21",
    "tel": "",
    "lat": 35.233239,
    "lng": 128.501827
  },
  {
    "name": "새암어린이집",
    "category": "유아시설",
    "type": "유아시설",
    "address": "경상남도 창원시 마산합포구 월영동 614-149",
    "tel": "",
    "lat": 35.176529,
    "lng": 128.559023
  },
  {
    "name": "샘보아이어린이집",
    "category": "유아시설",
    "type": "유아시설",
    "address": "경상남도 창원시 마산회원구 합성동 167-24",
    "tel": "",
    "lat": 35.235625,
    "lng": 128.589727
  },
  {
    "name": "샘보어린이집",
    "category": "유아시설",
    "type": "유아시설",
    "address": "경상남도 창원시 마산회원구 합성동 316-41",
    "tel": "",
    "lat": 35.241685,
    "lng": 128.590125
  },
  {
    "name": "삼성창원병원 직장어린이집",
    "category": "유아시설",
    "type": "유아시설",
    "address": "경상남도 창원시 마산회원구 합성동 50",
    "tel": "",
    "lat": 35.242996,
    "lng": 128.591966
  },
  {
    "name": "샘터어린이집",
    "category": "유아시설",
    "type": "유아시설",
    "address": "null",
    "tel": "",
    "lat": 35.274551,
    "lng": 128.52375
  },
  {
    "name": "샛담꽃마리어린이집",
    "category": "유아시설",
    "type": "유아시설",
    "address": "경상남도 창원시 마산회원구 내서읍 호계리 146",
    "tel": "",
    "lat": 35.265318,
    "lng": 128.529269
  },
  {
    "name": "샛별아이어린이집",
    "category": "유아시설",
    "type": "유아시설",
    "address": "경상남도 창원시 마산합포구 자산동 299-97",
    "tel": "",
    "lat": 35.20212,
    "lng": 128.565848
  },
  {
    "name": "민들레어린이집",
    "category": "유아시설",
    "type": "유아시설",
    "address": "null",
    "tel": "",
    "lat": 35.216775,
    "lng": 128.581972
  },
  {
    "name": "벽산하늘빛어린이집",
    "category": "유아시설",
    "type": "유아시설",
    "address": "경상남도 함안군 칠원읍 오곡리 113",
    "tel": "",
    "lat": 35.275972,
    "lng": 128.522585
  },
  {
    "name": "밀알재능어린이집",
    "category": "유아시설",
    "type": "유아시설",
    "address": "null",
    "tel": "",
    "lat": 35.244665,
    "lng": 128.591707
  },
  {
    "name": "별님이꿈꾸는꼬마어린이집",
    "category": "유아시설",
    "type": "유아시설",
    "address": "경상남도 창원시 마산합포구 월남동4가 6-3",
    "tel": "",
    "lat": 35.182286,
    "lng": 128.559379
  },
  {
    "name": "목화어린이집",
    "category": "유아시설",
    "type": "유아시설",
    "address": "null",
    "tel": "",
    "lat": 35.210286,
    "lng": 128.574991
  },
  {
    "name": "바른나무어린이집",
    "category": "유아시설",
    "type": "유아시설",
    "address": "경상남도 창원시 마산합포구 월영동 738",
    "tel": "",
    "lat": 35.175988,
    "lng": 128.56482
  },
  {
    "name": "바른손어린이집",
    "category": "유아시설",
    "type": "유아시설",
    "address": "null",
    "tel": "",
    "lat": 35.255329,
    "lng": 128.594667
  },
  {
    "name": "바른아이뜰어린이집",
    "category": "유아시설",
    "type": "유아시설",
    "address": "null",
    "tel": "",
    "lat": 35.202735,
    "lng": 128.564043
  },
  {
    "name": "별똥별어린이집",
    "category": "유아시설",
    "type": "유아시설",
    "address": "null",
    "tel": "",
    "lat": 35.191907,
    "lng": 128.565847
  },
  {
    "name": "반달어린이집",
    "category": "유아시설",
    "type": "유아시설",
    "address": "null",
    "tel": "",
    "lat": 35.200264,
    "lng": 128.55836
  },
  {
    "name": "반디어린이집",
    "category": "유아시설",
    "type": "유아시설",
    "address": "경상남도 창원시 마산회원구 양덕동 888-1",
    "tel": "",
    "lat": 35.229284,
    "lng": 128.577124
  },
  {
    "name": "반짝반짝행복어린이집",
    "category": "유아시설",
    "type": "유아시설",
    "address": "경상남도 창원시 마산회원구 구암동 51-1",
    "tel": "",
    "lat": 35.246982,
    "lng": 128.594665
  },
  {
    "name": "별하어린이집",
    "category": "유아시설",
    "type": "유아시설",
    "address": "경상남도 창원시 마산회원구 양덕동 75-1",
    "tel": "",
    "lat": 35.23028,
    "lng": 128.578119
  },
  {
    "name": "문화어린이집",
    "category": "유아시설",
    "type": "유아시설",
    "address": "null",
    "tel": "",
    "lat": 35.192887,
    "lng": 128.563188
  },
  {
    "name": "밝은예은어린이집",
    "category": "유아시설",
    "type": "유아시설",
    "address": "경상남도 창원시 마산회원구 양덕동 93-35",
    "tel": "",
    "lat": 35.234417,
    "lng": 128.585095
  },
  {
    "name": "마린푸른숲어린이집",
    "category": "유아시설",
    "type": "유아시설",
    "address": "경상남도 창원시 마산합포구 오동동 322",
    "tel": "",
    "lat": 35.207033,
    "lng": 128.58336
  },
  {
    "name": "마산YWCA어린이집",
    "category": "유아시설",
    "type": "유아시설",
    "address": "경상남도 창원시 마산합포구 중앙동3가 4-190",
    "tel": "",
    "lat": 35.200244,
    "lng": 128.568511
  },
  {
    "name": "마산삼성어린이집",
    "category": "유아시설",
    "type": "유아시설",
    "address": "경상남도 창원시 마산합포구 상남동 140-38",
    "tel": "",
    "lat": 35.212337,
    "lng": 128.574696
  },
  {
    "name": "마산합포구청어린이집",
    "category": "유아시설",
    "type": "유아시설",
    "address": "경상남도 창원시 마산합포구 중앙동3가 4-227",
    "tel": "",
    "lat": 35.197225,
    "lng": 128.569213
  },
  {
    "name": "라온어린이집",
    "category": "유아시설",
    "type": "유아시설",
    "address": "경상남도 창원시 마산합포구 월포동 1-1",
    "tel": "",
    "lat": 35.192302,
    "lng": 128.56633
  },
  {
    "name": "리인어린이집",
    "category": "유아시설",
    "type": "유아시설",
    "address": "경상남도 창원시 마산합포구 산호동 646",
    "tel": "",
    "lat": 35.215676,
    "lng": 128.588371
  },
  {
    "name": "백양어린이집",
    "category": "유아시설",
    "type": "유아시설",
    "address": "경상남도 창원시 마산합포구 신흥동 7-2",
    "tel": "",
    "lat": 35.192359,
    "lng": 128.563805
  },