[
  {
    "name": "마산세관",
    "category": "관공서",
    "type": "관공서",
    "address": "경상남도 창원시 마산합포구 제2부두로 10 (신포동1가)",
    "tel": "055-248-1822",
    "lat": 35.194972,
    "lng": 128.571992
  },
  {
    "name": "마산세무서",
    "category": "관공서",
    "type": "관공서",
    "address": "경상남도 창원시 마산합포구 3·15대로 211",
    "tel": "055-240-0200",
    "lat": 35.197098,
    "lng": 128.566375
  },
  {
    "name": "창원출입국·외국인사무소",
    "category": "관공서",
    "type": "관공서",
    "address": "경상남도 창원시 마산합포구 제2부두로 30  (신포동 1가 86-1번지)  정부경남지방합동청사",
    "tel": "055-981-6000",
    "lat": 35.194352,
    "lng": 128.572823
  },
  {
    "name": "경남동부보훈지청",
    "category": "관공서",
    "type": "관공서",
    "address": "경상남도 창원시 마산합포구 제2부두로 10 (신포동1가, 정부경남지방합동청사 5층)",
    "tel": "055-981-5600",
    "lat": 35.194972,
    "lng": 128.571992
  },
  {
    "name": "마산우체국",
    "category": "관공서",
    "type": "관공서",
    "address": "(임시청사_영업과, 지원과)경상남도 창원시 마산합포구 3·15대로 148 (중앙동2가, 마산합포우체국) /(임시청사_우편물류과)경상남도 창원시 마산합포구 해안대로 234-56",
    "tel": "055-292-0044",
    "lat": 35.191812,
    "lng": 128.564639
  },
  {
    "name": "마산남성동우체국",
    "category": "관공서",
    "type": "관공서",
    "address": "경상남도 창원시 마산합포구 동서북7길 46 (남성동)",
    "tel": "055-246-7565",
    "lat": 35.203725,
    "lng": 128.575274
  },
  {
    "name": "마산상남동우체국",
    "category": "관공서",
    "type": "관공서",
    "address": "경상남도 창원시 마산합포구 북성로 96 (상남동)",
    "tel": "055-242-3311",
    "lat": 35.215718,
    "lng": 128.570679
  },
  {
    "name": "마산산호동우체국",
    "category": "관공서",
    "type": "관공서",
    "address": "경상남도 창원시 마산합포구 용마로 38 (산호동)",
    "tel": "055-241-2003",
    "lat": 35.217118,
    "lng": 128.579522
  },
  {
    "name": "마산교방주공우편취급국",
    "category": "관공서",
    "type": "관공서",
    "address": "경상남도 창원시 마산합포구 교방북2길 35-1 (교방동)",
    "tel": "055-244-2005",
    "lat": 35.216383,
    "lng": 128.563396
  },
  {
    "name": "마산동서동우편취급국",
    "category": "관공서",
    "type": "관공서",
    "address": "경상남도 창원시 마산합포구 제2부두로 17 (신포동1가, 마산만I'PARK) 상가 301동 109호",
    "tel": "055-245-5670",
    "lat": 35.198007,
    "lng": 128.573819
  },
  {
    "name": "마산합포우체국",
    "category": "관공서",
    "type": "관공서",
    "address": "경상남도 창원시 마산합포구 3·15대로 148 (중앙동2가)",
    "tel": "055-243-0124",
    "lat": 35.191485,
    "lng": 128.564453
  },
  {
    "name": "마산월영동우체국",
    "category": "관공서",
    "type": "관공서",
    "address": "경상남도 창원시 마산합포구 월영동서로 1 (해운동)",
    "tel": "055-222-2005",
    "lat": 35.17832,
    "lng": 128.559906
  },
  {
    "name": "진동우체국",
    "category": "관공서",
    "type": "관공서",
    "address": "경상남도 창원시 마산합포구 진동면 진북산업로 1",
    "tel": "055-271-2001",
    "lat": 35.116549,
    "lng": 128.487841
  },
  {
    "name": "진북우체국",
    "category": "관공서",
    "type": "관공서",
    "address": "경상남도 창원시 마산합포구 진북면 지산5길 65",
    "tel": "055-271-3004",
    "lat": 35.115277,
    "lng": 128.46823
  },
  {
    "name": "진전우체국",
    "category": "관공서",
    "type": "관공서",
    "address": "경상남도 창원시 마산합포구 진전면 대실로 145",
    "tel": "055-271-0101",
    "lat": 35.102393,
    "lng": 128.418051
  },
  {
    "name": "여항우체국",
    "category": "관공서",
    "type": "관공서",
    "address": "경상남도 창원시 마산합포구 진전면 금암길 11",
    "tel": "055-271-6001",
    "lat": 35.137231,
    "lng": 128.375118
  },
  {
    "name": "마산여항우편취급국",
    "category": "관공서",
    "type": "관공서",
    "address": "경상남도 창원시 마산합포구 진전면 금암길 11",
    "tel": "055-271-6001",
    "lat": 35.137231,
    "lng": 128.375118
  },
  {
    "name": "마산구산우편취급국",
    "category": "관공서",
    "type": "관공서",
    "address": "경남 창원시 마산합포구 구산면 구산로 509",
    "tel": "055-244-2121",
    "lat": 35.11607,
    "lng": 128.580316
  },
  {
    "name": "마산한우아파트우편취급국",
    "category": "관공서",
    "type": "관공서",
    "address": "경상남도 창원시 마산합포구 자산솔밭로 52 (자산동, 한우아파트)",
    "tel": "055-245-2002",
    "lat": 35.202183,
    "lng": 128.558881
  },
  {
    "name": "마산장군동4가우편취급국",
    "category": "관공서",
    "type": "관공서",
    "address": "경상남도 창원시 마산합포구 완월동8길 40 (장군동4가)",
    "tel": "055-243-7835",
    "lat": 35.198358,
    "lng": 128.56482
  },
  {
    "name": "마산창포동우편취급국",
    "category": "관공서",
    "type": "관공서",
    "address": "경상남도 창원시 마산합포구 문화동14길 68 (창포동2가, 창포경남아파트)",
    "tel": "055-243-1005",
    "lat": 35.183357,
    "lng": 128.561607
  },
  {
    "name": "마산가포동우편취급국",
    "category": "관공서",
    "type": "관공서",
    "address": "경상남도 창원시 마산합포구 가포해안길 35 (가포동)",
    "tel": "055-243-1287",
    "lat": 35.169242,
    "lng": 128.572438
  },
  {
    "name": "마산현동우편취급국",
    "category": "관공서",
    "type": "관공서",
    "address": "경상남도 창원시 마산합포구 현동7길 22 (현동)",
    "tel": "055-243-1287",
    "lat": 35.149204,
    "lng": 128.554202
  },
  {
    "name": "마산자산동우편취급국",
    "category": "관공서",
    "type": "관공서",
    "address": "경상남도 창원시 마산합포구 자산삼거리로 53 (자산동, 한백4차아파트)",
    "tel": "055-244-4939",
    "lat": 35.205416,
    "lng": 128.564789
  },
  {
    "name": "마산합포도서관",
    "category": "관공서",
    "type": "관공서",
    "address": "경상남도 창원시 마산합포구 월영동16길 22 (해운동)",
    "tel": "055-225-7431",
    "lat": 35.183389,
    "lng": 128.562684
  },
  {
    "name": "마산보건소",
    "category": "관공서",
    "type": "관공서",
    "address": "경상남도 창원시 마산합포구 월영동북로 15",
    "tel": "055-245-4000",
    "lat": 35.182391,
    "lng": 128.562899
  },
  {
    "name": "가포동행정복지센터",
    "category": "관공서",
    "type": "관공서",
    "address": "경상남도 창원시 마산합포구 가포해안길 33",
    "tel": "055-220-5350",
    "lat": 35.169554,
    "lng": 128.57206
  },
  {
    "name": "교방동행정복지센터",
    "category": "관공서",
    "type": "관공서",
    "address": "경상남도 창원시 마산합포구 교방동5길 18",
    "tel": "055-220-5730",
    "lat": 35.214387,
    "lng": 128.566303
  },
  {
    "name": "구산면행정복지센터",
    "category": "관공서",
    "type": "관공서",
    "address": "경상남도 창원시 마산합포구 구산면 구산로 554",
    "tel": "055-220-5010",
    "lat": 35.119699,
    "lng": 128.580806
  },
  {
    "name": "문화동행정복지센터",
    "category": "관공서",
    "type": "관공서",
    "address": "경상남도 창원시 마산합포구 문화남5길 36 (대외동)",
    "tel": "055-220-5430",
    "lat": 35.184661,
    "lng": 128.558241
  },
  {
    "name": "반월중앙동행정복지센터",
    "category": "관공서",
    "type": "관공서",
    "address": "경상남도 창원시 마산합포구 중앙남5길 45 (장군동2가)",
    "tel": "055-220-5510",
    "lat": 35.194091,
    "lng": 128.564138
  },
  {
    "name": "산호동행정복지센터",
    "category": "관공서",
    "type": "관공서",
    "address": "경상남도 창원시 마산합포구 산호남로 60",
    "tel": "055-220-5890",
    "lat": 35.216026,
    "lng": 128.585968
  },
  {
    "name": "오동동행정복지센터",
    "category": "관공서",
    "type": "관공서",
    "address": "경상남도 창원시 마산합포구 동서북4길 13",
    "tel": "055-220-5650",
    "lat": 35.204282,
    "lng": 128.573707
  },
  {
    "name": "완월동행정복지센터",
    "category": "관공서",
    "type": "관공서",
    "address": "경상남도 창원시 마산합포구 완월동11길 6 (완월동)",
    "tel": "055-220-5560",
    "lat": 35.198197,
    "lng": 128.561588
  },
  {
    "name": "월영동행정복지센터",
    "category": "관공서",
    "type": "관공서",
    "address": "경상남도 창원시 마산합포구 월영마을로 3 (월영동)",
    "tel": "055-220-5390",
    "lat": 35.174216,
    "lng": 128.558102
  },
  {
    "name": "자산동행정복지센터",
    "category": "관공서",
    "type": "관공서",
    "address": "경상남도 창원시 마산합포구 자산동5길 1",
    "tel": "055-220-5610",
    "lat": 35.205516,
    "lng": 128.565456
  },
  {
    "name": "진동면행정복지센터",
    "category": "관공서",
    "type": "관공서",
    "address": "경상남도 창원시 마산합포구 진동면 신서촌로 11",
    "tel": "055-220-5080",
    "lat": 35.115823,
    "lng": 128.484219
  },
  {
    "name": "진북면행정복지센터",
    "category": "관공서",
    "type": "관공서",
    "address": "경상남도 창원시 마산합포구 진북면 지산5길 80",
    "tel": "055-220-5160",
    "lat": 35.115503,
    "lng": 128.467433
  },
  {
    "name": "진전면행정복지센터",
    "category": "관공서",
    "type": "관공서",
    "address": "경상남도 창원시 마산합포구 진전면 대실로 155",
    "tel": "055-220-5230",
    "lat": 35.102921,
    "lng": 128.418813
  },
  {
    "name": "합포동행정복지센터",
    "category": "관공서",
    "type": "관공서",
    "address": "경상남도 창원시 마산합포구 허당로 31",
    "tel": "055-220-5850",
    "lat": 35.210942,
    "lng": 128.579296
  },
  {
    "name": "현동행정복지센터",
    "category": "관공서",
    "type": "관공서",
    "address": "경상남도 창원시 마산합포구 현동7길 27",
    "tel": "055-220-5310",
    "lat": 35.149888,
    "lng": 128.553794
  },
  {
    "name": "마산합포구청",
    "category": "관공서",
    "type": "관공서",
    "address": "경상남도 창원시 마산합포구 3·15대로 210 (중앙동3가)",
    "tel": "055-220-2114",
    "lat": 35.19696,
    "lng": 128.567892
  },
  {
    "name": "마창대교 유보라 아이비파크 102동앞 유아놀이터",
    "category": "어린이놀이시설",
    "type": "어린이놀이시설",
    "address": "경남 창원시 마산합포구 가포로 376",
    "tel": "",
    "lat": 35.159389,
    "lng": 128.57533
  },
  {
    "name": "가포지구 B1BL 마창대교유보라아이비파크 어린이놀이터",
    "category": "어린이놀이시설",
    "type": "어린이놀이시설",
    "address": "경남 창원시 마산합포구 가포로 376",
    "tel": "",
    "lat": 35.159389,
    "lng": 128.57533
  },
  {
    "name": "가포초등학교 어린이놀이시설2",
    "category": "어린이놀이시설",
    "type": "어린이놀이시설",
    "address": "경남 창원시 마산합포구 가포로 376",
    "tel": "",
    "lat": 35.159389,
    "lng": 128.57533
  },
  {
    "name": "마산애육원 놀이터",
    "category": "어린이놀이시설",
    "type": "어린이놀이시설",
    "address": "경남 창원시 마산합포구 산호남12길 10",
    "tel": "",
    "lat": 35.215776,
    "lng": 128.586275
  },
  {
    "name": "대패생각 실내놀이시설",
    "category": "어린이놀이시설",
    "type": "어린이놀이시설",
    "address": "경남 창원시 마산합포구 해안대로 43",
    "tel": "",
    "lat": 35.181182,
    "lng": 128.563197
  },
  {
    "name": "창원동백학교 어린이놀이시설",
    "category": "어린이놀이시설",
    "type": "어린이놀이시설",
    "address": "경남 창원시 마산합포구 구산면 반동길 370",
    "tel": "",
    "lat": 35.07341,
    "lng": 128.583759
  },
  {
    "name": "착한토끼 키즈카페 키즈룸 창원마산하우스",
    "category": "어린이놀이시설",
    "type": "어린이놀이시설",
    "address": "경남 창원시 마산합포구 용마로 90",
    "tel": "",
    "lat": 35.220736,
    "lng": 128.583288
  },
  {
    "name": "청기와 뼈다귀 해장국  실내놀이시설",
    "category": "어린이놀이시설",
    "type": "어린이놀이시설",
    "address": "경남 창원시 마산합포구 월영동14길 4",
    "tel": "",
    "lat": 35.181339,
    "lng": 128.56348
  },
  {
    "name": "창원현동남양휴튼아파트 어린이놀이터1(204동앞)",
    "category": "어린이놀이시설",
    "type": "어린이놀이시설",
    "address": "경남 창원시 마산합포구 현동 310",
    "tel": "",
    "lat": 35.145789,
    "lng": 128.547042
  },
  {
    "name": "창원현동남양휴튼아파트 어린이놀이터2(206동앞)",
    "category": "어린이놀이시설",
    "type": "어린이놀이시설",
    "address": "경남 창원시 마산합포구 현동 310",
    "tel": "",
    "lat": 35.145421,
    "lng": 128.547428
  },
  {
    "name": "창원현동남양휴튼아파트 어린이놀이터3(209동옆)",
    "category": "어린이놀이시설",
    "type": "어린이놀이시설",
    "address": "경남 창원시 마산합포구 현동 310",
    "tel": "",
    "lat": 35.145709,
    "lng": 128.547813
  },
  {
    "name": "창원현동남양휴튼아파트 유아놀이터(어린이집)",
    "category": "어린이놀이시설",
    "type": "어린이놀이시설",
    "address": "경남 창원시 마산합포구 현동 310",
    "tel": "",
    "lat": 35.145491,
    "lng": 128.547707
  },
  {
    "name": "창원현동남양휴튼아파트 오색나들길3(201동앞)",
    "category": "어린이놀이시설",
    "type": "어린이놀이시설",
    "address": "경남 창원시 마산합포구 현동 310",
    "tel": "",
    "lat": 35.145388,
    "lng": 128.547113
  },
  {
    "name": "창원현동남양휴튼아파트 오색나들길2(212동앞)",
    "category": "어린이놀이시설",
    "type": "어린이놀이시설",
    "address": "경남 창원시 마산합포구 현동 310",
    "tel": "",
    "lat": 35.145368,
    "lng": 128.548458
  },
  {
    "name": "자산솔밭공원",
    "category": "어린이놀이시설",
    "type": "어린이놀이시설",
    "address": "경남 창원시 마산합포구 자산서13길 30",
    "tel": "",
    "lat": 35.201432,
    "lng": 128.56119
  },
  {
    "name": "148호 어린이공원",
    "category": "어린이놀이시설",
    "type": "어린이놀이시설",
    "address": "경상남도 창원시 마산합포구 자산동5길 1 (자산동)",
    "tel": "",
    "lat": 35.205538,
    "lng": 128.565446
  },
  {
    "name": "사동어린이집 놀이터",
    "category": "어린이놀이시설",
    "type": "어린이놀이시설",
    "address": "경상남도 창원시 마산합포구 진동면 사동길 145",
    "tel": "",
    "lat": 35.120109,
    "lng": 128.479777
  },
  {
    "name": "백양어린이집 놀이터",
    "category": "어린이놀이시설",
    "type": "어린이놀이시설",
    "address": "경상남도 창원시 마산합포구 중앙남4길 9 (신흥동)",
    "tel": "",
    "lat": 35.192363,
    "lng": 128.563747
  },
  {
    "name": "월영동성아파트 어린이놀이터",
    "category": "어린이놀이시설",
    "type": "어린이놀이시설",
    "address": "경상남도 창원시 마산합포구 무학로 214 (월영동)",
    "tel": "",
    "lat": 35.189989,
    "lng": 128.556587
  },
  {
    "name": "월영한백아파트 어린이놀이터",
    "category": "어린이놀이시설",
    "type": "어린이놀이시설",
    "address": "경상남도 창원시 마산합포구 문화서2길 5 (월영동)",
    "tel": "",
    "lat": 35.186351,
    "lng": 128.552875
  },
  {
    "name": "완월대동한마음아파트 어린이놀이터",
    "category": "어린이놀이시설",
    "type": "어린이놀이시설",
    "address": "경상남도 창원시 마산합포구 중앙서1길 55 (완월동, 대동한마음아파트)",
    "tel": "",
    "lat": 35.194948,
    "lng": 128.563099
  },
  {
    "name": "중앙캐스빌아파트 어린이놀이터",
    "category": "어린이놀이시설",
    "type": "어린이놀이시설",
    "address": "경상남도 창원시 마산합포구 월영북로 66 (대창동)",
    "tel": "",
    "lat": 35.185919,
    "lng": 128.556513
  },
  {
    "name": "우방아파트 102동앞 어린이놀이터",
    "category": "어린이놀이시설",
    "type": "어린이놀이시설",
    "address": "경상남도 창원시 마산합포구 중앙동로 10 (중앙동2가, 우방아파트)",
    "tel": "",
    "lat": 35.196062,
    "lng": 128.567933
  },
  {
    "name": "우성아파트 어린이놀이터",
    "category": "어린이놀이시설",
    "type": "어린이놀이시설",
    "address": "경상남도 창원시 마산합포구 무학로 378 (자산동, 우성아파트)",
    "tel": "",
    "lat": 35.203625,
    "lng": 128.559701
  },
  {
    "name": "상남서광아파트 어린이놀이터",
    "category": "어린이놀이시설",
    "type": "어린이놀이시설",
    "address": "경상남도 창원시 마산합포구 노산북6길 22 (상남동, 상남서광아파트)",
    "tel": "",
    "lat": 35.213978,
    "lng": 128.572356
  },
  {
    "name": "우신뉴타워아파트 어린이놀이터",
    "category": "어린이놀이시설",
    "type": "어린이놀이시설",
    "address": "경상남도 창원시 마산합포구 천하장사로 87 (상남동)",
    "tel": "",
    "lat": 35.211454,
    "lng": 128.572617
  },
  {
    "name": "두산1차아파트 101동옆 놀이터",
    "category": "어린이놀이시설",
    "type": "어린이놀이시설",
    "address": "경상남도 창원시 마산합포구 월영동6길 39 (해운동, 두산1차아파트)",
    "tel": "",
    "lat": 35.178785,
    "lng": 128.562495
  },
  {
    "name": "국제비치타운 어린이놀이터",
    "category": "어린이놀이시설",
    "type": "어린이놀이시설",
    "address": "경상남도 창원시 마산합포구 합포동5길 22 (산호동)",
    "tel": "",
    "lat": 35.209589,
    "lng": 128.584674
  },
  {
    "name": "해오름아파트 어린이놀이터",
    "category": "어린이놀이시설",
    "type": "어린이놀이시설",
    "address": "경상남도 창원시 마산합포구 월영동11길 57 (해운동)",
    "tel": "",
    "lat": 35.178918,
    "lng": 128.566165
  },
  {
    "name": "청구제네스아파트 어린이놀이터(105동앞)",
    "category": "어린이놀이시설",
    "type": "어린이놀이시설",
    "address": "경상남도 창원시 마산합포구 완월남로 45 (완월동)",
    "tel": "",
    "lat": 35.197102,
    "lng": 128.557493
  },
  {
    "name": "평화리버타운 어린이놀이터",
    "category": "어린이놀이시설",
    "type": "어린이놀이시설",
    "address": "경상남도 창원시 마산합포구 월영동11길 29 (해운동)",
    "tel": "",
    "lat": 35.180164,
    "lng": 128.565521
  },
  {
    "name": "완월경남맨션 어린이놀이터",
    "category": "어린이놀이시설",
    "type": "어린이놀이시설",
    "address": "경상남도 창원시 마산합포구 장장군로 3 (완월동, 경남아파트)",
    "tel": "",
    "lat": 35.197742,
    "lng": 128.562747
  },
  {
    "name": "교방상록아파트 어린이놀이터1",
    "category": "어린이놀이시설",
    "type": "어린이놀이시설",
    "address": "경상남도 창원시 마산합포구 노산서18길 141 (교방동, 교방상록아파트)",
    "tel": "",
    "lat": 35.213995,
    "lng": 128.562887
  },
  {
    "name": "교방상록아파트 어린이놀이터2",
    "category": "어린이놀이시설",
    "type": "어린이놀이시설",
    "address": "경상남도 창원시 마산합포구 노산서18길 141 (교방동, 교방상록아파트)",
    "tel": "",
    "lat": 35.213995,
    "lng": 128.562887
  },
  {
    "name": "176호 어린이공원",
    "category": "어린이놀이시설",
    "type": "어린이놀이시설",
    "address": "경상남도 창원시 마산합포구 제2부두로 17 (신포동1가, 마산만아이파크)",
    "tel": "",
    "lat": 35.196865,
    "lng": 128.573211
  },
  {
    "name": "창원시립덕동어린이집",
    "category": "어린이놀이시설",
    "type": "어린이놀이시설",
    "address": "경상남도 창원시 마산합포구 덕동길 32 (덕동동)",
    "tel": "",
    "lat": 35.140953,
    "lng": 128.578983
  },
  {
    "name": "마산교회 실내놀이터",
    "category": "어린이놀이시설",
    "type": "어린이놀이시설",
    "address": "경남 창원시 마산합포구 장장군로 12",
    "tel": "",
    "lat": 35.196945,
    "lng": 128.562941
  },
  {
    "name": "마산만 I'PARK 어린이놀이터 1",
    "category": "어린이놀이시설",
    "type": "어린이놀이시설",
    "address": "경상남도 창원시 마산합포구 제2부두로 17 (신포동1가)",
    "tel": "",
    "lat": 35.196865,
    "lng": 128.573211
  },
  {
    "name": "마산만 I'PARK 어린이놀이터 2",
    "category": "어린이놀이시설",
    "type": "어린이놀이시설",
    "address": "경상남도 창원시 마산합포구 제2부두로 17 (신포동1가)",
    "tel": "",
    "lat": 35.196865,
    "lng": 128.573211
  },
  {
    "name": "2호 어린이공원",
    "category": "어린이놀이시설",
    "type": "어린이놀이시설",
    "address": "경상남도 창원시 마산합포구 산호북10길 5-1 (산호동)",
    "tel": "",
    "lat": 35.2161,
    "lng": 128.58599
  },
  {
    "name": "1호 어린이공원",
    "category": "어린이놀이시설",
    "type": "어린이놀이시설",
    "address": "경상남도 창원시 마산합포구 산호서4길 22 (산호동)",
    "tel": "",
    "lat": 35.217837,
    "lng": 128.578329
  },
  {
    "name": "147호 어린이공원",
    "category": "어린이놀이시설",
    "type": "어린이놀이시설",
    "address": "경상남도 창원시 마산합포구 진전면 오서3길 51",
    "tel": "",
    "lat": 35.100895,
    "lng": 128.417006
  },
  {
    "name": "68호 어린이공원",
    "category": "어린이놀이시설",
    "type": "어린이놀이시설",
    "address": "경상남도 창원시 마산합포구 진동면 신서촌4길 29",
    "tel": "",
    "lat": 35.117032,
    "lng": 128.486617
  },
  {
    "name": "204호 어린이공원",
    "category": "어린이놀이시설",
    "type": "어린이놀이시설",
    "address": "경상남도 창원시 마산합포구 진동면 문화마당길 121-46",
    "tel": "",
    "lat": 35.22718,
    "lng": 128.651914
  },
  {
    "name": "한사랑유치원 어린이놀이시설",
    "category": "어린이놀이시설",
    "type": "어린이놀이시설",
    "address": "경상남도 창원시 마산합포구 월영마을로 42 (월영동)",
    "tel": "",
    "lat": 35.170893,
    "lng": 128.557208
  },
  {
    "name": "67호 어린이공원",
    "category": "어린이놀이시설",
    "type": "어린이놀이시설",
    "address": "경상남도 창원시 마산합포구 진동면 신서촌2길 20",
    "tel": "",
    "lat": 35.118921,
    "lng": 128.486891
  },
  {
    "name": "무학산벽산블루밍2단지아파트 1놀이터",
    "category": "어린이놀이시설",
    "type": "어린이놀이시설",
    "address": "경상남도 창원시 마산합포구 노산서18길 142 (교방동)",
    "tel": "",
    "lat": 35.215343,
    "lng": 128.562491
  },
  {
    "name": "무학산벽산블루밍2단지아파트 2놀이터",
    "category": "어린이놀이시설",
    "type": "어린이놀이시설",
    "address": "경상남도 창원시 마산합포구 노산서18길 142 (교방동)",
    "tel": "",
    "lat": 35.215343,
    "lng": 128.562491
  },
  {
    "name": "무학산벽산블루밍1단지아파트 놀이터",
    "category": "어린이놀이시설",
    "type": "어린이놀이시설",
    "address": "경상남도 창원시 마산합포구 노산서18길 142 (교방동)",
    "tel": "",
    "lat": 35.215343,
    "lng": 128.562491
  },
  {
    "name": "무학산벽산블루밍2단지아파트 3놀이터",
    "category": "어린이놀이시설",
    "type": "어린이놀이시설",
    "address": "경상남도 창원시 마산합포구 노산서18길 142 (교방동)",
    "tel": "",
    "lat": 35.215343,
    "lng": 128.562491
  },
  {
    "name": "무학초등학교 어린이놀이시설(병설유치원 겸용)",
    "category": "어린이놀이시설",
    "type": "어린이놀이시설",
    "address": "경상남도 창원시 마산합포구 자산동8길 6 (자산동)",
    "tel": "",
    "lat": 35.203643,
    "lng": 128.567375
  },
  {
    "name": "완월2차서광아파트 놀이터",
    "category": "어린이놀이시설",
    "type": "어린이놀이시설",
    "address": "경상남도 창원시 마산합포구 완월남로 54 (완월동)",
    "tel": "",
    "lat": 35.198127,
    "lng": 128.556794
  },
  {
    "name": "창포경남맨션 놀이터1",
    "category": "어린이놀이시설",
    "type": "어린이놀이시설",
    "address": "경상남도 창원시 마산합포구 문화동14길 74 (창포동2가, 창포경남아파트)",
    "tel": "",
    "lat": 35.183486,
    "lng": 128.562284
  },
  {
    "name": "창포경남맨션 놀이터2",
    "category": "어린이놀이시설",
    "type": "어린이놀이시설",
    "address": "경상남도 창원시 마산합포구 문화동14길 74 (창포동2가, 창포경남아파트)",
    "tel": "",
    "lat": 35.183492,
    "lng": 128.562322
  },
  {
    "name": "현동초등학교 어린이놀이시설(병설유치원 겸용)",
    "category": "어린이놀이시설",
    "type": "어린이놀이시설",
    "address": "경상남도 창원시 마산합포구 현동6길 12 (현동)",
    "tel": "",
    "lat": 35.147017,
    "lng": 128.556426
  },
  {
    "name": "맑은숲영재스쿨어린이집 놀이터",
    "category": "어린이놀이시설",
    "type": "어린이놀이시설",
    "address": "경상남도 창원시 마산합포구 자산삼거리로 94-11 (자산동)",
    "tel": "",
    "lat": 35.207433,
    "lng": 128.564162
  },
  {
    "name": "무학자이아파트 104동 놀이터1",
    "category": "어린이놀이시설",
    "type": "어린이놀이시설",
    "address": "경상남도 창원시 마산합포구 노산서18길 19 (교원동, 무학자이아파트)",
    "tel": "",
    "lat": 35.21442,
    "lng": 128.568954
  },
  {
    "name": "무학자이아파트 106동 놀이터2",
    "category": "어린이놀이시설",
    "type": "어린이놀이시설",
    "address": "경상남도 창원시 마산합포구 노산서18길 19 (교원동, 무학자이아파트)",
    "tel": "",
    "lat": 35.21442,
    "lng": 128.568954
  },
  {
    "name": "우산초등학교 어린이놀이시설",
    "category": "어린이놀이시설",
    "type": "어린이놀이시설",
    "address": "경상남도 창원시 마산합포구 진동면 미더덕로 378",
    "tel": "",
    "lat": 35.104222,
    "lng": 128.478997
  },
  {
    "name": "월영대동아파트 놀이터",
    "category": "어린이놀이시설",
    "type": "어린이놀이시설",
    "address": "경상남도 창원시 마산합포구 월영남로 42 (월영동)",
    "tel": "",
    "lat": 35.174851,
    "lng": 128.558606
  },
  {
    "name": "완월초등학교 어린이놀이시설(병설유치원 겸용)",
    "category": "어린이놀이시설",
    "type": "어린이놀이시설",
    "address": "경상남도 창원시 마산합포구 고운로 201 (완월동)",
    "tel": "",
    "lat": 35.200341,
    "lng": 128.563173
  },
  {
    "name": "월영현대아파트 103동 놀이터(704-1)",
    "category": "어린이놀이시설",
    "type": "어린이놀이시설",
    "address": "경상남도 창원시 마산합포구 월영마을로 12 (월영동, 현대아파트)",
    "tel": "",
    "lat": 35.174488,
    "lng": 128.556819
  },
  {
    "name": "월영현대아파트 104동 놀이터(704-1)",
    "category": "어린이놀이시설",
    "type": "어린이놀이시설",
    "address": "경상남도 창원시 마산합포구 월영마을로 12 (월영동, 현대아파트)",
    "tel": "",
    "lat": 35.174488,
    "lng": 128.556819
  },
  {
    "name": "월영현대아파트 관리동 놀이터(704-1)",
    "category": "어린이놀이시설",
    "type": "어린이놀이시설",
    "address": "경상남도 창원시 마산합포구 월영마을로 12 (월영동, 현대아파트)",
    "tel": "",
    "lat": 35.174488,
    "lng": 128.556819
  },
  {
    "name": "삼성타운 놀이터",
    "category": "어린이놀이시설",
    "type": "어린이놀이시설",
    "address": "경상남도 창원시 마산합포구 산호북1길 15 (산호동, 삼성타운)",
    "tel": "",
    "lat": 35.216768,
    "lng": 128.584163
  },
  {
    "name": "마산센트럴아파트 103동앞 놀이터",
    "category": "어린이놀이시설",
    "type": "어린이놀이시설",
    "address": "경상남도 창원시 마산합포구 서성로 23 (신포동1가, 센트럴아파트)",
    "tel": "",
    "lat": 35.200083,
    "lng": 128.5699
  },
  {
    "name": "마산센트럴아파트 107동앞 놀이터",
    "category": "어린이놀이시설",
    "type": "어린이놀이시설",
    "address": "경상남도 창원시 마산합포구 서성로 23 (신포동1가, 센트럴아파트)",
    "tel": "",
    "lat": 35.200083,
    "lng": 128.5699
  },
  {
    "name": "마산YWCA어린이집 놀이터",
    "category": "어린이놀이시설",
    "type": "어린이놀이시설",
    "address": "경상남도 창원시 마산합포구 중앙북5길 20 (중앙동3가)",
    "tel": "",
    "lat": 35.200243,
    "lng": 128.568512
  },
  {
    "name": "마산센트럴아파트 105동앞 놀이터",
    "category": "어린이놀이시설",
    "type": "어린이놀이시설",
    "address": "경상남도 창원시 마산합포구 서성로 23 (신포동1가, 센트럴아파트)",
    "tel": "",
    "lat": 35.200083,
    "lng": 128.5699
  },
  {
    "name": "달빛공원(59호 어린이공원)",
    "category": "어린이놀이시설",
    "type": "어린이놀이시설",
    "address": "경상남도 창원시 마산합포구 월영마을로 42 (월영동)",
    "tel": "",
    "lat": 35.170893,
    "lng": 128.557208
  },
  {
    "name": "노벨어린이집 놀이터",
    "category": "어린이놀이시설",
    "type": "어린이놀이시설",
    "address": "경상남도 창원시 마산합포구 완월남7길 31 (완월동)",
    "tel": "",
    "lat": 35.19627,
    "lng": 128.559019
  },
  {
    "name": "우산초등학교 병설유치원 어린이놀이시설",
    "category": "어린이놀이시설",
    "type": "어린이놀이시설",
    "address": "경상남도 창원시 마산합포구 진동면 미더덕로 378",
    "tel": "",
    "lat": 35.104222,
    "lng": 128.478997
  },
  {
    "name": "월성초등학교 어린이놀이시설",
    "category": "어린이놀이시설",
    "type": "어린이놀이시설",
    "address": "경상남도 창원시 마산합포구 완월남1길 17 (완월동)",
    "tel": "",
    "lat": 35.196117,
    "lng": 128.560449
  },
  {
    "name": "세종유치원 어린이놀이시설",
    "category": "어린이놀이시설",
    "type": "어린이놀이시설",
    "address": "경상남도 창원시 마산합포구 월영동남로 3 (해운동)",
    "tel": "",
    "lat": 35.177743,
    "lng": 128.564333
  },
  {
    "name": "구산초등학교 구서분교장 어린이놀이시설",
    "category": "어린이놀이시설",
    "type": "어린이놀이시설",
    "address": "경상남도 창원시 마산합포구 구산면 해양관광로 739",
    "tel": "",
    "lat": 35.121492,
    "lng": 128.537978
  },
  {
    "name": "성호초등학교 어린이놀이시설(병설유치원겸용)",
    "category": "어린이놀이시설",
    "type": "어린이놀이시설",
    "address": "경상남도 창원시 마산합포구 성호동4길 21 (성호동)",
    "tel": "",
    "lat": 35.209343,
    "lng": 128.571362
  },
  {
    "name": "대한아파트 어린이놀이터",
    "category": "어린이놀이시설",
    "type": "어린이놀이시설",
    "address": "경상남도 창원시 마산합포구 산호북5길 26  (산호동, 대한아파트)",
    "tel": "",
    "lat": 35.219541,
    "lng": 128.585714
  },
  {
    "name": "해운현대아파트 어린이놀이터",
    "category": "어린이놀이시설",
    "type": "어린이놀이시설",
    "address": "경상남도 창원시 마산합포구 월영동11길 37  (해운동, 해운동현대아파트)",
    "tel": "",
    "lat": 35.1797,
    "lng": 128.565799
  },
  {
    "name": "신포경남맨션 어린이놀이터",
    "category": "어린이놀이시설",
    "type": "어린이놀이시설",
    "address": "경상남도 창원시 마산합포구 동서남1길 25  (신포동2가, 경남 신포맨션아파트)",
    "tel": "",
    "lat": 35.201349,
    "lng": 128.569884
  },
  {
    "name": "진전초등학교 어린이놀이시설(병설유치원겸용)",
    "category": "어린이놀이시설",
    "type": "어린이놀이시설",
    "address": "경상남도 창원시 마산합포구 진전면 팔의사로 727",
    "tel": "",
    "lat": 35.110249,
    "lng": 128.41504
  },
  {
    "name": "해운초등학교 어린이놀이시설",
    "category": "어린이놀이시설",
    "type": "어린이놀이시설",
    "address": "경상남도 창원시 마산합포구 월영남로 24 (월영동)",
    "tel": "",
    "lat": 35.176301,
    "lng": 128.557787
  },
  {
    "name": "자산아파트 어린이놀이터",
    "category": "어린이놀이시설",
    "type": "어린이놀이시설",
    "address": "경상남도 창원시 마산합포구 자산서14길 26 (자산동)",
    "tel": "",
    "lat": 35.200535,
    "lng": 128.557763
  },
  {
    "name": "산호초등학교 어린이놀이시설(병설유치원겸용)",
    "category": "어린이놀이시설",
    "type": "어린이놀이시설",
    "address": "경상남도 창원시 마산합포구 회원동북로 53 (산호동)",
    "tel": "",
    "lat": 35.219743,
    "lng": 128.579475
  },
  {
    "name": "완월화인아파트 어린이놀이터",
    "category": "어린이놀이시설",
    "type": "어린이놀이시설",
    "address": "경상남도 창원시 마산합포구 완월남8길 16 (완월동)",
    "tel": "",
    "lat": 35.195476,
    "lng": 128.558313
  },
  {
    "name": "신한토탈아파트 어린이놀이터",
    "category": "어린이놀이시설",
    "type": "어린이놀이시설",
    "address": "경상남도 창원시 마산합포구 장군천로 38  (중앙동2가, 신한토탈아파트)",
    "tel": "",
    "lat": 35.19603,
    "lng": 128.566195
  },
  {
    "name": "화인아트빌1차 어린이놀이터",
    "category": "어린이놀이시설",
    "type": "어린이놀이시설",
    "address": "경상남도 창원시 마산합포구 무학로 32  (월영동, 화인아파트)",
    "tel": "",
    "lat": 35.176246,
    "lng": 128.554986
  },
  {
    "name": "삼부햇살마루아파트 어린이놀이터",
    "category": "어린이놀이시설",
    "type": "어린이놀이시설",
    "address": "경상남도 창원시 마산합포구 고운로 47 (문화동)",
    "tel": "",
    "lat": 35.187025,
    "lng": 128.556485
  },
  {
    "name": "해운한백아파트 어린이놀이터",
    "category": "어린이놀이시설",
    "type": "어린이놀이시설",
    "address": "경상남도 창원시 마산합포구 월영동13길 14 (해운동)",
    "tel": "",
    "lat": 35.181569,
    "lng": 128.562896
  },
  {
    "name": "대림공작2차아파트 어린이놀이터",
    "category": "어린이놀이시설",
    "type": "어린이놀이시설",
    "address": "경상남도 창원시 마산합포구 자산북4길 8 (자산동)",
    "tel": "",
    "lat": 35.206658,
    "lng": 128.565579
  },
  {
    "name": "신포삼익아파트 어린이놀이터(2동앞)",
    "category": "어린이놀이시설",
    "type": "어린이놀이시설",
    "address": "경상남도 창원시 마산합포구 서성로 43  (신포동2가, 삼익아파트)",
    "tel": "",
    "lat": 35.201347,
    "lng": 128.570847
  },
  {
    "name": "신포삼익아파트 어린이놀이터(5동앞)",
    "category": "어린이놀이시설",
    "type": "어린이놀이시설",
    "address": "경상남도 창원시 마산합포구 서성로 43  (신포동2가, 삼익아파트)",
    "tel": "",
    "lat": 35.201347,
    "lng": 128.570847
  },
  {
    "name": "한일비치맨션아파트 놀이터",
    "category": "어린이놀이시설",
    "type": "어린이놀이시설",
    "address": "경상남도 창원시 마산합포구 월영동남로 22  (해운동, 한일비치맨션)",
    "tel": "",
    "lat": 35.177843,
    "lng": 128.56695
  },
  {
    "name": "서광1차아파트 어린이놀이터",
    "category": "어린이놀이시설",
    "type": "어린이놀이시설",
    "address": "경상남도 창원시 마산합포구 고운로 168 (완월동)",
    "tel": "",
    "lat": 35.19704,
    "lng": 128.562492
  },
  {
    "name": "한우아파트11,12동 어린이놀이터",
    "category": "어린이놀이시설",
    "type": "어린이놀이시설",
    "address": "경상남도 창원시 마산합포구 자산서13길 29  (자산동, 한우아파트)",
    "tel": "",
    "lat": 35.201935,
    "lng": 128.560344
  },
  {
    "name": "해운동성아파트 어린이놀이터",
    "category": "어린이놀이시설",
    "type": "어린이놀이시설",
    "address": "경상남도 창원시 마산합포구 월영동16길 17  (해운동, 해운동성아파트)",
    "tel": "",
    "lat": 35.183268,
    "lng": 128.563813
  },
  {
    "name": "창포한백아파트 놀이터",
    "category": "어린이놀이시설",
    "type": "어린이놀이시설",
    "address": "경상남도 창원시 마산합포구 문화동15길 95 (창포동1가)",
    "tel": "",
    "lat": 35.184666,
    "lng": 128.562549
  },
  {
    "name": "청구제네스아파트 어린이놀이터(103동앞)",
    "category": "어린이놀이시설",
    "type": "어린이놀이시설",
    "address": "경상남도 창원시 마산합포구 완월남로 45 (완월동)",
    "tel": "",
    "lat": 35.197102,
    "lng": 128.557493
  },
  {
    "name": "평화골든타워 어린이놀이터",
    "category": "어린이놀이시설",
    "type": "어린이놀이시설",
    "address": "경상남도 창원시 마산합포구 월영동남로 16  (해운동, 평화골든아파트)  ",
    "tel": "",
    "lat": 35.177653,
    "lng": 128.566496
  },
  {
    "name": "청운어린이집 놀이터",
    "category": "어린이놀이시설",
    "type": "어린이놀이시설",
    "address": "경상남도 창원시 마산합포구 자산북1길 40 (자산동)",
    "tel": "",
    "lat": 35.20574,
    "lng": 128.563529
  },
  {
    "name": "마산삼성어린이집 놀이터",
    "category": "어린이놀이시설",
    "type": "어린이놀이시설",
    "address": "경상남도 창원시 마산합포구 노산동5길 18 (상남동)",
    "tel": "",
    "lat": 35.2128,
    "lng": 128.5746
  },
  {
    "name": "창원시립샛별어린이집 놀이터",
    "category": "어린이놀이시설",
    "type": "어린이놀이시설",
    "address": "경상남도 창원시 마산합포구 문화남3길 33 (홍문동)",
    "tel": "",
    "lat": 35.185179,
    "lng": 128.558907
  },
  {
    "name": "새암어린이집 놀이터",
    "category": "어린이놀이시설",
    "type": "어린이놀이시설",
    "address": "경상남도 창원시 마산합포구 월영남12길 15 (월영동)",
    "tel": "",
    "lat": 35.176471,
    "lng": 128.559105
  },
  {
    "name": "파스텔어린이집 놀이터",
    "category": "어린이놀이시설",
    "type": "어린이놀이시설",
    "address": "경상남도 창원시 마산합포구 산호북2길 36 (산호동)",
    "tel": "",
    "lat": 35.217035,
    "lng": 128.585184
  },
  {
    "name": "해운어린이집 놀이터",
    "category": "어린이놀이시설",
    "type": "어린이놀이시설",
    "address": "경상남도 창원시 마산합포구 월영동10길 19 (해운동)",
    "tel": "",
    "lat": 35.180347,
    "lng": 128.564646
  },
  {
    "name": "하늘샘어린이집 놀이터",
    "category": "어린이놀이시설",
    "type": "어린이놀이시설",
    "address": "경상남도 창원시 마산합포구 합포남2길 24 (산호동)",
    "tel": "",
    "lat": 35.210075,
    "lng": 128.581919
  },
  {
    "name": "연우어린이집 놀이터",
    "category": "어린이놀이시설",
    "type": "어린이놀이시설",
    "address": "경상남도 창원시 마산합포구 회원동북로 64 (산호동)",
    "tel": "",
    "lat": 35.218443,
    "lng": 128.579533
  },
  {
    "name": "진동한일유앤아이 101동 104동 사이 놀이터",
    "category": "어린이놀이시설",
    "type": "어린이놀이시설",
    "address": "경상남도 창원시 마산합포구 진동면 진북산업로 58 (한일유앤아이아파트)",
    "tel": "",
    "lat": 35.121769,
    "lng": 128.488902
  },
  {
    "name": "진동한일유앤아이프라임아파트 108동 110동사이",
    "category": "어린이놀이시설",
    "type": "어린이놀이시설",
    "address": "경상남도 창원시 마산합포구 진동면 진북산업로 58",
    "tel": "",
    "lat": 35.115843,
    "lng": 128.48427
  },
  {
    "name": "진동한일유앤아이프라임 아파트 111동 113동 사이",
    "category": "어린이놀이시설",
    "type": "어린이놀이시설",
    "address": "경상남도 창원시 마산합포구 진동면 진북산업로 58",
    "tel": "",
    "lat": 35.115843,
    "lng": 128.48427
  },
  {
    "name": "샛별아이어린이집 놀이터",
    "category": "어린이놀이시설",
    "type": "어린이놀이시설",
    "address": "경상남도 창원시 마산합포구 자산남4길 11 (자산동)",
    "tel": "",
    "lat": 35.202393,
    "lng": 128.565807
  },
  {
    "name": "창원시립가포어린이집",
    "category": "어린이놀이시설",
    "type": "어린이놀이시설",
    "address": "경상남도 창원시 마산합포구 가포해안길 15 (가포동)",
    "tel": "",
    "lat": 35.168838,
    "lng": 128.57144
  },
  {
    "name": "창원시립구산어린이집",
    "category": "어린이놀이시설",
    "type": "어린이놀이시설",
    "address": "경상남도 창원시 마산합포구 구산면 수정1길 62-36",
    "tel": "",
    "lat": 35.119973,
    "lng": 128.582065
  },
  {
    "name": "창원시립월영어린이집",
    "category": "어린이놀이시설",
    "type": "어린이놀이시설",
    "address": "경상남도 창원시 마산합포구 월영북로 24 (대내동)",
    "tel": "",
    "lat": 35.182498,
    "lng": 128.556324
  },
  {
    "name": "마산합포구청어린이집 놀이터",
    "category": "어린이놀이시설",
    "type": "어린이놀이시설",
    "address": "경상남도 창원시 마산합포구 중앙북1길 34 (중앙동3가)",
    "tel": "",
    "lat": 35.197226,
    "lng": 128.569211
  },
  {
    "name": "창원시립추산어린이집",
    "category": "어린이놀이시설",
    "type": "어린이놀이시설",
    "address": "경상남도 창원시 마산합포구 문신길 169 (추산동, 신추산아파트)",
    "tel": "",
    "lat": 35.207076,
    "lng": 128.570228
  },
  {
    "name": "사회복지법인마산어린이집 놀이터",
    "category": "어린이놀이시설",
    "type": "어린이놀이시설",
    "address": "경상남도 창원시 마산합포구 중앙동3길 32-3 (중앙동2가)",
    "tel": "",
    "lat": 35.194575,
    "lng": 128.569055
  },
  {
    "name": "창원시립용마어린이집",
    "category": "어린이놀이시설",
    "type": "어린이놀이시설",
    "address": "경상남도 창원시 마산합포구 용마산길 47 (산호동)",
    "tel": "",
    "lat": 35.213006,
    "lng": 128.58233
  },
  {
    "name": "하북초등학교 어린이놀이시설(병설유치원 겸용)",
    "category": "어린이놀이시설",
    "type": "어린이놀이시설",
    "address": "경상남도 창원시 마산합포구 진북면 지산5길 36",
    "tel": "",
    "lat": 35.116158,
    "lng": 128.469759
  },
  {
    "name": "월포초등학교 어린이놀이시설",
    "category": "어린이놀이시설",
    "type": "어린이놀이시설",
    "address": "경상남도 창원시 마산합포구 월영북15길 35 (대내동)",
    "tel": "",
    "lat": 35.18303,
    "lng": 128.557406
  },
  {
    "name": "진동초등학교 어린이놀이시설(병설유치원 겸용)",
    "category": "어린이놀이시설",
    "type": "어린이놀이시설",
    "address": "경상남도 창원시 마산합포구 진동면 삼진의거대로 661-22",
    "tel": "",
    "lat": 35.118629,
    "lng": 128.490204
  },
  {
    "name": "월영초등학교 어린이놀이시설",
    "category": "어린이놀이시설",
    "type": "어린이놀이시설",
    "address": "경상남도 창원시 마산합포구 반월북1길 41 (장군동1가)",
    "tel": "",
    "lat": 35.191701,
    "lng": 128.562813
  },
  {
    "name": "교방초등학교 어린이놀이시설(병설유치원 겸용)",
    "category": "어린이놀이시설",
    "type": "어린이놀이시설",
    "address": "경상남도 창원시 마산합포구 교방동1길 63 (교방동)",
    "tel": "",
    "lat": 35.213426,
    "lng": 128.5651
  },
  {
    "name": "반동초등학교 어린이놀이시설",
    "category": "어린이놀이시설",
    "type": "어린이놀이시설",
    "address": "경상남도 창원시 마산합포구 구산면 해양관광로 1460-14",
    "tel": "",
    "lat": 35.087729,
    "lng": 128.584224
  },
  {
    "name": "진북성원아파트 놀이터",
    "category": "어린이놀이시설",
    "type": "어린이놀이시설",
    "address": "경상남도 창원시 마산합포구 진북면 지산2길 31 (성원아파트)",
    "tel": "",
    "lat": 35.11715,
    "lng": 128.463632
  },
  {
    "name": "한성가고파아파트",
    "category": "어린이놀이시설",
    "type": "어린이놀이시설",
    "address": "경상남도 창원시 마산합포구 반월동5길 23 (월포동)",
    "tel": "",
    "lat": 35.189522,
    "lng": 128.564296
  },
  {
    "name": "자산경남아파트",
    "category": "어린이놀이시설",
    "type": "어린이놀이시설",
    "address": "경상남도 창원시 마산합포구 자산북4길 11 (자산동, 자산경남상가아파트)",
    "tel": "",
    "lat": 35.20646,
    "lng": 128.564912
  },
  {
    "name": "아람유치원 어린이놀이시설",
    "category": "어린이놀이시설",
    "type": "어린이놀이시설",
    "address": "경상남도 창원시 마산합포구 자산서13길 49 (자산동)",
    "tel": "",
    "lat": 35.202328,
    "lng": 128.561086
  },
  {
    "name": "꿈누리공원(35호 어린이공원)",
    "category": "어린이놀이시설",
    "type": "어린이놀이시설",
    "address": "경상남도 창원시 마산합포구 무학로 428 (자산동)",
    "tel": "",
    "lat": 35.206359,
    "lng": 128.562501
  },
  {
    "name": "자산한백4차아파트 놀이터",
    "category": "어린이놀이시설",
    "type": "어린이놀이시설",
    "address": "경상남도 창원시 마산합포구 자산북3길 10 (자산동，한백4차아파트)",
    "tel": "",
    "lat": 35.205693,
    "lng": 128.564925
  },
  {
    "name": "노산어린이집 놀이터",
    "category": "어린이놀이시설",
    "type": "어린이놀이시설",
    "address": "경상남도 창원시 마산합포구 회원천남길 178 (교원동)",
    "tel": "",
    "lat": 35.215877,
    "lng": 128.569462
  },
  {
    "name": "마산상남초등학교 어린이놀이시설(병설유치원겸용)",
    "category": "어린이놀이시설",
    "type": "어린이놀이시설",
    "address": "경상남도 창원시 마산합포구 합포서13길 20 (상남동)",
    "tel": "",
    "lat": 35.212776,
    "lng": 128.577162
  },
  {
    "name": "밝은숲어린이집 놀이터",
    "category": "어린이놀이시설",
    "type": "어린이놀이시설",
    "address": "경상남도 창원시 마산합포구 진동면 신서촌로 50-9",
    "tel": "",
    "lat": 35.118873,
    "lng": 128.486102
  },
  {
    "name": "배진파크맨션 놀이터",
    "category": "어린이놀이시설",
    "type": "어린이놀이시설",
    "address": "경상남도 창원시 마산합포구 문화남4길 38, 배진파크맨션 (대외동)",
    "tel": "",
    "lat": 35.184619,
    "lng": 128.558471
  },
  {
    "name": "재능어린이집 놀이터",
    "category": "어린이놀이시설",
    "type": "어린이놀이시설",
    "address": "경상남도 창원시 마산합포구 진동면 교동3길 62",
    "tel": "",
    "lat": 35.117256,
    "lng": 128.502558
  },
  {
    "name": "새롬미리내어린이놀이터",
    "category": "어린이놀이시설",
    "type": "어린이놀이시설",
    "address": null,
    "tel": "",
    "lat": 35.197,
    "lng": 128.5724
  },
  {
    "name": "무학맨션",
    "category": "어린이놀이시설",
    "type": "어린이놀이시설",
    "address": "경상남도 창원시 마산합포구 회원천북길 545  (산호동, 무학맨션)  ",
    "tel": "",
    "lat": 35.2161,
    "lng": 128.58599
  },
  {
    "name": "혜성미아파트",
    "category": "어린이놀이시설",
    "type": "어린이놀이시설",
    "address": "경상남도 창원시 마산합포구 중앙북2길 17 (중앙동3가)",
    "tel": "",
    "lat": 35.198901,
    "lng": 128.567762
  },
  {
    "name": "한솔유치원 어린이놀이시설",
    "category": "어린이놀이시설",
    "type": "어린이놀이시설",
    "address": "경상남도 창원시 마산합포구 진동면 요장1길 110",
    "tel": "",
    "lat": 35.110709,
    "lng": 128.495085
  },
  {
    "name": "킨더가르텐어린이집 놀이터",
    "category": "어린이놀이시설",
    "type": "어린이놀이시설",
    "address": "경상남도 창원시 마산합포구 회원서10길 87-1 (교방동)",
    "tel": "",
    "lat": 35.215375,
    "lng": 128.560659
  },
  {
    "name": "용마초등학교 병설유치원 어린이놀이시설",
    "category": "어린이놀이시설",
    "type": "어린이놀이시설",
    "address": "경상남도 창원시 마산합포구 산호남로 50 (산호동)",
    "tel": "",
    "lat": 35.21578,
    "lng": 128.584416
  },
  {
    "name": "월포초등학교 병설유치원 어린이놀이시설",
    "category": "어린이놀이시설",
    "type": "어린이놀이시설",
    "address": "경상남도 창원시 마산합포구 월영북15길 35 (대내동)",
    "tel": "",
    "lat": 35.18303,
    "lng": 128.557406
  },
  {
    "name": "창포동성아파트 어린이놀이터",
    "category": "어린이놀이시설",
    "type": "어린이놀이시설",
    "address": "경상남도 창원시 마산합포구 문화동7길 23  (창포동1가, 동성아파트)",
    "tel": "",
    "lat": 35.184733,
    "lng": 128.562238
  },
  {
    "name": "반동초등학교 병설유치원 어린이놀이시설",
    "category": "어린이놀이시설",
    "type": "어린이놀이시설",
    "address": "경상남도 창원시 마산합포구 구산면 해양관광로 1460-14",
    "tel": "",
    "lat": 35.087729,
    "lng": 128.584224
  },
  {
    "name": "월영현대아파트 101동 놀이터(704-1)",
    "category": "어린이놀이시설",
    "type": "어린이놀이시설",
    "address": "경상남도 창원시 마산합포구 월영마을로 12  (월영동, 현대아파트)",
    "tel": "",
    "lat": 35.174201,
    "lng": 128.558101
  },
  {
    "name": "용마맨션 어린이놀이터",
    "category": "어린이놀이시설",
    "type": "어린이놀이시설",
    "address": "경상남도 창원시 마산합포구 산호북4길 30 (산호동)",
    "tel": "",
    "lat": 35.217914,
    "lng": 128.586935
  },
  {
    "name": "완월상강아파트 놀이터",
    "category": "어린이놀이시설",
    "type": "어린이놀이시설",
    "address": "경상남도 창원시 마산합포구 무학로 322 (완월동)",
    "tel": "",
    "lat": 35.199526,
    "lng": 128.564137
  },
  {
    "name": "창원시립진북어린이집",
    "category": "어린이놀이시설",
    "type": "어린이놀이시설",
    "address": "경상남도 창원시 마산합포구 진북면 지산1길 63-10",
    "tel": "",
    "lat": 35.115315,
    "lng": 128.465205
  },
  {
    "name": "혜창한마음비치아파트어린이놀이터",
    "category": "어린이놀이시설",
    "type": "어린이놀이시설",
    "address": "경상남도 창원시 마산합포구 진동면 요장1길 33  (혜창한마음비치)",
    "tel": "",
    "lat": 35.093,
    "lng": 128.5172
  },
  {
    "name": "구산초등학교 어린이놀이시설",
    "category": "어린이놀이시설",
    "type": "어린이놀이시설",
    "address": "경상남도 창원시 마산합포구 구산면 수정3길 8",
    "tel": "",
    "lat": 35.120459,
    "lng": 128.579199
  },
  {
    "name": "월영초등학교 병설유치원 어린이놀이시설",
    "category": "어린이놀이시설",
    "type": "어린이놀이시설",
    "address": "경상남도 창원시 마산합포구 반월북1길 41 (장군동1가)",
    "tel": "",
    "lat": 35.191701,
    "lng": 128.562813
  },
  {
    "name": "186호 어린이공원",
    "category": "어린이놀이시설",
    "type": "어린이놀이시설",
    "address": "경상남도 창원시 마산합포구 현동로 155 (현동)",
    "tel": "",
    "lat": 35.143584,
    "lng": 128.559988
  },
  {
    "name": "189호 어린이공원",
    "category": "어린이놀이시설",
    "type": "어린이놀이시설",
    "address": "경상남도 창원시 마산합포구 현동3길 8 (우산동)",
    "tel": "",
    "lat": 35.151058,
    "lng": 128.554682
  },
  {
    "name": "187호어린이공원",
    "category": "어린이놀이시설",
    "type": "어린이놀이시설",
    "address": "경상남도 창원시 마산합포구 밤밭고개로 66-321 (현동)",
    "tel": "",
    "lat": 0.0,
    "lng": 0.0
  },
  {
    "name": "대자유치원 어린이놀이시설",
    "category": "어린이놀이시설",
    "type": "어린이놀이시설",
    "address": "경상남도 창원시 마산합포구 몽고정길 50 (추산동)",
    "tel": "",
    "lat": 35.206237,
    "lng": 128.571994
  },
  {
    "name": "마산신월초등학교 어린이놀이시설",
    "category": "어린이놀이시설",
    "type": "어린이놀이시설",
    "address": "경상남도 창원시 마산합포구 월영마을로 40 (월영동)",
    "tel": "",
    "lat": 35.171126,
    "lng": 128.556625
  },
  {
    "name": "경남청사 예다움어린이집 놀이터",
    "category": "어린이놀이시설",
    "type": "어린이놀이시설",
    "address": "경상남도 창원시 마산합포구 제2부두로 10(신포동1가)",
    "tel": "",
    "lat": 35.194945,
    "lng": 128.572168
  },
  {
    "name": "동아1차아파트(107동) 어린이놀이터",
    "category": "어린이놀이시설",
    "type": "어린이놀이시설",
    "address": "경상남도 창원시 마산합포구 월영남로 43(월영동, 동아1차아파트)",
    "tel": "",
    "lat": 35.175178,
    "lng": 128.559393
  },
  {
    "name": "동아1차아파트(109동) 어린이놀이터",
    "category": "어린이놀이시설",
    "type": "어린이놀이시설",
    "address": "경상남도 창원시 마산합포구 월영남로 43(월영동, 동아1차아파트)",
    "tel": "",
    "lat": 35.175178,
    "lng": 128.559393
  },
  {
    "name": "중앙마린파이브아파트 어린이놀이시설",
    "category": "어린이놀이시설",
    "type": "어린이놀이시설",
    "address": "경상남도 창원시 마산합포구 오동동14길 67 (오동동, 중앙마린파이브아파트)",
    "tel": "",
    "lat": 35.206721,
    "lng": 128.58307
  },
  {
    "name": "전원파크맨션 어린이놀이터",
    "category": "어린이놀이시설",
    "type": "어린이놀이시설",
    "address": "경상남도 창원시 마산합포구 무학로 326 (완월동, 전원파크)",
    "tel": "",
    "lat": 35.198734,
    "lng": 128.556827
  },
  {
    "name": "중흥창원현동 101동앞 어린이놀이터",
    "category": "어린이놀이시설",
    "type": "어린이놀이시설",
    "address": "경상남도 창원시 마산합포구 현동4길 20 (현동, 창원 현동 중흥 S-클래스 프라디움)",
    "tel": "",
    "lat": 35.151713,
    "lng": 128.550839
  },
  {
    "name": "중흥창원현동 107동앞 어린이놀이터",
    "category": "어린이놀이시설",
    "type": "어린이놀이시설",
    "address": "경상남도 창원시 마산합포구 현동4길 20 (현동, 창원 현동 중흥 S-클래스 프라디움)",
    "tel": "",
    "lat": 35.151713,
    "lng": 128.550839
  },
  {
    "name": "월성초등학교 병설유치원 어린이놀이시설",
    "category": "어린이놀이시설",
    "type": "어린이놀이시설",
    "address": "경상남도 창원시 마산합포구 완월남1길 17 (완월동)",
    "tel": "",
    "lat": 35.195993,
    "lng": 128.560363
  },
  {
    "name": "중앙경동메르빌 어린이놀이터2",
    "category": "어린이놀이시설",
    "type": "어린이놀이시설",
    "address": "경상남도 창원시 마산합포구 중앙동3길 16 (중앙동2가, 경동 메르빌 2차)",
    "tel": "",
    "lat": 35.194594,
    "lng": 128.567235
  },
  {
    "name": "한백푸른마을아파트 놀이터",
    "category": "어린이놀이시설",
    "type": "어린이놀이시설",
    "address": "경상남도 창원시 마산합포구 문신길 66 (자산동, 한백푸른아파트)",
    "tel": "",
    "lat": 35.206997,
    "lng": 128.566209
  },
  {
    "name": "동아2차아파트 어린이놀이터2(207동)",
    "category": "어린이놀이시설",
    "type": "어린이놀이시설",
    "address": "경상남도 창원시 마산합포구 월영마을로 29 (월영동, 2차동아아파트)",
    "tel": "",
    "lat": 35.172141,
    "lng": 128.559739
  },
  {
    "name": "동아2차아파트 어린이놀이터3(208동)",
    "category": "어린이놀이시설",
    "type": "어린이놀이시설",
    "address": "경상남도 창원시 마산합포구 월영마을로 29 (월영동, 2차동아아파트)",
    "tel": "",
    "lat": 35.172141,
    "lng": 128.559739
  },
  {
    "name": "동아2차아파트 어린이놀이터4(212동)",
    "category": "어린이놀이시설",
    "type": "어린이놀이시설",
    "address": "경상남도 창원시 마산합포구 월영마을로 29 (월영동, 2차동아아파트)",
    "tel": "",
    "lat": 35.172141,
    "lng": 128.559739
  },
  {
    "name": "자연숲어린이집 놀이시설",
    "category": "어린이놀이시설",
    "type": "어린이놀이시설",
    "address": "경상남도 창원시 마산합포구 완월남7길 32 (완월동)",
    "tel": "",
    "lat": 35.196236,
    "lng": 128.558824
  },
  {
    "name": "진동 협성아파트 유아놀이터",
    "category": "어린이놀이시설",
    "type": "어린이놀이시설",
    "address": "경상남도 창원시 마산합포구 진동면 진북산업로 55 (협성 엠파이어아파트)",
    "tel": "",
    "lat": 35.120192,
    "lng": 128.486824
  },
  {
    "name": "진동 협성아파트 창의놀이터",
    "category": "어린이놀이시설",
    "type": "어린이놀이시설",
    "address": "경상남도 창원시 마산합포구 진동면 진북산업로 55 (협성 엠파이어아파트)",
    "tel": "",
    "lat": 35.120192,
    "lng": 128.486824
  },
  {
    "name": "진동 협성아파트 숲 놀이터",
    "category": "어린이놀이시설",
    "type": "어린이놀이시설",
    "address": "경상남도 창원시 마산합포구 진동면 진북산업로 55 (협성 엠파이어아파트)",
    "tel": "",
    "lat": 35.120192,
    "lng": 128.486824
  },
  {
    "name": "월영2차현대아파트 놀이터-1",
    "category": "어린이놀이시설",
    "type": "어린이놀이시설",
    "address": "경상남도 창원시 마산합포구 월영마을로 52 (월영동, 2차현대아파트)",
    "tel": "",
    "lat": 35.171278,
    "lng": 128.558143
  },
  {
    "name": "월영2차현대아파트 놀이터-2",
    "category": "어린이놀이시설",
    "type": "어린이놀이시설",
    "address": "경상남도 창원시 마산합포구 월영마을로 52 (월영동, 2차현대아파트)",
    "tel": "",
    "lat": 35.171278,
    "lng": 128.558143
  },
  {
    "name": "월영2차현대아파트 놀이터-3",
    "category": "어린이놀이시설",
    "type": "어린이놀이시설",
    "address": "경상남도 창원시 마산합포구 월영마을로 52 (월영동, 2차현대아파트)",
    "tel": "",
    "lat": 35.171278,
    "lng": 128.558143
  },
  {
    "name": "평화골든맨션 놀이터",
    "category": "어린이놀이시설",
    "type": "어린이놀이시설",
    "address": "경상남도 창원시 마산합포구 자산삼거리로 61 (자산동, 평화골든맨션)",
    "tel": "",
    "lat": 35.206063,
    "lng": 128.565279
  },
  {
    "name": "우방아파트 101동앞 어린이놀이터",
    "category": "어린이놀이시설",
    "type": "어린이놀이시설",
    "address": "경상남도 창원시 마산합포구 중앙동로 10 (중앙동2가, 우방아파트)",
    "tel": "",
    "lat": 35.196062,
    "lng": 128.567933
  },
  {
    "name": "현동LH아파트 그린품애605동",
    "category": "어린이놀이시설",
    "type": "어린이놀이시설",
    "address": "경상남도 창원시 마산합포구 묘촌1길 28 (현동, 엘에이치그린품애)",
    "tel": "",
    "lat": 35.141492,
    "lng": 128.558417
  },
  {
    "name": "현동LH아파트그린품애 607동",
    "category": "어린이놀이시설",
    "type": "어린이놀이시설",
    "address": "경상남도 창원시 마산합포구 묘촌1길 28 (현동, 엘에이치그린품애)",
    "tel": "",
    "lat": 35.141492,
    "lng": 128.558417
  },
  {
    "name": "현동LH아파트 그린품애 612동",
    "category": "어린이놀이시설",
    "type": "어린이놀이시설",
    "address": "경상남도 창원시 마산합포구 묘촌1길 28 (현동, 엘에이치그린품애)",
    "tel": "",
    "lat": 35.141492,
    "lng": 128.558417
  },
  {
    "name": "현동LH아파트 그린품애 보육시설 놀이터",
    "category": "어린이놀이시설",
    "type": "어린이놀이시설",
    "address": "경상남도 창원시 마산합포구 묘촌1길 28 (현동, 엘에이치그린품애)",
    "tel": "",
    "lat": 35.141492,
    "lng": 128.558417
  },
  {
    "name": "188호 어린이공원",
    "category": "어린이놀이시설",
    "type": "어린이놀이시설",
    "address": "경상남도 창원시 마산합포구 현동6길 12 (현동)",
    "tel": "",
    "lat": 35.147017,
    "lng": 128.556426
  },
  {
    "name": "무학빌라아파트 놀이터",
    "category": "어린이놀이시설",
    "type": "어린이놀이시설",
    "address": "경상남도 창원시 마산합포구 고운로 10 (두월동2가, 무학빌라)",
    "tel": "",
    "lat": 35.186451,
    "lng": 128.559638
  },
  {
    "name": "밥무로고기무로 실내놀이터",
    "category": "어린이놀이시설",
    "type": "어린이놀이시설",
    "address": "경상남도 창원시 마산합포구 가포로 699 (덕동동)",
    "tel": "",
    "lat": 35.139253,
    "lng": 128.574827
  },
  {
    "name": "창원현동LH아파트 104동 옆 놀이시설",
    "category": "어린이놀이시설",
    "type": "어린이놀이시설",
    "address": "경상남도 창원시 마산합포구 현동3길 1 (우산동, 창원현동엘에이치아파트)",
    "tel": "",
    "lat": 35.152915,
    "lng": 128.555129
  },
  {
    "name": "창원현동LH아파트 102동 옆 놀이시설",
    "category": "어린이놀이시설",
    "type": "어린이놀이시설",
    "address": "경상남도 창원시 마산합포구 현동3길 1 (우산동, 창원현동엘에이치아파트)",
    "tel": "",
    "lat": 35.152915,
    "lng": 128.555129
  },
  {
    "name": "창원현동LH아파트 101동 옆 놀이시설",
    "category": "어린이놀이시설",
    "type": "어린이놀이시설",
    "address": "경상남도 창원시 마산합포구 현동3길 1 (우산동, 창원현동엘에이치아파트)",
    "tel": "",
    "lat": 35.152915,
    "lng": 128.555129
  },
  {
    "name": "창원현동LH아파트 107동 옆 놀이시설",
    "category": "어린이놀이시설",
    "type": "어린이놀이시설",
    "address": "경상남도 창원시 마산합포구 현동3길 1 (우산동, 창원현동엘에이치아파트)",
    "tel": "",
    "lat": 35.152915,
    "lng": 128.555129
  },
  {
    "name": "중흥S-클래스 2차 프라디움 숲속마을 어린이놀이터",
    "category": "어린이놀이시설",
    "type": "어린이놀이시설",
    "address": "경상남도 창원시 마산합포구 현동9길 14 (현동, 중흥에스클래스 2차)",
    "tel": "",
    "lat": 35.144804,
    "lng": 128.555586
  },
  {
    "name": "산호베스티움 아파트 어린이놀이터",
    "category": "어린이놀이시설",
    "type": "어린이놀이시설",
    "address": null,
    "tel": "",
    "lat": 35.2161,
    "lng": 128.58599
  },
  {
    "name": "신화하니엘아파트 102동 103동 사이 놀이시설",
    "category": "어린이놀이시설",
    "type": "어린이놀이시설",
    "address": null,
    "tel": "",
    "lat": 35.0911,
    "lng": 128.4916
  },
  {
    "name": "정가대박집 신포점",
    "category": "어린이놀이시설",
    "type": "어린이놀이시설",
    "address": "경상남도 창원시 마산합포구 해안대로 281 (신포동1가)",
    "tel": "",
    "lat": 35.198875,
    "lng": 128.572411
  },
  {
    "name": "부영아파트 201동 옆 놀이시설",
    "category": "어린이놀이시설",
    "type": "어린이놀이시설",
    "address": "경상남도 창원시 마산합포구 가포로 154-11 (월영동, 마산가포부영아파트)",
    "tel": "",
    "lat": 35.170423,
    "lng": 128.561177
  },
  {
    "name": "부영아파트 204동 옆 놀이시설",
    "category": "어린이놀이시설",
    "type": "어린이놀이시설",
    "address": "경상남도 창원시 마산합포구 가포로 154-11 (월영동, 마산가포부영아파트)",
    "tel": "",
    "lat": 35.170423,
    "lng": 128.561177
  },
  {
    "name": "부영아파트 209동 옆 놀이시설",
    "category": "어린이놀이시설",
    "type": "어린이놀이시설",
    "address": "경상남도 창원시 마산합포구 가포로 154-11 (월영동, 마산가포부영아파트)",
    "tel": "",
    "lat": 35.170423,
    "lng": 128.561177
  },
  {
    "name": "토반식당",
    "category": "어린이놀이시설",
    "type": "어린이놀이시설",
    "address": "경상남도 창원시 마산합포구 가포신항북로 20 (가포동)",
    "tel": "",
    "lat": 35.168464,
    "lng": 128.574813
  },
  {
    "name": "현동세종유치원 어린이놀이시설",
    "category": "어린이놀이시설",
    "type": "어린이놀이시설",
    "address": "경상남도 창원시 마산합포구 현동5길 31 (현동)",
    "tel": "",
    "lat": 35.148477,
    "lng": 128.551593
  },
  {
    "name": "덴소코리아 직장어린이집 놀이터",
    "category": "어린이놀이시설",
    "type": "어린이놀이시설",
    "address": null,
    "tel": "",
    "lat": 35.149898,
    "lng": 128.553791
  },
  {
    "name": "양촌권역 활성화센터 내 어린이놀이시설",
    "category": "어린이놀이시설",
    "type": "어린이놀이시설",
    "address": null,
    "tel": "",
    "lat": 35.136288,
    "lng": 128.375255
  },
  {
    "name": "창원현동3차S-3BL중흥S-클래스 프라디움 어링이놀이터1(102동,103동사이)",
    "category": "어린이놀이시설",
    "type": "어린이놀이시설",
    "address": null,
    "tel": "",
    "lat": 35.148741,
    "lng": 128.560067
  },
  {
    "name": "창원중흥3차S-2BL 중흥S클래스프라디움 어린이놀이터2(108동,109동 앞)",
    "category": "어린이놀이시설",
    "type": "어린이놀이시설",
    "address": null,
    "tel": "",
    "lat": 35.148884,
    "lng": 128.560088
  },
  {
    "name": "창원중흥3차S-2BL 중흥S클래스프라디움 어린이놀이터3(113동,114동 사이)",
    "category": "어린이놀이시설",
    "type": "어린이놀이시설",
    "address": null,
    "tel": "",
    "lat": 35.149059,
    "lng": 128.560153
  },
  {
    "name": "창원중흥3차S-2BL 중흥S클래스프라디움 유아놀이터(보육시설 앞)",
    "category": "어린이놀이시설",
    "type": "어린이놀이시설",
    "address": null,
    "tel": "",
    "lat": 35.148951,
    "lng": 128.56055
  },
  {
    "name": "예솔어린이집 옥상놀이터",
    "category": "어린이놀이시설",
    "type": "어린이놀이시설",
    "address": "경상남도 창원시 마산합포구 월영동13길 7 (해운동)",
    "tel": "",
    "lat": 35.181155,
    "lng": 128.562567
  },
  {
    "name": "한우아파트 1동 옆 놀이시설",
    "category": "어린이놀이시설",
    "type": "어린이놀이시설",
    "address": "경상남도 창원시 마산합포구 자산서11길 1 (자산동, 한우아파트)",
    "tel": "",
    "lat": 35.201777,
    "lng": 128.559163
  },
  {
    "name": "대박집",
    "category": "어린이놀이시설",
    "type": "어린이놀이시설",
    "address": "경상남도 창원시 마산합포구 합포로 250 (산호동, 선프라자)",
    "tel": "",
    "lat": 35.219477,
    "lng": 128.587341
  },
  {
    "name": "월영 SK Ocean VIEW 아파트 101동 인근놀이시설",
    "category": "어린이놀이시설",
    "type": "어린이놀이시설",
    "address": "경상남도 창원시 마산합포구 월영남12길 12 (월영동, 주공아파트)",
    "tel": "",
    "lat": 35.175978,
    "lng": 128.560733
  },
  {
    "name": "월영 SK Ocean VIEW 아파트 104동 인근놀이시설",
    "category": "어린이놀이시설",
    "type": "어린이놀이시설",
    "address": "경상남도 창원시 마산합포구 월영남12길 12 (월영동, 주공아파트)",
    "tel": "",
    "lat": 35.175978,
    "lng": 128.560733
  },
  {
    "name": "월영 SK Ocean VIEW 아파트 103동 앞 유아놀이시설",
    "category": "어린이놀이시설",
    "type": "어린이놀이시설",
    "address": "경상남도 창원시 마산합포구 월영남12길 12 (월영동, 주공아파트)",
    "tel": "",
    "lat": 35.175978,
    "lng": 128.560733
  },
  {
    "name": "합포초등학교 병설유치원 어린이놀이시설",
    "category": "어린이놀이시설",
    "type": "어린이놀이시설",
    "address": "경상남도 창원시 마산합포구 허당로 73 (산호동)",
    "tel": "",
    "lat": 35.21235,
    "lng": 128.584036
  },
  {
    "name": "노벨어린이집 옥상 놀이터1",
    "category": "어린이놀이시설",
    "type": "어린이놀이시설",
    "address": "경상남도 창원시 마산합포구 완월남7길 31 (완월동)",
    "tel": "",
    "lat": 35.19627,
    "lng": 128.559019
  },
  {
    "name": "노벨어린이집 옥상놀이터2",
    "category": "어린이놀이시설",
    "type": "어린이놀이시설",
    "address": "경상남도 창원시 마산합포구 완월남7길 31 (완월동)",
    "tel": "",
    "lat": 35.19627,
    "lng": 128.559019
  },
  {
    "name": "현동숲유치원 어린이놀이시설",
    "category": "어린이놀이시설",
    "type": "어린이놀이시설",
    "address": "경상남도 창원시 마산합포구 현동9길 22 (현동)",
    "tel": "",
    "lat": 35.143939,
    "lng": 128.556962
  },
  {
    "name": "감자꽃피는감자탕",
    "category": "어린이놀이시설",
    "type": "어린이놀이시설",
    "address": "경상남도 창원시 마산합포구 현동로 111 (현동)",
    "tel": "",
    "lat": 35.146876,
    "lng": 128.558147
  },
  {
    "name": "창원산호경동리인아파트 101동 놀이터",
    "category": "어린이놀이시설",
    "type": "어린이놀이시설",
    "address": "경상남도 창원시 마산합포구 산호동로 12 (산호동, 산호경동리인1단지아파트)[*미고시]",
    "tel": "",
    "lat": 35.215787,
    "lng": 128.588849
  },
  {
    "name": "창원산호경동리인아파트 103동 놀이터",
    "category": "어린이놀이시설",
    "type": "어린이놀이시설",
    "address": "경상남도 창원시 마산합포구 산호동로 12 (산호동, 산호경동리인1단지아파트)[*미고시]",
    "tel": "",
    "lat": 35.215787,
    "lng": 128.588849
  },
  {
    "name": "창원산호경동리인아파트 201동 놀이터",
    "category": "어린이놀이시설",
    "type": "어린이놀이시설",
    "address": "경상남도 창원시 마산합포구 산호동로 12 (산호동, 산호경동리인1단지아파트)[*미고시]",
    "tel": "",
    "lat": 35.215787,
    "lng": 128.588849
  },
  {
    "name": "월영마린애시앙 어린이놀이터",
    "category": "어린이놀이시설",
    "type": "어린이놀이시설",
    "address": "경상남도 창원시 마산합포구 월영동",
    "tel": "",
    "lat": 35.174341,
    "lng": 128.565075
  },
  {
    "name": "월영마린애시앙 어린이놀이터4(128~131사이)",
    "category": "어린이놀이시설",
    "type": "어린이놀이시설",
    "address": "경상남도 창원시 마산합포구 월영동",
    "tel": "",
    "lat": 35.174113,
    "lng": 128.565096
  },
  {
    "name": "월영마린애시앙 어린이놀이터5(131~134사이)",
    "category": "어린이놀이시설",
    "type": "어린이놀이시설",
    "address": "경상남도 창원시 마산합포구 월영동",
    "tel": "",
    "lat": 35.174236,
    "lng": 128.565096
  },
  {
    "name": "현동코오롱하늘채 103동 놀이터",
    "category": "어린이놀이시설",
    "type": "어린이놀이시설",
    "address": null,
    "tel": "",
    "lat": 35.149898,
    "lng": 128.553791
  },
  {
    "name": "현동코오롱하늘채 104동 놀이터",
    "category": "어린이놀이시설",
    "type": "어린이놀이시설",
    "address": null,
    "tel": "",
    "lat": 35.149898,
    "lng": 128.553791
  },
  {
    "name": "현동코오롱하늘채 105동 놀이터",
    "category": "어린이놀이시설",
    "type": "어린이놀이시설",
    "address": null,
    "tel": "",
    "lat": 35.149898,
    "lng": 128.553791
  },
  {
    "name": "월영마린애시앙 물놀이가든(103동 뒤)",
    "category": "어린이놀이시설",
    "type": "어린이놀이시설",
    "address": "경상남도 창원시 마산합포구 월영동",
    "tel": "",
    "lat": 35.174398,
    "lng": 128.56507
  },
  {
    "name": "월영마린애시앙 105동 앞 어린이놀이터1",
    "category": "어린이놀이시설",
    "type": "어린이놀이시설",
    "address": "경상남도 창원시 마산합포구 월영동",
    "tel": "",
    "lat": 35.174306,
    "lng": 128.564968
  },
  {
    "name": "월영마린애시앙 114동 앞 어린이놀이터2",
    "category": "어린이놀이시설",
    "type": "어린이놀이시설",
    "address": "경상남도 창원시 마산합포구 월영동",
    "tel": "",
    "lat": 35.174358,
    "lng": 128.565053
  },
  {
    "name": "자연숲어린이집 놀이시설(옥상)",
    "category": "어린이놀이시설",
    "type": "어린이놀이시설",
    "address": "경상남도 창원시 마산합포구 완월남7길 32 (완월동)",
    "tel": "",
    "lat": 35.196233,
    "lng": 128.558831
  },
  {
    "name": "178호 어린이공원",
    "category": "어린이놀이시설",
    "type": "어린이놀이시설",
    "address": null,
    "tel": "",
    "lat": 35.171714,
    "lng": 128.562686
  },
  {
    "name": "63호 어린이공원",
    "category": "어린이놀이시설",
    "type": "어린이놀이시설",
    "address": null,
    "tel": "",
    "lat": 35.173198,
    "lng": 128.560199
  },
  {
    "name": "등뼈감자탕산호점",
    "category": "어린이놀이시설",
    "type": "어린이놀이시설",
    "address": "경상남도 창원시 마산합포구 용마로 90 (산호동)",
    "tel": "",
    "lat": 35.220736,
    "lng": 128.583288
  },
  {
    "name": "현동근린공원 유아숲체험원",
    "category": "어린이놀이시설",
    "type": "어린이놀이시설",
    "address": "경상남도 창원시 마산합포구 현동8길 14 (현동)",
    "tel": "",
    "lat": 35.146969,
    "lng": 128.555485
  },
  {
    "name": "한우아파트 3,5,6동 어린이놀이터",
    "category": "어린이놀이시설",
    "type": "어린이놀이시설",
    "address": "경상남도 창원시 마산합포구 자산서13길 17 (자산동)",
    "tel": "",
    "lat": 35.201637,
    "lng": 128.560042
  },
  {
    "name": "창포경민아파트 뒤편 주차장 옆 놀이시설",
    "category": "어린이놀이시설",
    "type": "어린이놀이시설",
    "address": null,
    "tel": "",
    "lat": 35.18218,
    "lng": 128.561329
  },
  {
    "name": "월영마린애시앙 커뮤니티 키즈룸",
    "category": "어린이놀이시설",
    "type": "어린이놀이시설",
    "address": "경상남도 창원시 마산합포구 월영동",
    "tel": "",
    "lat": 35.174288,
    "lng": 128.565161
  },
  {
    "name": "꽃돼지삼형제",
    "category": "어린이놀이시설",
    "type": "어린이놀이시설",
    "address": "경상남도 창원시 마산합포구 진동면 신서촌2길 10-27",
    "tel": "",
    "lat": 35.118963,
    "lng": 128.487285
  },
  {
    "name": "창원롯데캐슬프리미어아파트 101동 어린이놀이터",
    "category": "어린이놀이시설",
    "type": "어린이놀이시설",
    "address": "경상남도 창원시 마산합포구 노산서18길 80 (교방동)",
    "tel": "",
    "lat": 35.215822,
    "lng": 128.56561
  },
  {
    "name": "창원롯데캐슬프리미어아파트 103동 어린이놀이터",
    "category": "어린이놀이시설",
    "type": "어린이놀이시설",
    "address": "경상남도 창원시 마산합포구 노산서18길 80 (교방동)",
    "tel": "",
    "lat": 35.215822,
    "lng": 128.56561
  },
  {
    "name": "창원롯데캐슬프리미어아파트 111동 어린이놀이터",
    "category": "어린이놀이시설",
    "type": "어린이놀이시설",
    "address": "경상남도 창원시 마산합포구 노산서18길 80 (교방동)",
    "tel": "",
    "lat": 35.215822,
    "lng": 128.56561
  },
  {
    "name": "창원롯데캐슬프리미어아파트 보육시설옆 유아놀이터",
    "category": "어린이놀이시설",
    "type": "어린이놀이시설",
    "address": "경상남도 창원시 마산합포구 노산서18길 80 (교방동)",
    "tel": "",
    "lat": 35.215822,
    "lng": 128.56561
  },
  {
    "name": "225호 어린이공원",
    "category": "어린이놀이시설",
    "type": "어린이놀이시설",
    "address": null,
    "tel": "",
    "lat": 35.169568,
    "lng": 128.57205
  },
  {
    "name": "어린이물놀이시설(현동근린공원 내)",
    "category": "어린이놀이시설",
    "type": "어린이놀이시설",
    "address": null,
    "tel": "",
    "lat": 35.149898,
    "lng": 128.553791
  },
  {
    "name": "창원가포LH아파트 1단지 103동 앞 어린이놀이터1",
    "category": "어린이놀이시설",
    "type": "어린이놀이시설",
    "address": "경상남도 창원시 마산합포구 가포본동5길 37 (가포동, 창원가포 엘에이치아파트 1단지)",
    "tel": "",
    "lat": 35.152028,
    "lng": 128.584908
  },
  {
    "name": "창원가포LH아파트 1단지 101동 앞 어린이놀이터2",
    "category": "어린이놀이시설",
    "type": "어린이놀이시설",
    "address": "경상남도 창원시 마산합포구 가포본동5길 37 (가포동, 창원가포 엘에이치아파트 1단지)",
    "tel": "",
    "lat": 35.158537,
    "lng": 128.583836
  },
  {
    "name": "창원가포LH아파트 1단지 105동 옆 유아용놀이터",
    "category": "어린이놀이시설",
    "type": "어린이놀이시설",
    "address": "경상남도 창원시 마산합포구 가포본동5길 37 (가포동, 창원가포 엘에이치아파트 1단지)",
    "tel": "",
    "lat": 35.158537,
    "lng": 128.583836
  },
  {
    "name": "용마초등학교 어린이놀이시설",
    "category": "어린이놀이시설",
    "type": "어린이놀이시설",
    "address": "경상남도 창원시 마산합포구 산호남로 50 (산호동)",
    "tel": "",
    "lat": 35.215745,
    "lng": 128.584567
  },
  {
    "name": "월영마크리움",
    "category": "어린이놀이시설",
    "type": "어린이놀이시설",
    "address": "경상남도 창원시 마산합포구 3·15대로 9 (월남동5가)",
    "tel": "",
    "lat": 35.181297,
    "lng": 128.558248
  },
  {
    "name": "참누리공원(62호 어린이공원)",
    "category": "어린이놀이시설",
    "type": "어린이놀이시설",
    "address": "경상남도 창원시 마산합포구 가포로 63 (해운동)",
    "tel": "",
    "lat": 35.177849,
    "lng": 128.563758
  },
  {
    "name": "처가집양념치킨 진동점",
    "category": "어린이놀이시설",
    "type": "어린이놀이시설",
    "address": "경상남도 창원시 마산합포구 진동면 신서촌2길 34",
    "tel": "",
    "lat": 35.119538,
    "lng": 128.487157
  },
  {
    "name": "추산공원 유아숲체험원",
    "category": "어린이놀이시설",
    "type": "어린이놀이시설",
    "address": "경상남도 창원시 마산합포구 자산동9길 69-17 (추산동)",
    "tel": "",
    "lat": 35.203512,
    "lng": 128.568784
  },
  {
    "name": "창원 칸타빌 오션뷰 어린이놀이터",
    "category": "어린이놀이시설",
    "type": "어린이놀이시설",
    "address": null,
    "tel": "",
    "lat": 35.21125,
    "lng": 128.585705
  },
  {
    "name": "창원가포S-1BL 어린이놀이터1(102동 옆)",
    "category": "어린이놀이시설",
    "type": "어린이놀이시설",
    "address": null,
    "tel": "",
    "lat": 35.155852,
    "lng": 128.578251
  },
  {
    "name": "창원가포S-1BL 어린이놀이터2(108동 앞)",
    "category": "어린이놀이시설",
    "type": "어린이놀이시설",
    "address": null,
    "tel": "",
    "lat": 35.156293,
    "lng": 128.578784
  },
  {
    "name": "창원가포S-1BL 어린이놀이터3(103동 옆)",
    "category": "어린이놀이시설",
    "type": "어린이놀이시설",
    "address": null,
    "tel": "",
    "lat": 35.155231,
    "lng": 128.578258
  },
  {
    "name": "창원가포S-1BL 유아놀이터1(어린이놀이터3 옆)",
    "category": "어린이놀이시설",
    "type": "어린이놀이시설",
    "address": null,
    "tel": "",
    "lat": 35.155775,
    "lng": 128.578773
  },
  {
    "name": "창원가포S-1BL 유아놀이터2(유치원 앞)",
    "category": "어린이놀이시설",
    "type": "어린이놀이시설",
    "address": null,
    "tel": "",
    "lat": 35.155718,
    "lng": 128.578534
  },
  {
    "name": "백양어린이집 놀이시설(옥상)",
    "category": "어린이놀이시설",
    "type": "어린이놀이시설",
    "address": "경상남도 창원시 마산합포구 중앙남4길 9 (신흥동)",
    "tel": "",
    "lat": 35.192357,
    "lng": 128.563752
  },
  {
    "name": "예능어린이집",
    "category": "어린이놀이시설",
    "type": "어린이놀이시설",
    "address": "경상남도 창원시 마산합포구 문화남2길 17 (홍문동)",
    "tel": "",
    "lat": 35.18332,
    "lng": 128.558774
  },
  {
    "name": "신광교회 실내어린이놀이시설(드림팡팡)",
    "category": "어린이놀이시설",
    "type": "어린이놀이시설",
    "address": "경상남도 창원시 마산합포구 문화남2길 25 (홍문동)",
    "tel": "",
    "lat": 35.18351,
    "lng": 128.558911
  },
  {
    "name": "만날공원 사랑의 숲",
    "category": "어린이놀이시설",
    "type": "어린이놀이시설",
    "address": null,
    "tel": "",
    "lat": 35.174201,
    "lng": 128.558101
  },
  {
    "name": "잼팍창원마산점",
    "category": "어린이놀이시설",
    "type": "어린이놀이시설",
    "address": null,
    "tel": "",
    "lat": 35.18215,
    "lng": 128.563755
  },
  {
    "name": "꾸꾸원정대",
    "category": "어린이놀이시설",
    "type": "어린이놀이시설",
    "address": "경상남도 창원시 마산합포구 현동",
    "tel": "",
    "lat": 35.149898,
    "lng": 128.553791
  },
  {
    "name": "창원가포 안단테아파트 202동 앞 어린이놀이터1",
    "category": "어린이놀이시설",
    "type": "어린이놀이시설",
    "address": null,
    "tel": "",
    "lat": 35.157517,
    "lng": 128.582242
  },
  {
    "name": "창원가포 안단테아파트 203동 앞 어린이놀이터2",
    "category": "어린이놀이시설",
    "type": "어린이놀이시설",
    "address": null,
    "tel": "",
    "lat": 35.157532,
    "lng": 128.582127
  },
  {
    "name": "창원가포 안단테아파트 어린이집 앞 유아놀이터",
    "category": "어린이놀이시설",
    "type": "어린이놀이시설",
    "address": null,
    "tel": "",
    "lat": 35.157449,
    "lng": 128.58231
  },
  {
    "name": "창원푸르지오 더 플래티넘 1단지 어린이놀이터1",
    "category": "어린이놀이시설",
    "type": "어린이놀이시설",
    "address": null,
    "tel": "",
    "lat": 35.212747,
    "lng": 128.568544
  },
  {
    "name": "창원푸르지오 더 플래티넘 1단지 어린이놀이터2",
    "category": "어린이놀이시설",
    "type": "어린이놀이시설",
    "address": null,
    "tel": "",
    "lat": 35.212721,
    "lng": 128.569407
  },
  {
    "name": "창원푸르지오 더 플래티넘 1단지 유아놀이터",
    "category": "어린이놀이시설",
    "type": "어린이놀이시설",
    "address": null,
    "tel": "",
    "lat": 35.213127,
    "lng": 128.569904
  },
  {
    "name": "창원푸르지오 더 플래티넘 2단지 어린이놀이터1",
    "category": "어린이놀이시설",
    "type": "어린이놀이시설",
    "address": null,
    "tel": "",
    "lat": 35.211393,
    "lng": 128.569767
  },
  {
    "name": "창원푸르지오 더 플래티넘 2단지 어린이놀이터2",
    "category": "어린이놀이시설",
    "type": "어린이놀이시설",
    "address": null,
    "tel": "",
    "lat": 35.211615,
    "lng": 128.568833
  },
  {
    "name": "창원푸르지오 더 플래티넘 2단지 유아놀이터",
    "category": "어린이놀이시설",
    "type": "어린이놀이시설",
    "address": null,
    "tel": "",
    "lat": 35.211772,
    "lng": 128.568547
  },
  {
    "name": "창원푸르지오 더 플래티넘 3단지 어린이놀이터1",
    "category": "어린이놀이시설",
    "type": "어린이놀이시설",
    "address": null,
    "tel": "",
    "lat": 35.212007,
    "lng": 128.567047
  },
  {
    "name": "창원푸르지오 더 플래티넘 3단지 어린이놀이터2",
    "category": "어린이놀이시설",
    "type": "어린이놀이시설",
    "address": null,
    "tel": "",
    "lat": 35.211577,
    "lng": 128.566634
  },
  {
    "name": "마창대교 유보라아이비파크 어린이놀이터2(106동)",
    "category": "어린이놀이시설",
    "type": "어린이놀이시설",
    "address": "경상남도 창원시 마산합포구 가포동",
    "tel": "",
    "lat": 0.0,
    "lng": 0.0
  },
  {
    "name": "창원가포 B-1BL 어린이놀이터 1",
    "category": "어린이놀이시설",
    "type": "어린이놀이시설",
    "address": "경상남도 창원시 마산합포구 가포동",
    "tel": "",
    "lat": 0.0,
    "lng": 0.0
  },
  {
    "name": "창원시립서성어린이집",
    "category": "어린이놀이시설",
    "type": "어린이놀이시설",
    "address": "경상남도 창원시 마산합포구 중앙북7길 53-5 (서성동)",
    "tel": "",
    "lat": 35.201593,
    "lng": 128.568538
  },
  {
    "name": "건우아파트 어린이놀이터",
    "category": "어린이놀이시설",
    "type": "어린이놀이시설",
    "address": "경상남도 창원시 마산합포구 진동면 서촌바다길 108  (건우그린타운)",
    "tel": "",
    "lat": 35.110511,
    "lng": 128.483848
  },
  {
    "name": "월영현대1차아파트 놀이터(3단지)708-1",
    "category": "어린이놀이시설",
    "type": "어린이놀이시설",
    "address": "경상남도 창원시 마산합포구 월영마을로 7  (월영동, 1차현대아파트)",
    "tel": "",
    "lat": 35.172762,
    "lng": 128.558278
  },
  {
    "name": "대내주공아파트 어린이아파트",
    "category": "어린이놀이시설",
    "type": "어린이놀이시설",
    "address": "경상남도 창원시 마산합포구 월영북15길 21  (대내동, 대내주공아파트)",
    "tel": "",
    "lat": 35.182045,
    "lng": 128.558138
  },
  {
    "name": "월영현대3차아파트 어린이놀이터(709-1)601,602동",
    "category": "어린이놀이시설",
    "type": "어린이놀이시설",
    "address": "경상남도 창원시 마산합포구 월영마을로 32 (월영동)",
    "tel": "",
    "lat": 35.172285,
    "lng": 128.556638
  },
  {
    "name": "신우희가로베스트아파트 어린이놀이터",
    "category": "어린이놀이시설",
    "type": "어린이놀이시설",
    "address": "경상남도 창원시 마산합포구 중앙북1길 19 (중앙동3가)",
    "tel": "",
    "lat": 35.19795,
    "lng": 128.568437
  },
  {
    "name": "동아1차아파트(102동) 어린이놀이터",
    "category": "어린이놀이시설",
    "type": "어린이놀이시설",
    "address": "경상남도 창원시 마산합포구 월영남로 43 (월영동)",
    "tel": "",
    "lat": 35.175178,
    "lng": 128.559393
  },
  {
    "name": "중앙경동메르빌 어린이놀이터1",
    "category": "어린이놀이시설",
    "type": "어린이놀이시설",
    "address": "경상남도 창원시 마산합포구 중앙동3길 16  (중앙동2가, 경동 메르빌 2차)",
    "tel": "",
    "lat": 35.194522,
    "lng": 128.567174
  },
  {
    "name": "월포벽산블루밍아파트 어린이놀이터1",
    "category": "어린이놀이시설",
    "type": "어린이놀이시설",
    "address": "경상남도 창원시 마산합포구 3·15대로 154  (월포동, 벽산블루밍아파트)",
    "tel": "",
    "lat": 35.193128,
    "lng": 128.566455
  },
  {
    "name": "동아2차아파트 어린이놀이터1",
    "category": "어린이놀이시설",
    "type": "어린이놀이시설",
    "address": "경상남도 창원시 마산합포구 월영마을로 29 (월영동)",
    "tel": "",
    "lat": 35.172141,
    "lng": 128.559739
  },
  {
    "name": "두산2차아파트 어린이놀이터1 201동",
    "category": "어린이놀이시설",
    "type": "어린이놀이시설",
    "address": "경상남도 창원시 마산합포구 월영동로 19  (해운동, 두산2차아파트)",
    "tel": "",
    "lat": 35.178507,
    "lng": 128.56414
  },
  {
    "name": "월포경동메르빌아파트 어린이놀이터",
    "category": "어린이놀이시설",
    "type": "어린이놀이시설",
    "address": "경상남도 창원시 마산합포구 중앙동3길 22 (월포동)",
    "tel": "",
    "lat": 35.193758,
    "lng": 128.567911
  },
  {
    "name": "두산3차아파트 301동뒤 놀이터",
    "category": "어린이놀이시설",
    "type": "어린이놀이시설",
    "address": "경상남도 창원시 마산합포구 월영동11길 42 (해운동)",
    "tel": "",
    "lat": 35.179136,
    "lng": 128.56526
  },
  {
    "name": "월영현대1차아파트 놀이터(2단지)705-2(201동~203동)",
    "category": "어린이놀이시설",
    "type": "어린이놀이시설",
    "address": "경상남도 창원시 마산합포구 월영마을로 7  (월영동, 1차현대아파트)",
    "tel": "",
    "lat": 35.172762,
    "lng": 128.558278
  },
  {
    "name": "월포벽산블루밍아파트 어린이놀이터2",
    "category": "어린이놀이시설",
    "type": "어린이놀이시설",
    "address": "경상남도 창원시 마산합포구 3·15대로 154  (월포동, 벽산블루밍아파트)",
    "tel": "",
    "lat": 35.193128,
    "lng": 128.566455
  },
  {
    "name": "경남대학교",
    "category": "대학교",
    "type": "대학교",
    "address": "경상남도 창원시 마산합포구 경남대학로 7 (월영동, 경남대학교) ",
    "tel": "055-245-5000",
    "lat": 35.18419,
    "lng": 128.552739
  },
  {
    "name": "경남대학교 산업경영대학원",
    "category": "대학교",
    "type": "대학교",
    "address": "경상남도 창원시 마산합포구 경남대학로 7 (월영동)",
    "tel": "055-249-2586",
    "lat": 35.18419,
    "lng": 128.552739
  },
  {
    "name": "경남대학교 대학원",
    "category": "대학교",
    "type": "대학교",
    "address": "경상남도 창원시 마산합포구 경남대학로 7 (월영동, 경남대학교) ",
    "tel": "055-249-2808",
    "lat": 35.18419,
    "lng": 128.552739
  },
  {
    "name": "경남대학교 교육대학원",
    "category": "대학교",
    "type": "대학교",
    "address": "경상남도 창원시 마산합포구 경남대학로 7 (월영동, 경남대학교) 교육대학원 교학행정실",
    "tel": "055-249-2811",
    "lat": 35.18419,
    "lng": 128.552739
  },
  {
    "name": "경남대학교 행정대학원",
    "category": "대학교",
    "type": "대학교",
    "address": "경상남도 창원시 마산합포구 경남대학로 7 (월영동)",
    "tel": "055-249-2595",
    "lat": 35.18419,
    "lng": 128.552739
  },
  {
    "name": "경남대학교 AI・SW융합전문대학원",
    "category": "대학교",
    "type": "대학교",
    "address": "경상남도 창원시 마산합포구 경남대학로 7 (월영동) 경남대학교 창조관2층",
    "tel": "055-249-2438",
    "lat": 35.18419,
    "lng": 128.552739
  },
  {
    "name": "사회복지법인 아그네스복지재단 행복주식회사",
    "category": "약자보호시설",
    "type": "장애인편의시설",
    "address": "경상남도 창원시 마산합포구 진북면 의림로 312",
    "tel": "055-271-1871",
    "lat": 35.135256,
    "lng": 128.445581
  },
  {
    "name": "꿈의동산",
    "category": "약자보호시설",
    "type": "장애인편의시설",
    "address": "경상남도 창원시 마산합포구 구산면 반동길 402",
    "tel": "055-222-5533",
    "lat": 35.072622,
    "lng": 128.584577
  },
  {
    "name": "요셉",
    "category": "약자보호시설",
    "type": "장애인편의시설",
    "address": "경상남도 창원시 마산합포구 월영동 11길 57, 102동 201호(씨티해오름아파트)",
    "tel": "055-223-1871",
    "lat": 35.179169,
    "lng": 128.566211
  },
  {
    "name": "새솔",
    "category": "약자보호시설",
    "type": "장애인편의시설",
    "address": "경상남도 창원시 마산합포구 묘촌1길 28, 606동 104호(LH그린품애)",
    "tel": "070-8833-3390",
    "lat": 35.141598,
    "lng": 128.558551
  },
  {
    "name": "아름다운학원",
    "category": "약자보호시설",
    "type": "장애인편의시설",
    "address": "경상남도 창원시 마산합포구 진전면 미천2길 243",
    "tel": "055-271-7714",
    "lat": 35.153171,
    "lng": 128.411268
  },
  {
    "name": "해강마을",
    "category": "약자보호시설",
    "type": "장애인편의시설",
    "address": "경상남도 창원시 마산합포구 구산면 반동길 370-1",
    "tel": "055-221-9926",
    "lat": 35.072877,
    "lng": 128.583891
  },
  {
    "name": "초록나무",
    "category": "약자보호시설",
    "type": "장애인편의시설",
    "address": "경상남도 창원시 마산합포구 구산면 반동길 372",
    "tel": "055-222-0770",
    "lat": 35.07379,
    "lng": 128.584027
  },
  {
    "name": "진동사랑의집",
    "category": "약자보호시설",
    "type": "장애인편의시설",
    "address": "경상남도 창원시 마산합포구 진동면 장기1길63",
    "tel": "055-271-0544",
    "lat": 35.103564,
    "lng": 128.468573
  },
  {
    "name": "햇살지기주간보호센터",
    "category": "약자보호시설",
    "type": "장애인편의시설",
    "address": "경상남도 창원시 마산합포구 반월서7길59",
    "tel": "055-247-5198",
    "lat": 35.194395,
    "lng": 128.558688
  },
  {
    "name": "창원시마산시각장애인주간보호시설 센터",
    "category": "약자보호시설",
    "type": "장애인편의시설",
    "address": "경상남도 창원시 마산합포구 서성로48, 4층",
    "tel": "055-244-2023",
    "lat": 35.201345,
    "lng": 128.571772
  },
  {
    "name": "마산장애인생활이동지원센터",
    "category": "약자보호시설",
    "type": "장애인편의시설",
    "address": "경상남도 창원시 마산합포구 서성로 48. 대우메디컬빌딩 401호",
    "tel": "055-244-2023",
    "lat": 35.201345,
    "lng": 128.571772
  },
  {
    "name": "경남점자정보도서관",
    "category": "약자보호시설",
    "type": "장애인편의시설",
    "address": "경상남도 창원시 마산합포구 반월서7길 59",
    "tel": "055-241-0023",
    "lat": 35.194395,
    "lng": 128.558688
  },
  {
    "name": "마산장애인복지관",
    "category": "약자보호시설",
    "type": "장애인편의시설",
    "address": "경상남도 창원시 마산합포구 반월서7길 59",
    "tel": "055-247-5194",
    "lat": 35.194395,
    "lng": 128.558688
  },
  {
    "name": "나눔일터",
    "category": "약자보호시설",
    "type": "장애인편의시설",
    "address": "경상남도 창원시 마산합포구 북성로 95, 4층 (상남동)",
    "tel": "055-251-1002",
    "lat": 35.215754,
    "lng": 128.570193
  },
  {
    "name": "늘품직업재활센터",
    "category": "약자보호시설",
    "type": "장애인편의시설",
    "address": "경상남도 창원시 마산합포구 반월서7길 59 (신월동)",
    "tel": "055-247-5190",
    "lat": 35.194395,
    "lng": 128.558688
  },
  {
    "name": "디딤돌",
    "category": "약자보호시설",
    "type": "장애인편의시설",
    "address": "경상남도 창원시 마산합포구 진전면 미천2길 243-1",
    "tel": "055-264-8844",
    "lat": 35.153038,
    "lng": 128.410633
  },
  {
    "name": "참 좋은 F&D",
    "category": "약자보호시설",
    "type": "장애인편의시설",
    "address": "경상남도 창원시 마산합포구 구산면 반동길 370-2",
    "tel": "055-252-0400",
    "lat": 35.072678,
    "lng": 128.583662
  },
  {
    "name": "경남해바라기센터",
    "category": "약자보호시설",
    "type": "성폭력피해자통합지원센터",
    "address": "경상남도 창원시 마산합포구 3.15대로 231 마산의료원 지하 1층",
    "tel": "055-245-8117 ",
    "lat": 35.199153,
    "lng": 128.565561
  },
  {
    "name": "경남성폭력가정폭력통합상담소",
    "category": "약자보호시설",
    "type": "성폭력피해상담소",
    "address": "경상남도 창원시 마산합포구 오동동10길 56, 가고파오피스텔 504호",
    "tel": "055-244-8400",
    "lat": 35.20625,
    "lng": 128.581722
  },
  {
    "name": "경남여성장애인성폭력상담소",
    "category": "약자보호시설",
    "type": "성폭력피해상담소",
    "address": "경상남도 창원시 마산합포구 오동동 10길 56, 804~805호(가고파오피스텔)",
    "tel": "055-241-5041",
    "lat": 35.20625,
    "lng": 128.581722
  },
  {
    "name": "마산의료원",
    "category": "약자보호시설",
    "type": "전담의료기관",
    "address": "경상남도 창원시 마산합포구 3.15대로 231",
    "tel": "055-249-1619",
    "lat": 35.199153,
    "lng": 128.565561
  },
  {
    "name": "미래산부인과",
    "category": "약자보호시설",
    "type": "전담의료기관",
    "address": "경상남도 창원시 마산합포구 3.15대로 32",
    "tel": "055-221-3777",
    "lat": 35.182671,
    "lng": 128.559675
  },
  {
    "name": "가포초등학교",
    "category": "초중고",
    "type": "초중고",
    "address": "경상남도 창원시 마산합포구 가포동 418",
    "tel": "",
    "lat": 35.159215,
    "lng": 128.575239
  },
  {
    "name": "구산중학교",
    "category": "초중고",
    "type": "초중고",
    "address": "경상남도 창원시 마산합포구 현동 610",
    "tel": "",
    "lat": 35.143802,
    "lng": 128.558242
  },
  {
    "name": "구산중학교구남분교장",
    "category": "초중고",
    "type": "초중고",
    "address": "경상남도 창원시 마산합포구 구산면 반동리 383",
    "tel": "",
    "lat": 35.08695,
    "lng": 128.587084
  },
  {
    "name": "구산초등학교",
    "category": "초중고",
    "type": "초중고",
    "address": "경상남도 창원시 마산합포구 구산면 수정리 594-1",
    "tel": "",
    "lat": 35.120474,
    "lng": 128.579167
  },
  {
    "name": "구산초등학교구서분교장",
    "category": "초중고",
    "type": "초중고",
    "address": "경상남도 창원시 마산합포구 구산면 마전리 82",
    "tel": "",
    "lat": 35.12142,
    "lng": 128.538013
  },
  {
    "name": "반동초등학교",
    "category": "초중고",
    "type": "초중고",
    "address": "경상남도 창원시 마산합포구 구산면 반동리 411",
    "tel": "",
    "lat": 35.087717,
    "lng": 128.584322
  },
  {
    "name": "동해중학교",
    "category": "초중고",
    "type": "초중고",
    "address": "경상남도 고성군 동해면 양촌리 814",
    "tel": "",
    "lat": 35.046417,
    "lng": 128.447428
  },
  {
    "name": "동해초등학교",
    "category": "초중고",
    "type": "초중고",
    "address": "경상남도 고성군 동해면 양촌리 832",
    "tel": "",
    "lat": 35.046062,
    "lng": 128.444274
  },
  {
    "name": "마산삼진고등학교",
    "category": "초중고",
    "type": "초중고",
    "address": "경상남도 창원시 마산합포구 진동면 진동리 533-5",
    "tel": "",
    "lat": 35.118599,
    "lng": 128.488781
  },
  {
    "name": "마산삼진중학교",
    "category": "초중고",
    "type": "초중고",
    "address": "경상남도 창원시 마산합포구 진동면 진동리 241-1",
    "tel": "",
    "lat": 35.113732,
    "lng": 128.488549
  },
  {
    "name": "마산신월초등학교",
    "category": "초중고",
    "type": "초중고",
    "address": "경상남도 창원시 마산합포구 월영동 709-2",
    "tel": "",
    "lat": 35.170776,
    "lng": 128.556524
  },
  {
    "name": "우산초등학교",
    "category": "초중고",
    "type": "초중고",
    "address": "경상남도 창원시 마산합포구 진동면 고현리 429-1",
    "tel": "",
    "lat": 35.104985,
    "lng": 128.478789
  },
  {
    "name": "태봉고등학교",
    "category": "초중고",
    "type": "초중고",
    "address": "경상남도 창원시 마산합포구 진동면 태봉리 68",
    "tel": "",
    "lat": 35.147478,
    "lng": 128.509367
  },
  {
    "name": "하북초등학교",
    "category": "초중고",
    "type": "초중고",
    "address": "경상남도 창원시 마산합포구 진북면 지산리 79-1",
    "tel": "",
    "lat": 35.116175,
    "lng": 128.469774
  },
  {
    "name": "현동초등학교",
    "category": "초중고",
    "type": "초중고",
    "address": "경상남도 창원시 마산합포구 현동 490",
    "tel": "",
    "lat": 35.146969,
    "lng": 128.556528
  },
  {
    "name": "창원동백학교",
    "category": "초중고",
    "type": "초중고",
    "address": "경상남도 창원시 마산합포구 구산면 반동리 162-3",
    "tel": "",
    "lat": 35.073445,
    "lng": 128.583748
  },
  {
    "name": "진동초등학교",
    "category": "초중고",
    "type": "초중고",
    "address": "경상남도 창원시 마산합포구 진동면 진동리 113-1",
    "tel": "",
    "lat": 35.118642,
    "lng": 128.490115
  },
  {
    "name": "진전중학교",
    "category": "초중고",
    "type": "초중고",
    "address": "경상남도 창원시 마산합포구 진전면 오서리 892",
    "tel": "",
    "lat": 35.104305,
    "lng": 128.409552
  },
  {
    "name": "진전초등학교",
    "category": "초중고",
    "type": "초중고",
    "address": "경상남도 창원시 마산합포구 진전면 곡안리 77-1",
    "tel": "",
    "lat": 35.110236,
    "lng": 128.415113
  },
  {
    "name": "한사랑유치원",
    "category": "유아시설",
    "type": "유아시설",
    "address": "경상남도 창원시 마산합포구 월영동 710-2",
    "tel": "",
    "lat": 35.170904,
    "lng": 128.557251
  },
  {
    "name": "한솔유치원",
    "category": "유아시설",
    "type": "유아시설",
    "address": "경상남도 창원시 마산합포구 진동면 요장리 479",
    "tel": "",
    "lat": 35.110689,
    "lng": 128.495087
  },
  {
    "name": "현동세종유치원",
    "category": "유아시설",
    "type": "유아시설",
    "address": "경상남도 창원시 마산합포구 현동 245",
    "tel": "",
    "lat": 35.148403,
    "lng": 128.551561
  },
  {
    "name": "현동숲유치원",
    "category": "유아시설",
    "type": "유아시설",
    "address": "경상남도 창원시 마산합포구 현동 607",
    "tel": "",
    "lat": 35.143918,
    "lng": 128.556919
  },
  {
    "name": "동아신나는어린이집",
    "category": "유아시설",
    "type": "유아시설",
    "address": "null",
    "tel": "",
    "lat": 35.172265,
    "lng": 128.559962
  },
  {
    "name": "덴소코리아어린이집",
    "category": "유아시설",
    "type": "유아시설",
    "address": "경상남도 창원시 마산합포구 현동 310-4",
    "tel": "",
    "lat": 35.145678,
    "lng": 128.550124
  },
  {
    "name": "꿈꾸는유앤아이어린이집",
    "category": "유아시설",
    "type": "유아시설",
    "address": "경상남도 창원시 마산합포구 진동면 진동리 592",
    "tel": "",
    "lat": 35.121391,
    "lng": 128.488554
  },
  {
    "name": "꿈채움어린이집",
    "category": "유아시설",
    "type": "유아시설",
    "address": "경상남도 창원시 마산합포구 진동면 진동리 592",
    "tel": "",
    "lat": 35.121391,
    "lng": 128.488554
  },
  {
    "name": "기쁨몬테소리어린이집",
    "category": "유아시설",
    "type": "유아시설",
    "address": "null",
    "tel": "",
    "lat": 35.172592,
    "lng": 128.559213
  },
  {
    "name": "꼬꼬마어린이집",
    "category": "유아시설",
    "type": "유아시설",
    "address": "null",
    "tel": "",
    "lat": 35.172592,
    "lng": 128.559213
  },
  {
    "name": "보보어린이집",
    "category": "유아시설",
    "type": "유아시설",
    "address": "null",
    "tel": "",
    "lat": 35.173367,
    "lng": 128.558349
  },
  {
    "name": "사동어린이집",
    "category": "유아시설",
    "type": "유아시설",
    "address": "경상남도 창원시 마산합포구 진동면 사동리 108",
    "tel": "",
    "lat": 35.120178,
    "lng": 128.479827
  },
  {
    "name": "미르어린이집",
    "category": "유아시설",
    "type": "유아시설",
    "address": "경상남도 창원시 마산합포구 진동면 진동리 424",
    "tel": "",
    "lat": 35.119288,
    "lng": 128.486661
  },
  {
    "name": "밝은숲 어린이집",
    "category": "유아시설",
    "type": "유아시설",
    "address": "경상남도 창원시 마산합포구 진동면 진동리 435-4",
    "tel": "",
    "lat": 35.118833,
    "lng": 128.486115
  },
  {
    "name": "마산가포부영사랑으로어린이집",
    "category": "유아시설",
    "type": "유아시설",
    "address": "경상남도 창원시 마산합포구 월영동 732",
    "tel": "",
    "lat": 35.168289,
    "lng": 128.560117
  },
  {
    "name": "신유성어린이집",
    "category": "유아시설",
    "type": "유아시설",
    "address": "경상남도 창원시 마산합포구 현동 620",
    "tel": "",
    "lat": 35.14303,
    "lng": 128.556747
  },
  {
    "name": "재능어린이집",
    "category": "유아시설",
    "type": "유아시설",
    "address": "null",
    "tel": "",
    "lat": 35.107468,
    "lng": 128.496483
  },
  {
    "name": "중흥누리봄어린이집",
    "category": "유아시설",
    "type": "유아시설",
    "address": "경상남도 창원시 마산합포구 현동 700",
    "tel": "",
    "lat": 35.147981,
    "lng": 128.559694
  },
  {
    "name": "중흥해마루어린이집",
    "category": "유아시설",
    "type": "유아시설",
    "address": "경상남도 창원시 마산합포구 현동 210",
    "tel": "",
    "lat": 35.15279,
    "lng": 128.549822
  },
  {
    "name": "조은어린이집",
    "category": "유아시설",
    "type": "유아시설",
    "address": "null",
    "tel": "",
    "lat": 35.171224,
    "lng": 128.558763
  },
  {
    "name": "유앤아이어린이집",
    "category": "유아시설",
    "type": "유아시설",
    "address": "경상남도 창원시 마산합포구 진동면 진동리 592",
    "tel": "",
    "lat": 35.121859,
    "lng": 128.488294
  },
  {
    "name": "연두어린이집",
    "category": "유아시설",
    "type": "유아시설",
    "address": "경상남도 창원시 마산합포구 현동 620",
    "tel": "",
    "lat": 35.142452,
    "lng": 128.557358
  },
  {
    "name": "예님어린이집",
    "category": "유아시설",
    "type": "유아시설",
    "address": "null",
    "tel": "",
    "lat": 35.174867,
    "lng": 128.55527
  },
  {
    "name": "하늘숲어린이집",
    "category": "유아시설",
    "type": "유아시설",
    "address": "경상남도 창원시 마산합포구 우산동 100",
    "tel": "",
    "lat": 35.152406,
    "lng": 128.554634
  },
  {
    "name": "한솔어린이집",
    "category": "유아시설",
    "type": "유아시설",
    "address": "경상남도 창원시 마산합포구 진동면 요장리 479",
    "tel": "",
    "lat": 35.11074,
    "lng": 128.49509
  },
  {
    "name": "하늘채다솜어린이집",
    "category": "유아시설",
    "type": "유아시설",
    "address": "경상남도 창원시 마산합포구 현동 608",
    "tel": "",
    "lat": 35.145072,
    "lng": 128.557046
  },
  {
    "name": "진동파랑새어린이집",
    "category": "유아시설",
    "type": "유아시설",
    "address": "경상남도 창원시 마산합포구 진동면 진동리 592",
    "tel": "",
    "lat": 35.121391,
    "lng": 128.488554
  },
  {
    "name": "창원시립 구산어린이집",
    "category": "유아시설",
    "type": "유아시설",
    "address": "경상남도 창원시 마산합포구 구산면 수정리 660-5",
    "tel": "",
    "lat": 35.119972,
    "lng": 128.582063
  },
  {
    "name": "창원시립 덕동어린이집",
    "category": "유아시설",
    "type": "유아시설",
    "address": "경상남도 창원시 마산합포구 덕동동 163-1",
    "tel": "",
    "lat": 35.140955,
    "lng": 128.578982
  },
  {
    "name": "창원시립 딩동댕어린이집",
    "category": "유아시설",
    "type": "유아시설",
    "address": "경남 창원시 마산합포구 월영동 708-2",
    "tel": "",
    "lat": 35.172581,
    "lng": 128.559193
  },
  {
    "name": "창원시립 진북어린이집",
    "category": "유아시설",
    "type": "유아시설",
    "address": "경상남도 창원시 마산합포구 진북면 지산리 226-56",
    "tel": "",
    "lat": 35.115435,
    "lng": 128.464928
  },
  {
    "name": "창원시립 진전어린이집",
    "category": "유아시설",
    "type": "유아시설",
    "address": "경상남도 창원시 마산합포구 진전면 오서리 398-5",
    "tel": "",
    "lat": 35.104403,
    "lng": 128.417716
  },
  {
    "name": "해피아이숲어린이집",
    "category": "유아시설",
    "type": "유아시설",
    "address": "경상남도 창원시 마산합포구 현동 210",
    "tel": "",
    "lat": 35.15279,
    "lng": 128.549822
  },
  {
    "name": "현대신나는어린이집",
    "category": "유아시설",
    "type": "유아시설",
    "address": "경상남도 창원시 마산합포구 월영동 704-1",
    "tel": "",
    "lat": 35.172697,
    "lng": 128.557709
  },
  {
    "name": "현대햇살어린이집",
    "category": "유아시설",
    "type": "유아시설",
    "address": "null",
    "tel": "",
    "lat": 35.171224,
    "lng": 128.558763
  },
  {
    "name": "현동아이자람어린이집",
    "category": "유아시설",
    "type": "유아시설",
    "address": "경상남도 창원시 마산합포구 현동 210",
    "tel": "",
    "lat": 35.150763,
    "lng": 128.551348
  },
  {
    "name": "햇살가득유앤아이어린이집",
    "category": "유아시설",
    "type": "유아시설",
    "address": "경상남도 창원시 마산합포구 진동면 진동리 592",
    "tel": "",
    "lat": 35.121391,
    "lng": 128.488554
  },
  {
    "name": "협성풀꽃무리어린이집",
    "category": "유아시설",
    "type": "유아시설",
    "address": "경상남도 창원시 마산합포구 진동면 진동리 424",
    "tel": "",
    "lat": 35.120986,
    "lng": 128.487494
  },
  {
    "name": "혜창꿈나무어린이집",
    "category": "유아시설",
    "type": "유아시설",
    "address": "경상남도 창원시 마산합포구 진동면 요장리 393-2",
    "tel": "",
    "lat": 35.11191,
    "lng": 128.491128
  },
  {
    "name": "동해면보건지소",
    "category": "보건소",
    "type": "보건소",
    "address": "경상남도 고성군 동해면 장기4길 77 (동해면)",
    "tel": "055-670-4981",
    "lat": 35.04198,
    "lng": 128.425388
  },
  {
    "name": "고성군회화면어신보건진료소",
    "category": "보건소",
    "type": "보건소",
    "address": "경상남도 고성군 회화면 어신2길 313,",
    "tel": "055-674-1935",
    "lat": 35.076514,
    "lng": 128.417653
  },
  {
    "name": "매정보건진료소",
    "category": "보건소",
    "type": "보건소",
    "address": "경상남도 고성군 동해면 조선특구로 1509 (동해면)",
    "tel": "055-672-5525",
    "lat": 35.026342,
    "lng": 128.47919
  },
  {
    "name": "창원시마산보건소구산면보건지소",
    "category": "보건소",
    "type": "보건소",
    "address": "경상남도 창원시 마산합포구 구산면 해양관광로 1467 (구산면보건지소)",
    "tel": "055-225-6072",
    "lat": 35.086738,
    "lng": 128.585459
  },
  {
    "name": "창원시마산보건소진동면보건지소",
    "category": "보건소",
    "type": "보건소",
    "address": "경상남도 창원시 마산합포구 진동면 신서촌로 13",
    "tel": "055-225-6075",
    "lat": 35.11513,
    "lng": 128.484288
  },
  {
    "name": "창원시마산보건소진북면보건지소",
    "category": "보건소",
    "type": "보건소",
    "address": "경상남도 창원시 마산합포구 진북면 지산1길 71-1",
    "tel": "055-225-6078",
    "lat": 35.11498,
    "lng": 128.46448
  },
  {
    "name": "창원시마산보건소진전면보건지소",
    "category": "보건소",
    "type": "보건소",
    "address": "경상남도 창원시 마산합포구 진전면 대실로 155 (진전면사무소)",
    "tel": "055-225-6081",
    "lat": 35.10199,
    "lng": 128.418492
  },
  {
    "name": "창원시마산보건소수정보건진료소",
    "category": "보건소",
    "type": "보건소",
    "address": "경상남도 창원시 마산합포구 구산면 수정1길 62-44 (수정보건진료소)",
    "tel": "055-225-6084",
    "lat": 35.11967,
    "lng": 128.582125
  },
  {
    "name": "창원시마산보건소시락보건진료소",
    "category": "보건소",
    "type": "보건소",
    "address": "경상남도 창원시 마산합포구 진전면 회진로 1016-15 (시락보건진료소)",
    "tel": "055-225-6086",
    "lat": 35.072107,
    "lng": 128.440422
  },
  {
    "name": "조수현의원",
    "category": "산재지정병원",
    "type": "산재지정병원",
    "address": "경남 창원시 마산합포구 진동면 삼진의거대로 654 (진동농업협동조합)",
    "tel": "0552718575",
    "lat": 35.116285,
    "lng": 128.488978
  },
  {
    "name": "의료법인우암의료재단진동태봉병원",
    "category": "산재지정병원",
    "type": "산재지정병원",
    "address": "경남 창원시 마산합포구 진동면 동전고개로 2 (태봉요양병원)",
    "tel": "0557139500",
    "lat": 35.145414,
    "lng": 128.511009
  },
  {
    "name": "의료법인혜주의료재단 더편한요양병원",
    "category": "산재지정병원",
    "type": "산재지정병원",
    "address": "경남 창원시 마산합포구 진동면 삼진의거대로 826 (더편한요양병원)",
    "tel": "0556067722",
    "lat": 35.128263,
    "lng": 128.500396
  },
  {
    "name": "의료법인성인의료재단이에이씨창원요양병원",
    "category": "산재지정병원",
    "type": "산재지정병원",
    "address": "경남 창원시 마산합포구 가포로 652 169",
    "tel": "0552307824",
    "lat": 35.14195,
    "lng": 128.579017
  },
  {
    "name": "매화부부한의원",
    "category": "산재지정병원",
    "type": "산재지정병원",
    "address": "경남 창원시 마산합포구 현동1길 4-10 201호 (현동, JS빌딩)",
    "tel": "0552420829",
    "lat": 35.147176,
    "lng": 128.55796
  },
  {
    "name": "서울가정의학과의원",
    "category": "병의원",
    "type": "의원",
    "address": "경상남도 창원시 마산합포구 현동4길 5, 3층 2, 3호 (현동)",
    "tel": "055-242-7583",
    "lat": 35.1515,
    "lng": 128.553213
  },
  {
    "name": "서울명외과의원",
    "category": "병의원",
    "type": "의원",
    "address": "경상남도 창원시 마산합포구 진동면 진북산업로 31",
    "tel": "055-272-0083",
    "lat": 35.119031,
    "lng": 128.487879
  },
  {
    "name": "이상훈의원",
    "category": "병의원",
    "type": "의원",
    "address": "경상남도 창원시 마산합포구 진동면 삼진의거대로 634 (진동면)",
    "tel": "055-271-9490",
    "lat": 35.115334,
    "lng": 128.487158
  },
  {
    "name": "영남의원",
    "category": "병의원",
    "type": "의원",
    "address": "경상남도 창원시 마산합포구 구산면 구산로 547 (새마을금고)",
    "tel": "055-221-1775",
    "lat": 35.11884,
    "lng": 128.580495
  },
  {
    "name": "국립마산병원",
    "category": "병의원",
    "type": "병원",
    "address": "경상남도 창원시 마산합포구 가포로 215 (가포동, 국립마산병원)",
    "tel": "055-246-1141",
    "lat": 35.168364,
    "lng": 128.564222
  },
  {
    "name": "의료법인우암의료재단진동태봉병원",
    "category": "병의원",
    "type": "병원",
    "address": "경상남도 창원시 마산합포구 진동면 동전고개로 2, 진동태봉병원",
    "tel": "055-713-9500",
    "lat": 35.145451,
    "lng": 128.510937
  },
  {
    "name": "진동삼성내과의원",
    "category": "병의원",
    "type": "의원",
    "address": "경상남도 창원시 마산합포구 진동면 삼진의거대로 618, 202호",
    "tel": "055-271-5931",
    "lat": 35.115316,
    "lng": 128.485963
  },
  {
    "name": "경찰공제회부속경남의원",
    "category": "병의원",
    "type": "의원",
    "address": "경상남도 창원시 마산합포구 진동면 진북산업로 90-1 (마산운전면허시험장)",
    "tel": "055-271-4535",
    "lat": 35.124547,
    "lng": 128.487537
  },
  {
    "name": "현동라온소아청소년과의원",
    "category": "병의원",
    "type": "의원",
    "address": "경상남도 창원시 마산합포구 현동1길 4-10, 2층 202호 (현동)",
    "tel": "055-246-7552",
    "lat": 35.147178,
    "lng": 128.557958
  },
  {
    "name": "혜승의원",
    "category": "병의원",
    "type": "의원",
    "address": "경상남도 창원시 마산합포구 진동면 해양관광로 20 (진동수산업협동조합)",
    "tel": "055-272-0075",
    "lat": 35.112919,
    "lng": 128.486778
  },
  {
    "name": "김의원",
    "category": "병의원",
    "type": "의원",
    "address": "경상남도 창원시 마산합포구 진동면 서촌숲끝길 5 (김의원)",
    "tel": "055-271-8722",
    "lat": 35.116,
    "lng": 128.487248
  },
  {
    "name": "조수현신경과의원",
    "category": "병의원",
    "type": "의원",
    "address": "경상남도 창원시 마산합포구 진동면 삼진의거대로 654, 진동농업협동조합 2층",
    "tel": "055-271-8575",
    "lat": 35.116135,
    "lng": 128.489103
  },
  {
    "name": "시립마산요양병원",
    "category": "요양병원",
    "type": "요양병원",
    "address": "경상남도 창원시 마산합포구 현동로 15 (우산동)",
    "tel": "055-221-2700",
    "lat": 35.154048,
    "lng": 128.551871
  },
  {
    "name": "의료법인성인의료재단이에이씨창원요양병원",
    "category": "요양병원",
    "type": "요양병원",
    "address": "경상남도 창원시 마산합포구 가포로 652 (덕동동)",
    "tel": "055-230-7777",
    "lat": 35.142015,
    "lng": 128.57898
  },
  {
    "name": "의료법인혜주의료재단 더편한요양병원",
    "category": "요양병원",
    "type": "요양병원",
    "address": "경상남도 창원시 마산합포구 진동면 삼진의거대로 826 (진동면)",
    "tel": "055-606-7722",
    "lat": 35.128217,
    "lng": 128.500403
  },
  {
    "name": "친절요양병원",
    "category": "요양병원",
    "type": "요양병원",
    "address": "경상남도 창원시 마산합포구 현동로 38, 2-10층 (우산동)",
    "tel": "055-222-7900",
    "lat": 35.151874,
    "lng": 128.552943
  },
  {
    "name": "매화부부한의원",
    "category": "한방병의원",
    "type": "한의원",
    "address": "경상남도 창원시 마산합포구 현동1길 4-10, 201호 (현동)",
    "tel": "055-242-0829",
    "lat": 35.147176,
    "lng": 128.55796
  },
  {
    "name": "인수한의원",
    "category": "한방병의원",
    "type": "한의원",
    "address": "경상남도 창원시 마산합포구 진동면 서촌길 2 (포구정인수한의원)",
    "tel": "055-271-2043",
    "lat": 35.113576,
    "lng": 128.485844
  },
  {
    "name": "자인한의원",
    "category": "한방병의원",
    "type": "한의원",
    "address": "경상남도 창원시 마산합포구 진동면 진동사동로 6",
    "tel": "055-271-4733",
    "lat": 35.117988,
    "lng": 128.487356
  },
  {
    "name": "진동한의원",
    "category": "한방병의원",
    "type": "한의원",
    "address": "경상남도 창원시 마산합포구 진동면 삼진의거대로 644, 101호",
    "tel": "055-271-6718",
    "lat": 35.11572,
    "lng": 128.487973
  },
  {
    "name": "의료법인한결의료재단자연한방병원",
    "category": "한방병의원",
    "type": "한방병원",
    "address": "경상남도 창원시 마산합포구 진전면 회진로 742-45",
    "tel": "055-222-1151",
    "lat": 35.057217,
    "lng": 128.424137
  },
  {
    "name": "경희홍한의원",
    "category": "한방병의원",
    "type": "한의원",
    "address": "경상남도 창원시 마산합포구 현동4길 5, 2층 204호 (현동)",
    "tel": "055-293-0035",
    "lat": 35.150896,
    "lng": 128.553194
  },
  {
    "name": "삼진치과의원",
    "category": "치과병의원",
    "type": "치과의원",
    "address": "경상남도 창원시 마산합포구 진동면 삼진의거대로 640 (신약국)",
    "tel": "055-271-6701",
    "lat": 35.115602,
    "lng": 128.487571
  },
  {
    "name": "스마트치과의원",
    "category": "치과병의원",
    "type": "치과의원",
    "address": "경상남도 창원시 마산합포구 현동7길 28, 현동주상가동 4층 407호 (현동)",
    "tel": "055-242-2875",
    "lat": 35.149992,
    "lng": 128.554404
  },
  {
    "name": "올바른치과의원",
    "category": "치과병의원",
    "type": "치과의원",
    "address": "경상남도 창원시 마산합포구 현동로 111, 3층 301호 (현동)",
    "tel": "055-715-2800",
    "lat": 35.146869,
    "lng": 128.558154
  },
  {
    "name": "진동우리치과의원",
    "category": "치과병의원",
    "type": "치과의원",
    "address": "경상남도 창원시 마산합포구 진동면 삼진의거대로 618, 2층",
    "tel": "055-271-7528",
    "lat": 35.115316,
    "lng": 128.485965
  },
  {
    "name": "진동치과의원",
    "category": "치과병의원",
    "type": "치과의원",
    "address": "경상남도 창원시 마산합포구 진동면 삼진의거대로 644 (진동면)",
    "tel": "055-271-9402",
    "lat": 35.115586,
    "lng": 128.488025
  },
  {
    "name": "퍼스트치과의원",
    "category": "치과병의원",
    "type": "치과의원",
    "address": "경상남도 창원시 마산합포구 현동로 50, 중앙빌딩동 3층 303호 (현동)",
    "tel": "055-222-2827",
    "lat": 35.151092,
    "lng": 128.553547
  },
  {
    "name": "홍약국",
    "category": "약국",
    "type": "약국",
    "address": "경상남도 창원시 마산합포구 진동면 삼진의거대로 618, 지상1층 102호",
    "tel": "055-271-1775",
    "lat": 35.115316,
    "lng": 128.485967
  },
  {
    "name": "진동행복한약국",
    "category": "약국",
    "type": "약국",
    "address": "경상남도 창원시 마산합포구 진동면 삼진의거대로 654, 진동농업협동조합 (진동면)",
    "tel": "055-271-8578",
    "lat": 35.116135,
    "lng": 128.489103
  },
  {
    "name": "미래팜삼진약국",
    "category": "약국",
    "type": "약국",
    "address": "경상남도 창원시 마산합포구 진동면 서촌숲끝길 3",
    "tel": "055-271-8772",
    "lat": 35.115903,
    "lng": 128.487228
  },
  {
    "name": "유명약국",
    "category": "약국",
    "type": "약국",
    "address": "경상남도 창원시 마산합포구 진동면 진북산업로 31, 1층",
    "tel": "055-271-5901",
    "lat": 35.119031,
    "lng": 128.487879
  },
  {
    "name": "김약국",
    "category": "약국",
    "type": "약국",
    "address": "경상남도 창원시 마산합포구 진동면 삼진의거대로 634, 김약국",
    "tel": "055-271-4427",
    "lat": 35.115465,
    "lng": 128.487292
  },
  {
    "name": "현동약국",
    "category": "약국",
    "type": "약국",
    "address": "경상남도 창원시 마산합포구 현동로 38 (우산동)",
    "tel": "055-245-5949",
    "lat": 35.151874,
    "lng": 128.552943
  },
  {
    "name": "신약국",
    "category": "약국",
    "type": "약국",
    "address": "경상남도 창원시 마산합포구 진동면 삼진의거대로 640,",
    "tel": "055-271-3222",
    "lat": 35.115581,
    "lng": 128.487567
  },
  {
    "name": "현동미소약국",
    "category": "약국",
    "type": "약국",
    "address": "경상남도 창원시 마산합포구 현동1길 4-10, 102호 (현동)",
    "tel": "055-242-7032",
    "lat": 35.147178,
    "lng": 128.557958
  },
  {
    "name": "시장약국",
    "category": "약국",
    "type": "약국",
    "address": "경상남도 창원시 마산합포구 진동면 해양관광로 19",
    "tel": "055-271-9690",
    "lat": 35.113275,
    "lng": 128.4869
  },
  {
    "name": "수약국",
    "category": "약국",
    "type": "약국",
    "address": "경상남도 창원시 마산합포구 현동4길 4 (우산동)",
    "tel": "055-244-8275",
    "lat": 35.1515,
    "lng": 128.553213
  }
]