[
  {
    "name": "창원고용복지플러스센터",
    "category": "관공서",
    "type": "관공서",
    "address": "경상남도 창원시 성산구 마디미서로 60",
    "tel": "055-239-0900",
    "lat": 35.220391,
    "lng": 128.680506
  },
  {
    "name": "창원세관",
    "category": "관공서",
    "type": "관공서",
    "address": "경상남도 창원시 성산구 창원대로 790 (외동)",
    "tel": "055-267-2102",
    "lat": 35.213776,
    "lng": 128.676178
  },
  {
    "name": "창원보호관찰소",
    "category": "관공서",
    "type": "관공서",
    "address": "경상남도 창원시 의창구 창이대로532번길 32 (신월동)",
    "tel": "055-213-8910",
    "lat": 35.233372,
    "lng": 128.68904
  },
  {
    "name": "창원청소년비행예방센터",
    "category": "관공서",
    "type": "관공서",
    "address": "경상남도 창원시 성산구 창이대로663번길 7 대한빌딩 6층",
    "tel": "055-286-3517",
    "lat": 35.225857,
    "lng": 128.699603
  },
  {
    "name": "창원우체국",
    "category": "관공서",
    "type": "관공서",
    "address": "경상남도 창원시 성산구 상남로 57 (상남동)",
    "tel": "055-260-9877",
    "lat": 35.219433,
    "lng": 128.678514
  },
  {
    "name": "창원양곡동우체국",
    "category": "관공서",
    "type": "관공서",
    "address": "경상남도 창원시 성산구 신촌로 31 (신촌동)",
    "tel": "055-286-0002",
    "lat": 35.206754,
    "lng": 128.627048
  },
  {
    "name": "창원반송동우체국",
    "category": "관공서",
    "type": "관공서",
    "address": "경상남도 창원시 성산구 원이대로473번길 15 (반림동)",
    "tel": "055-283-0205",
    "lat": 35.235513,
    "lng": 128.66955
  },
  {
    "name": "창원가음정동우체국",
    "category": "관공서",
    "type": "관공서",
    "address": "경상남도 창원시 성산구 원이대로863번길 20 (가음동)",
    "tel": "055-281-0004",
    "lat": 35.208506,
    "lng": 128.697393
  },
  {
    "name": "창원대방동우체국",
    "category": "관공서",
    "type": "관공서",
    "address": "경상남도 창원시 성산구 대암로105번길 6 (대방동)",
    "tel": "055-284-0106",
    "lat": 35.216162,
    "lng": 128.708398
  },
  {
    "name": "창원상남동우체국",
    "category": "관공서",
    "type": "관공서",
    "address": "경상남도 창원시 성산구 동산로 65 (상남동)",
    "tel": "055-266-0105",
    "lat": 35.215566,
    "lng": 128.686945
  },
  {
    "name": "창원지방법원우체국",
    "category": "관공서",
    "type": "관공서",
    "address": "경상남도 창원시 성산구 창이대로 681 (사파동)",
    "tel": "055-266-2297",
    "lat": 35.224207,
    "lng": 128.700859
  },
  {
    "name": "창원중앙동우편취급국",
    "category": "관공서",
    "type": "관공서",
    "address": "경상남도 창원시 성산구 중앙대로 95, 기산파라다이스 105호 (중앙동)",
    "tel": "055-275-2005",
    "lat": 35.223636,
    "lng": 128.678921
  },
  {
    "name": "창원용호동우편취급국",
    "category": "관공서",
    "type": "관공서",
    "address": "경상남도 창원시 의창구 용지로153번길3, 창원오피스텔(용호동)",
    "tel": "055-281-0205",
    "lat": 35.228697,
    "lng": 128.680464
  },
  {
    "name": "창원내동우편취급국",
    "category": "관공서",
    "type": "관공서",
    "address": "경상남도 창원시 성산구 연덕로 184번길 23, (내동)",
    "tel": "055-285-0105",
    "lat": 35.217969,
    "lng": 128.668366
  },
  {
    "name": "창원신월은아우편취급국",
    "category": "관공서",
    "type": "관공서",
    "address": "경상남도 창원시 의창구 신사로 4 (신월동)",
    "tel": "055-285-0205",
    "lat": 35.226933,
    "lng": 128.68647
  },
  {
    "name": "창원안민동우편취급국",
    "category": "관공서",
    "type": "관공서",
    "address": "경상남도 창원시 성산구 공단로 732, 미소빌딩 101호 (안민동)",
    "tel": "055-261-0330",
    "lat": 35.188965,
    "lng": 128.693746
  },
  {
    "name": "창원우편집중국",
    "category": "관공서",
    "type": "관공서",
    "address": "경상남도 창원시 성산구 적현로 311 (신촌동)",
    "tel": "055-260-0811",
    "lat": 35.199641,
    "lng": 128.595984
  },
  {
    "name": "가음정동행정복지센터",
    "category": "관공서",
    "type": "관공서",
    "address": "경상남도 창원시 성산구 가음로13번길 31",
    "tel": "055-272-5500",
    "lat": 35.213131,
    "lng": 128.700541
  },
  {
    "name": "반송동행정복지센터",
    "category": "관공서",
    "type": "관공서",
    "address": "경상남도 창원시 성산구 원이대로473번길 19-14",
    "tel": "055-272-5100",
    "lat": 35.235929,
    "lng": 128.669523
  },
  {
    "name": "사파동행정복지센터",
    "category": "관공서",
    "type": "관공서",
    "address": "경상남도 창원시 성산구 대암로 109",
    "tel": "055-272-5400",
    "lat": 35.215911,
    "lng": 128.708695
  },
  {
    "name": "상남동행정복지센터",
    "category": "관공서",
    "type": "관공서",
    "address": "경상남도 창원시 성산구 동산로 73",
    "tel": "055-272-5300",
    "lat": 35.216259,
    "lng": 128.687187
  },
  {
    "name": "성주동행정복지센터",
    "category": "관공서",
    "type": "관공서",
    "address": "경상남도 창원시 성산구 공단로 735",
    "tel": "055-272-5600",
    "lat": 35.18966,
    "lng": 128.695106
  },
  {
    "name": "웅남동행정복지센터",
    "category": "관공서",
    "type": "관공서",
    "address": "경상남도 창원시 성산구 신촌로 50",
    "tel": "055-272-5700",
    "lat": 35.205349,
    "lng": 128.627147
  },
  {
    "name": "중앙동행정복지센터",
    "category": "관공서",
    "type": "관공서",
    "address": "경상남도 창원시 성산구 외동반림로 5",
    "tel": "055-272-5200",
    "lat": 35.221057,
    "lng": 128.673718
  },
  {
    "name": "성산구청",
    "category": "관공서",
    "type": "관공서",
    "address": "경상남도 창원시 성산구 창원대로 1086 (성주동)",
    "tel": "055-272-2114",
    "lat": 35.198424,
    "lng": 128.702596
  },
  {
    "name": "현대위아어린이집",
    "category": "어린이놀이시설",
    "type": "어린이놀이시설",
    "address": "경남 창원시 성산구 정동로162번길 4",
    "tel": "",
    "lat": 35.204408,
    "lng": 128.691655
  },
  {
    "name": "창원성산 1단지 101동옆 어린이놀이터1",
    "category": "어린이놀이시설",
    "type": "어린이놀이시설",
    "address": "경남 창원시 성산구 가양로 34",
    "tel": "",
    "lat": 35.205173,
    "lng": 128.699198
  },
  {
    "name": "창원성산 1단지 103동앞 유아놀이터",
    "category": "어린이놀이시설",
    "type": "어린이놀이시설",
    "address": "경남 창원시 성산구 공단로 732",
    "tel": "",
    "lat": 35.188982,
    "lng": 128.693745
  },
  {
    "name": "창원센트럴파크 에일린의뜰아파트 어린이놀이터5",
    "category": "어린이놀이시설",
    "type": "어린이놀이시설",
    "address": "경남 창원시 성산구 대원로 79",
    "tel": "",
    "lat": 35.233614,
    "lng": 128.652365
  },
  {
    "name": "창원센트럴파크 에일린의뜰아파트 어린이놀이터4",
    "category": "어린이놀이시설",
    "type": "어린이놀이시설",
    "address": "경남 창원시 성산구 대원로 60",
    "tel": "",
    "lat": 35.234529,
    "lng": 128.655258
  },
  {
    "name": "창원센트럴파크 에일린의뜰아파트 어린이놀이터3",
    "category": "어린이놀이시설",
    "type": "어린이놀이시설",
    "address": "경남 창원시 성산구 대원로 60",
    "tel": "",
    "lat": 35.234529,
    "lng": 128.655258
  },
  {
    "name": "창원센트럴파크 에일린의뜰아파트 어린이놀이터2",
    "category": "어린이놀이시설",
    "type": "어린이놀이시설",
    "address": "경남 창원시 성산구 대원로 80",
    "tel": "",
    "lat": 35.234836,
    "lng": 128.65195
  },
  {
    "name": "창원센트럴파크 에일린의뜰아파트 어린이놀이터1",
    "category": "어린이놀이시설",
    "type": "어린이놀이시설",
    "address": "경남 창원시 성산구 대원로 80",
    "tel": "",
    "lat": 35.234836,
    "lng": 128.65195
  },
  {
    "name": "꿀잼키즈룸 창원성주점",
    "category": "어린이놀이시설",
    "type": "어린이놀이시설",
    "address": "경남 창원시 성산구 대암로 247",
    "tel": "",
    "lat": 35.203896,
    "lng": 128.711449
  },
  {
    "name": "창원 성산삼정그린코아 포레스트(1단지) 105동 앞 놀이터",
    "category": "어린이놀이시설",
    "type": "어린이놀이시설",
    "address": "경남 창원시 성산구 공단로 734",
    "tel": "",
    "lat": 35.185198,
    "lng": 128.688133
  },
  {
    "name": "성산삼정그린코아웰레스트2단지 202동앞 어린이놀이터1",
    "category": "어린이놀이시설",
    "type": "어린이놀이시설",
    "address": "경남 창원시 성산구 공단로 734",
    "tel": "",
    "lat": 35.188741,
    "lng": 128.693777
  },
  {
    "name": "성산삼정그린코아웰레스트2단지 204동 앞 어린이놀이터2",
    "category": "어린이놀이시설",
    "type": "어린이놀이시설",
    "address": "경남 창원시 성산구 공단로 734",
    "tel": "",
    "lat": 35.188741,
    "lng": 128.693777
  },
  {
    "name": "성산삼정그린코아웰레스트2단지 203동 옆 유아놀이터",
    "category": "어린이놀이시설",
    "type": "어린이놀이시설",
    "address": "경남 창원시 성산구 공단로 734",
    "tel": "",
    "lat": 35.188741,
    "lng": 128.693777
  },
  {
    "name": "힐스테이트 마크로엔 유아놀이터(106동 뒤)",
    "category": "어린이놀이시설",
    "type": "어린이놀이시설",
    "address": "경남 창원시 성산구 대원로93번길 12",
    "tel": "",
    "lat": 35.23552,
    "lng": 128.650615
  },
  {
    "name": "힐스테이트 마크로엔 어린이놀이터3(107동 앞)",
    "category": "어린이놀이시설",
    "type": "어린이놀이시설",
    "address": "경남 창원시 성산구 대원로93번길 12",
    "tel": "",
    "lat": 35.236011,
    "lng": 128.649671
  },
  {
    "name": "힐스테이트 마크로엔 어린이놀이터2(101동 앞)",
    "category": "어린이놀이시설",
    "type": "어린이놀이시설",
    "address": "경남 창원시 성산구 대원로93번길 12",
    "tel": "",
    "lat": 35.236412,
    "lng": 128.649623
  },
  {
    "name": "힐스테이트 마크로엔 어린이놀이터1(103동 앞)",
    "category": "어린이놀이시설",
    "type": "어린이놀이시설",
    "address": "경남 창원시 성산구 대원로93번길 12",
    "tel": "",
    "lat": 35.23552,
    "lng": 128.650615
  },
  {
    "name": "창원자이시그니처 놀이터3번",
    "category": "어린이놀이시설",
    "type": "어린이놀이시설",
    "address": "경남 창원시 성산구 원이대로878번길 9",
    "tel": "",
    "lat": 35.210356,
    "lng": 128.694374
  },
  {
    "name": "창원자이시그니처 107동 앞 어린이놀이터",
    "category": "어린이놀이시설",
    "type": "어린이놀이시설",
    "address": "경남 창원시 성산구 원이대로878번길 9",
    "tel": "",
    "lat": 35.208043,
    "lng": 128.69263
  },
  {
    "name": "힐스테이트 마크로엔 아이숲",
    "category": "어린이놀이시설",
    "type": "어린이놀이시설",
    "address": "경남 창원시 성산구 대원로93번길 12",
    "tel": "",
    "lat": 35.236364,
    "lng": 128.650422
  },
  {
    "name": "창원대상공원 1-3 셀파크 어린이놀이터",
    "category": "어린이놀이시설",
    "type": "어린이놀이시설",
    "address": "경상남도 창원시 성산구 두대동 산14-10",
    "tel": "",
    "lat": 35.23406,
    "lng": 128.660175
  },
  {
    "name": "창원자이시그니처 물놀이터",
    "category": "어린이놀이시설",
    "type": "어린이놀이시설",
    "address": "경상남도 창원시 성산구 가음동 14-5",
    "tel": "",
    "lat": 35.209623,
    "lng": 128.694444
  },
  {
    "name": "청년감자탕 창원상남점 실내놀이시설",
    "category": "어린이놀이시설",
    "type": "어린이놀이시설",
    "address": "경남 창원시 성산구 마디미로44번길 7",
    "tel": "",
    "lat": 35.22088,
    "lng": 128.68246
  },
  {
    "name": "늘푸른어린이공원",
    "category": "어린이놀이시설",
    "type": "어린이놀이시설",
    "address": "경상남도 창원시 성산구 두대로81번길 27 (대원동)",
    "tel": "",
    "lat": 35.233127,
    "lng": 128.653166
  },
  {
    "name": "제31호어린이공원",
    "category": "어린이놀이시설",
    "type": "어린이놀이시설",
    "address": "경상남도 창원시 성산구 충혼로201번길 7-10 (반지동)",
    "tel": "",
    "lat": 35.241302,
    "lng": 128.664971
  },
  {
    "name": "금강어린이공원",
    "category": "어린이놀이시설",
    "type": "어린이놀이시설",
    "address": "경상남도 창원시 성산구 반송로82번길 8-11 (반지동)",
    "tel": "",
    "lat": 35.238729,
    "lng": 128.66444
  },
  {
    "name": "비둘기어린이공원",
    "category": "어린이놀이시설",
    "type": "어린이놀이시설",
    "address": "경상남도 창원시 성산구 외동반림로54번길 13-14 (중앙동)",
    "tel": "",
    "lat": 35.224366,
    "lng": 128.674498
  },
  {
    "name": "달빛어린이공원",
    "category": "어린이놀이시설",
    "type": "어린이놀이시설",
    "address": "경상남도 창원시 성산구 상남로230번길 58-1 (신월동)",
    "tel": "",
    "lat": 35.228826,
    "lng": 128.69517
  },
  {
    "name": "양지어린이공원",
    "category": "어린이놀이시설",
    "type": "어린이놀이시설",
    "address": "경상남도 창원시 성산구 신월로59번길 16-7 (신월동)",
    "tel": "",
    "lat": 35.227088,
    "lng": 128.695004
  },
  {
    "name": "용호어린이공원",
    "category": "어린이놀이시설",
    "type": "어린이놀이시설",
    "address": "경상남도 창원시 성산구 외동반림로282번길 24 (용호동)",
    "tel": "",
    "lat": 35.240057,
    "lng": 128.683574
  },
  {
    "name": "어울림어린이공원",
    "category": "어린이놀이시설",
    "type": "어린이놀이시설",
    "address": "경상남도 창원시 성산구 창이대로478번길 12-10 (용호동)",
    "tel": "",
    "lat": 35.237656,
    "lng": 128.685848
  },
  {
    "name": "푸르미어린이공원",
    "category": "어린이놀이시설",
    "type": "어린이놀이시설",
    "address": "경상남도 창원시 성산구 원이대로682번길 21 (상남동)",
    "tel": "",
    "lat": 35.220829,
    "lng": 128.687191
  },
  {
    "name": "꿈꾸러기어린이공원",
    "category": "어린이놀이시설",
    "type": "어린이놀이시설",
    "address": "경상남도 창원시 성산구 단정로98번길 23 (상남동)",
    "tel": "",
    "lat": 35.214393,
    "lng": 128.68822
  },
  {
    "name": "먼등어린이공원",
    "category": "어린이놀이시설",
    "type": "어린이놀이시설",
    "address": "경상남도 창원시 성산구 대암로 83-14 (대방동)",
    "tel": "",
    "lat": 35.215963,
    "lng": 128.706117
  },
  {
    "name": "대암어린이공원",
    "category": "어린이놀이시설",
    "type": "어린이놀이시설",
    "address": "경상남도 창원시 성산구 대암로 213 (대방동)",
    "tel": "",
    "lat": 35.206992,
    "lng": 128.710744
  },
  {
    "name": "신덕어린이공원",
    "category": "어린이놀이시설",
    "type": "어린이놀이시설",
    "address": "경상남도 창원시 성산구 비음로 7-16 (사파동)",
    "tel": "",
    "lat": 35.229869,
    "lng": 128.697097
  },
  {
    "name": "고산마을어린이공원",
    "category": "어린이놀이시설",
    "type": "어린이놀이시설",
    "address": "경상남도 창원시 성산구 비음로45번길 14-10 (사파동)",
    "tel": "",
    "lat": 35.228701,
    "lng": 128.701807
  },
  {
    "name": "구지어린이공원",
    "category": "어린이놀이시설",
    "type": "어린이놀이시설",
    "address": "경상남도 창원시 성산구 창이대로707번길 12-20 (사파동)",
    "tel": "",
    "lat": 35.221307,
    "lng": 128.702674
  },
  {
    "name": "개월어린이공원",
    "category": "어린이놀이시설",
    "type": "어린이놀이시설",
    "address": "경상남도 창원시 성산구 창이대로706번길 15-12 (사파동)",
    "tel": "",
    "lat": 35.220627,
    "lng": 128.699608
  },
  {
    "name": "강정어린이공원",
    "category": "어린이놀이시설",
    "type": "어린이놀이시설",
    "address": "경상남도 창원시 성산구 창이대로684번길 30 (사파동)",
    "tel": "",
    "lat": 35.222178,
    "lng": 128.696291
  },
  {
    "name": "온누리어린이공원",
    "category": "어린이놀이시설",
    "type": "어린이놀이시설",
    "address": "경상남도 창원시 성산구 가음로 76 (가음동)",
    "tel": "",
    "lat": 35.206592,
    "lng": 128.702162
  },
  {
    "name": "샛별어린이공원",
    "category": "어린이놀이시설",
    "type": "어린이놀이시설",
    "address": "경상남도 창원시 성산구 가음로92번길 6 (가음동)",
    "tel": "",
    "lat": 35.205128,
    "lng": 128.702628
  },
  {
    "name": "다솜어린이공원",
    "category": "어린이놀이시설",
    "type": "어린이놀이시설",
    "address": "경상남도 창원시 성산구 대정로 79 (남양동)",
    "tel": "",
    "lat": 35.210851,
    "lng": 128.701263
  },
  {
    "name": "나래어린이공원",
    "category": "어린이놀이시설",
    "type": "어린이놀이시설",
    "address": "경상남도 창원시 성산구 가음로57번길 8-2 (남양동)",
    "tel": "",
    "lat": 35.208055,
    "lng": 128.702575
  },
  {
    "name": "제94호어린이공원",
    "category": "어린이놀이시설",
    "type": "어린이놀이시설",
    "address": "경상남도 창원시 성산구 가음로101번길 10 (남양동)",
    "tel": "",
    "lat": 35.204964,
    "lng": 128.704784
  },
  {
    "name": "안민어린이공원",
    "category": "어린이놀이시설",
    "type": "어린이놀이시설",
    "address": "경상남도 창원시 성산구 안민로101번길 12 (안민동)",
    "tel": "",
    "lat": 35.187275,
    "lng": 128.688781
  },
  {
    "name": "에덴어린이집놀이터",
    "category": "어린이놀이시설",
    "type": "어린이놀이시설",
    "address": "경상남도 창원시 성산구 외동반림로 245 (반림동)",
    "tel": "",
    "lat": 35.239214,
    "lng": 128.679175
  },
  {
    "name": "꽃무지풀무지유치원 어린이놀이시설",
    "category": "어린이놀이시설",
    "type": "어린이놀이시설",
    "address": "경상남도 창원시 성산구 창이대로707번길 8-15 (사파동)",
    "tel": "",
    "lat": 35.221305,
    "lng": 128.702432
  },
  {
    "name": "근로복지공단창원어린이집놀이터",
    "category": "어린이놀이시설",
    "type": "어린이놀이시설",
    "address": "경상남도 창원시 성산구 대암로 32-15 (남양동)",
    "tel": "",
    "lat": 35.213409,
    "lng": 128.700535
  },
  {
    "name": "성모어린이집놀이터",
    "category": "어린이놀이시설",
    "type": "어린이놀이시설",
    "address": "경상남도 창원시 성산구 대암로 175 (대방동)",
    "tel": "",
    "lat": 35.210451,
    "lng": 128.71113
  },
  {
    "name": "트리비앙아파트 어린이놀이터2",
    "category": "어린이놀이시설",
    "type": "어린이놀이시설",
    "address": "경상남도 창원시 성산구 원이대로 495 (반림동)",
    "tel": "",
    "lat": 35.234606,
    "lng": 128.672084
  },
  {
    "name": "현대산업아파트 어린이놀이터(108동앞)",
    "category": "어린이놀이시설",
    "type": "어린이놀이시설",
    "address": "경상남도 창원시 성산구 외동반림로 219 (반림동, 현대아파트)",
    "tel": "",
    "lat": 35.238183,
    "lng": 128.676517
  },
  {
    "name": "동부산아이존빌2단지 어린이놀이터",
    "category": "어린이놀이시설",
    "type": "어린이놀이시설",
    "address": "경상남도 창원시 성산구 신촌로 94 (신촌동)",
    "tel": "",
    "lat": 35.200998,
    "lng": 128.627916
  },
  {
    "name": "토월대동아파트 제1놀이터",
    "category": "어린이놀이시설",
    "type": "어린이놀이시설",
    "address": "경상남도 창원시 성산구 동산로 115 (상남동, 대동아파트)",
    "tel": "",
    "lat": 35.219621,
    "lng": 128.688856
  },
  {
    "name": "토월대동아파트 제2놀이터",
    "category": "어린이놀이시설",
    "type": "어린이놀이시설",
    "address": "경상남도 창원시 성산구 동산로 115 (상남동, 대동아파트)",
    "tel": "",
    "lat": 35.219621,
    "lng": 128.688856
  },
  {
    "name": "토월대동아파트 제3놀이터",
    "category": "어린이놀이시설",
    "type": "어린이놀이시설",
    "address": "경상남도 창원시 성산구 동산로 115 (상남동, 대동아파트)",
    "tel": "",
    "lat": 35.219621,
    "lng": 128.688856
  },
  {
    "name": "토월대동아파트 제4놀이터",
    "category": "어린이놀이시설",
    "type": "어린이놀이시설",
    "address": "경상남도 창원시 성산구 동산로 115 (상남동, 대동아파트)",
    "tel": "",
    "lat": 35.219621,
    "lng": 128.688856
  },
  {
    "name": "토월대동아파트 제5놀이터",
    "category": "어린이놀이시설",
    "type": "어린이놀이시설",
    "address": "경상남도 창원시 성산구 동산로 115 (상남동, 대동아파트)",
    "tel": "",
    "lat": 35.219621,
    "lng": 128.688856
  },
  {
    "name": "토월대동아파트 제6놀이터",
    "category": "어린이놀이시설",
    "type": "어린이놀이시설",
    "address": "경상남도 창원시 성산구 동산로 115 (상남동, 대동아파트)",
    "tel": "",
    "lat": 35.219621,
    "lng": 128.688856
  },
  {
    "name": "토월대동아파트 제7놀이터",
    "category": "어린이놀이시설",
    "type": "어린이놀이시설",
    "address": "경상남도 창원시 성산구 동산로 115 (상남동, 대동아파트)",
    "tel": "",
    "lat": 35.219621,
    "lng": 128.688856
  },
  {
    "name": "토월대동아파트 제8놀이터",
    "category": "어린이놀이시설",
    "type": "어린이놀이시설",
    "address": "경상남도 창원시 성산구 동산로 115 (상남동, 대동아파트)",
    "tel": "",
    "lat": 35.219621,
    "lng": 128.688856
  },
  {
    "name": "까치1차아파트 어린이놀이터",
    "category": "어린이놀이시설",
    "type": "어린이놀이시설",
    "address": "경상남도 창원시 성산구 창원천로 254 (반지동, 까치아파트)",
    "tel": "",
    "lat": 35.244706,
    "lng": 128.666679
  },
  {
    "name": "대방그린빌아파트 어린이놀이터2(유치원앞)",
    "category": "어린이놀이시설",
    "type": "어린이놀이시설",
    "address": "경상남도 창원시 성산구 대암로 256 (대방동, 대방그린빌아파트)",
    "tel": "",
    "lat": 35.205343,
    "lng": 128.710662
  },
  {
    "name": "창원대우아파트 놀이터1",
    "category": "어린이놀이시설",
    "type": "어린이놀이시설",
    "address": "경상남도 창원시 성산구 정동로162번길 81 (남산동, 대우아파트)",
    "tel": "",
    "lat": 35.200226,
    "lng": 128.700188
  },
  {
    "name": "창원대우아파트 놀이터2",
    "category": "어린이놀이시설",
    "type": "어린이놀이시설",
    "address": "경상남도 창원시 성산구 정동로162번길 81 (남산동, 대우아파트)",
    "tel": "",
    "lat": 35.200226,
    "lng": 128.700188
  },
  {
    "name": "동성2차아파트 어린이놀이터",
    "category": "어린이놀이시설",
    "type": "어린이놀이시설",
    "address": "경상남도 창원시 성산구 신촌로 63 (신촌동)",
    "tel": "",
    "lat": 35.204241,
    "lng": 128.628918
  },
  {
    "name": "동성빌라1차아파트 어린이놀이터",
    "category": "어린이놀이시설",
    "type": "어린이놀이시설",
    "address": "경상남도 창원시 성산구 신촌로 113 (신촌동)",
    "tel": "",
    "lat": 35.199456,
    "lng": 128.62942
  },
  {
    "name": "상림아파트 어린이놀이터",
    "category": "어린이놀이시설",
    "type": "어린이놀이시설",
    "address": "경상남도 창원시 성산구 신촌로 77 (신촌동)",
    "tel": "",
    "lat": 35.202926,
    "lng": 128.628875
  },
  {
    "name": "일성그라미아파트 어린이놀이터",
    "category": "어린이놀이시설",
    "type": "어린이놀이시설",
    "address": "경상남도 창원시 성산구 연덕로184번길 19 (내동, 일성그라미아파트)",
    "tel": "",
    "lat": 35.218429,
    "lng": 128.668103
  },
  {
    "name": "신촌성원아파트 어린이놀이터",
    "category": "어린이놀이시설",
    "type": "어린이놀이시설",
    "address": "경상남도 창원시 성산구 신촌로 123 (신촌동)",
    "tel": "",
    "lat": 35.197903,
    "lng": 128.629447
  },
  {
    "name": "창원대우2차아파트",
    "category": "어린이놀이시설",
    "type": "어린이놀이시설",
    "address": "경상남도 창원시 성산구 정동로162번길 31 (남산동, 대우아파트)",
    "tel": "",
    "lat": 35.204001,
    "lng": 128.693408
  },
  {
    "name": "시립웅남동어린이집 놀이터",
    "category": "어린이놀이시설",
    "type": "어린이놀이시설",
    "address": "경상남도 창원시 성산구 봉양로 412 (신촌동)",
    "tel": "",
    "lat": 35.207006,
    "lng": 128.627586
  },
  {
    "name": "개나리3차아파트 306동 놀이터",
    "category": "어린이놀이시설",
    "type": "어린이놀이시설",
    "address": "경상남도 창원시 성산구 대정로 100 (남양동, 개나리3차아파트)",
    "tel": "",
    "lat": 35.210633,
    "lng": 128.704244
  },
  {
    "name": "개나리3차아파트 301동 놀이터",
    "category": "어린이놀이시설",
    "type": "어린이놀이시설",
    "address": "경상남도 창원시 성산구 대정로 100 (남양동, 개나리3차아파트)",
    "tel": "",
    "lat": 35.210633,
    "lng": 128.704244
  },
  {
    "name": "개나리3차아파트 관리동 놀이터",
    "category": "어린이놀이시설",
    "type": "어린이놀이시설",
    "address": "경상남도 창원시 성산구 대정로 100 (남양동, 개나리3차아파트)",
    "tel": "",
    "lat": 35.210633,
    "lng": 128.704244
  },
  {
    "name": "대원레포츠공원 놀이터",
    "category": "어린이놀이시설",
    "type": "어린이놀이시설",
    "address": "경상남도 창원시 성산구 자전거길13번길 3 (대원동)",
    "tel": "",
    "lat": 35.23261,
    "lng": 128.647238
  },
  {
    "name": "창원시립가음어린이집",
    "category": "어린이놀이시설",
    "type": "어린이놀이시설",
    "address": "경상남도 창원시 성산구 가양로56번길 18 (가음동)",
    "tel": "",
    "lat": 35.205733,
    "lng": 128.70181
  },
  {
    "name": "동성아파트 116동 놀이터",
    "category": "어린이놀이시설",
    "type": "어린이놀이시설",
    "address": "경상남도 창원시 성산구 창이대로 737 (사파동, 사파동성아파트)",
    "tel": "",
    "lat": 35.219486,
    "lng": 128.703899
  },
  {
    "name": "창원 은아아파트",
    "category": "어린이놀이시설",
    "type": "어린이놀이시설",
    "address": "경상남도 창원시 성산구 원이대로883번길 6 (가음동, 은아아파트)",
    "tel": "",
    "lat": 35.206952,
    "lng": 128.694494
  },
  {
    "name": "창원시 삼동 가족피크닉장",
    "category": "어린이놀이시설",
    "type": "어린이놀이시설",
    "address": null,
    "tel": "",
    "lat": 0.0,
    "lng": 0.0
  },
  {
    "name": "동원로얄듀크아파트 어린이놀이터1",
    "category": "어린이놀이시설",
    "type": "어린이놀이시설",
    "address": "경상남도 창원시 성산구 신촌로 130 (신촌동, 창원 신촌동원로얄듀크)",
    "tel": "",
    "lat": 35.198576,
    "lng": 128.628625
  },
  {
    "name": "동원로얄듀크아파트 어린이놀이터2",
    "category": "어린이놀이시설",
    "type": "어린이놀이시설",
    "address": "경상남도 창원시 성산구 신촌로 130 (신촌동, 창원 신촌동원로얄듀크)",
    "tel": "",
    "lat": 35.198577,
    "lng": 128.628568
  },
  {
    "name": "남양초등학교 어린이놀이시설",
    "category": "어린이놀이시설",
    "type": "어린이놀이시설",
    "address": "경상남도 창원시 성산구 가음로13번길 5 (남양동)",
    "tel": "",
    "lat": 35.212168,
    "lng": 128.6983
  },
  {
    "name": "새풀잎어린이집",
    "category": "어린이놀이시설",
    "type": "어린이놀이시설",
    "address": "경상남도 창원시 성산구 신촌로134번길 43 (신촌동)",
    "tel": "",
    "lat": 35.196893,
    "lng": 128.624768
  },
  {
    "name": "창원상남초등학교 병설유치원 어린이놀이시설",
    "category": "어린이놀이시설",
    "type": "어린이놀이시설",
    "address": "경상남도 창원시 성산구 토월로 140 (상남동)",
    "tel": "",
    "lat": 35.221618,
    "lng": 128.6893
  },
  {
    "name": "대동그린파크1놀이시설 101동앞",
    "category": "어린이놀이시설",
    "type": "어린이놀이시설",
    "address": "경상남도 창원시 성산구 창원천로 292 (반지동, 대동아파트)",
    "tel": "",
    "lat": 35.244939,
    "lng": 128.670392
  },
  {
    "name": "대동그린파크2놀이시설 111동앞",
    "category": "어린이놀이시설",
    "type": "어린이놀이시설",
    "address": "경상남도 창원시 성산구 창원천로 292 (반지동, 대동아파트)",
    "tel": "",
    "lat": 35.244939,
    "lng": 128.670392
  },
  {
    "name": "소라아파트 놀이터",
    "category": "어린이놀이시설",
    "type": "어린이놀이시설",
    "address": "경상남도 창원시 성산구 성산패총로178번길 51 (가음정동, 소라아파트)",
    "tel": "",
    "lat": 35.207518,
    "lng": 128.687275
  },
  {
    "name": "창원외동 월드메르디앙 104동 앞",
    "category": "어린이놀이시설",
    "type": "어린이놀이시설",
    "address": "경상남도 창원시 성산구 창원대로780번길 32 (외동)",
    "tel": "",
    "lat": 35.212942,
    "lng": 128.676417
  },
  {
    "name": "창원 내동 월드메르디앙 놀이터",
    "category": "어린이놀이시설",
    "type": "어린이놀이시설",
    "address": "경상남도 창원시 성산구 삼동로128번길 24 (내동, 월드메르디앙웨스턴애비뉴)",
    "tel": "",
    "lat": 35.223762,
    "lng": 128.658195
  },
  {
    "name": "성원아파트1단지 어린이놀이터 (104동)",
    "category": "어린이놀이시설",
    "type": "어린이놀이시설",
    "address": "경상남도 창원시 성산구 원이대로 774 (상남동, 성원아파트)",
    "tel": "",
    "lat": 35.216254,
    "lng": 128.692526
  },
  {
    "name": "성원아파트1단지 어린이놀이터 (105동)",
    "category": "어린이놀이시설",
    "type": "어린이놀이시설",
    "address": "경상남도 창원시 성산구 원이대로 774 (상남동, 성원아파트)",
    "tel": "",
    "lat": 35.216254,
    "lng": 128.692526
  },
  {
    "name": "양곡초등학교 어린이놀이시설",
    "category": "어린이놀이시설",
    "type": "어린이놀이시설",
    "address": "경상남도 창원시 성산구 양곡길 102 (신촌동)",
    "tel": "",
    "lat": 35.202112,
    "lng": 128.626856
  },
  {
    "name": "성원1차 아파트 (105동)",
    "category": "어린이놀이시설",
    "type": "어린이놀이시설",
    "address": "경상남도 창원시 성산구 대정로 73 (남양동, 성원1차아파트)",
    "tel": "",
    "lat": 35.211371,
    "lng": 128.700032
  },
  {
    "name": "대원파크빌아파트 제2놀이터",
    "category": "어린이놀이시설",
    "type": "어린이놀이시설",
    "address": "경상남도 창원시 의창구 삼동로 125 (대원동)",
    "tel": "",
    "lat": 35.225324,
    "lng": 128.65534
  },
  {
    "name": "숲과샘어린이집 놀이터",
    "category": "어린이놀이시설",
    "type": "어린이놀이시설",
    "address": "경상남도 창원시 성산구 양곡길 104 (양곡동)",
    "tel": "",
    "lat": 35.201124,
    "lng": 128.627086
  },
  {
    "name": "유목초등학교 어린이놀이시설",
    "category": "어린이놀이시설",
    "type": "어린이놀이시설",
    "address": "경상남도 창원시 성산구 반송로29번길 15 (반지동)",
    "tel": "",
    "lat": 35.244493,
    "lng": 128.662938
  },
  {
    "name": "동성아파트 111동 놀이터",
    "category": "어린이놀이시설",
    "type": "어린이놀이시설",
    "address": "경상남도 창원시 성산구 창이대로 737 (사파동, 사파동성아파트)",
    "tel": "",
    "lat": 35.219486,
    "lng": 128.703899
  },
  {
    "name": "창원럭키반림아파트 내 어린이놀이터",
    "category": "어린이놀이시설",
    "type": "어린이놀이시설",
    "address": "경상남도 창원시 성산구 반송로 105(반림동, 럭키반림아파트)",
    "tel": "",
    "lat": 35.238897,
    "lng": 128.668338
  },
  {
    "name": "외동초등학교 병설유치원 어린이놀이시설",
    "category": "어린이놀이시설",
    "type": "어린이놀이시설",
    "address": "경상남도 창원시 성산구 토월로43번길 22 (상남동)",
    "tel": "",
    "lat": 35.216698,
    "lng": 128.681527
  },
  {
    "name": "프리빌리지2차아파트 어린이놀이터1(207동 앞)",
    "category": "어린이놀이시설",
    "type": "어린이놀이시설",
    "address": "경상남도 창원시 성산구 창원대로1209번길 22 (성주동, 프리빌리지2차)",
    "tel": "",
    "lat": 35.194699,
    "lng": 128.717863
  },
  {
    "name": "프리빌리지2차아파트 어린이놀이터2(205동 앞)",
    "category": "어린이놀이시설",
    "type": "어린이놀이시설",
    "address": "경상남도 창원시 성산구 창원대로1209번길 22 (성주동, 프리빌리지2차)",
    "tel": "",
    "lat": 35.194699,
    "lng": 128.717863
  },
  {
    "name": "프리빌리지2차아파트 유아놀이터",
    "category": "어린이놀이시설",
    "type": "어린이놀이시설",
    "address": "경상남도 창원시 성산구 창원대로1209번길 22 (성주동, 프리빌리지2차)",
    "tel": "",
    "lat": 35.194699,
    "lng": 128.717863
  },
  {
    "name": "토월유치원 어린이놀이시설",
    "category": "어린이놀이시설",
    "type": "어린이놀이시설",
    "address": "경상남도 창원시 성산구 비음로4번길 33-11 (사파동)",
    "tel": "",
    "lat": 35.227451,
    "lng": 128.699613
  },
  {
    "name": "피오르빌아파트(205동)",
    "category": "어린이놀이시설",
    "type": "어린이놀이시설",
    "address": "경상남도 창원시 성산구 대정로 84 (남양동, 피오르빌아파트)",
    "tel": "",
    "lat": 35.209674,
    "lng": 128.701894
  },
  {
    "name": "피오르빌아파트(202동)",
    "category": "어린이놀이시설",
    "type": "어린이놀이시설",
    "address": "경상남도 창원시 성산구 대정로 84 (남양동, 피오르빌아파트)",
    "tel": "",
    "lat": 35.209674,
    "lng": 128.701894
  },
  {
    "name": "피오르빌아파트(207동)",
    "category": "어린이놀이시설",
    "type": "어린이놀이시설",
    "address": "경상남도 창원시 성산구 대정로 84 (남양동, 피오르빌아파트)",
    "tel": "",
    "lat": 35.209674,
    "lng": 128.701894
  },
  {
    "name": "용호 무학아파트 1놀이터",
    "category": "어린이놀이시설",
    "type": "어린이놀이시설",
    "address": "경상남도 창원시 의창구 외동반림로 200 (용호동)",
    "tel": "",
    "lat": 35.234807,
    "lng": 128.678064
  },
  {
    "name": "용호 무학아파트 2놀이터",
    "category": "어린이놀이시설",
    "type": "어린이놀이시설",
    "address": "경상남도 창원시 의창구 외동반림로 200 (용호동)",
    "tel": "",
    "lat": 35.234799,
    "lng": 128.677118
  },
  {
    "name": "성원1차 아파트 (102동)",
    "category": "어린이놀이시설",
    "type": "어린이놀이시설",
    "address": "경상남도 창원시 성산구 대정로 73 (남양동, 성원1차아파트)",
    "tel": "",
    "lat": 35.211371,
    "lng": 128.700032
  },
  {
    "name": "성원1차아파트 (109동)",
    "category": "어린이놀이시설",
    "type": "어린이놀이시설",
    "address": "경상남도 창원시 성산구 대정로 73 (남양동, 성원1차아파트)",
    "tel": "",
    "lat": 35.211371,
    "lng": 128.700032
  },
  {
    "name": "대원파크빌아파트 제1놀이터",
    "category": "어린이놀이시설",
    "type": "어린이놀이시설",
    "address": "경상남도 창원시 의창구 삼동로 121 (대원동, 대원파크빌아파트)",
    "tel": "",
    "lat": 35.225205,
    "lng": 128.655245
  },
  {
    "name": "용지초등학교 병설유치원 어린이놀이시설",
    "category": "어린이놀이시설",
    "type": "어린이놀이시설",
    "address": "경상남도 창원시 성산구 원이대로538번길 24 (중앙동)",
    "tel": "",
    "lat": 35.229393,
    "lng": 128.672237
  },
  {
    "name": "창원시립 창원YWCA어린이집 놀이터",
    "category": "어린이놀이시설",
    "type": "어린이놀이시설",
    "address": "경남 창원시 성산구 대정로20번길 11",
    "tel": "",
    "lat": 35.206147,
    "lng": 128.69911
  },
  {
    "name": "동성아파트 (102동) 제 1놀이터",
    "category": "어린이놀이시설",
    "type": "어린이놀이시설",
    "address": "경상남도 창원시 성산구 창이대로 737 (사파동, 사파동성아파트)",
    "tel": "",
    "lat": 35.219486,
    "lng": 128.703899
  },
  {
    "name": "동성아파트 (108동) 제 3놀이터",
    "category": "어린이놀이시설",
    "type": "어린이놀이시설",
    "address": "경상남도 창원시 성산구 창이대로 737 (사파동, 사파동성아파트)",
    "tel": "",
    "lat": 35.219486,
    "lng": 128.703899
  },
  {
    "name": "신우에이스타운 어린이놀이터",
    "category": "어린이놀이시설",
    "type": "어린이놀이시설",
    "address": "경상남도 창원시 성산구 안민안길 8 (안민동, 신우에이스타운)",
    "tel": "",
    "lat": 35.185687,
    "lng": 128.690875
  },
  {
    "name": "안민한스빌아파트 놀이터",
    "category": "어린이놀이시설",
    "type": "어린이놀이시설",
    "address": "경상남도 창원시 성산구 안민안길 1 (안민동, 안민한스빌아파트)",
    "tel": "",
    "lat": 35.185911,
    "lng": 128.69013
  },
  {
    "name": "창원동부산아이존빌 어린이 놀이터",
    "category": "어린이놀이시설",
    "type": "어린이놀이시설",
    "address": "경상남도 창원시 성산구 안민로117번길 3 (안민동, 동부산아이존빌)",
    "tel": "",
    "lat": 35.186495,
    "lng": 128.689074
  },
  {
    "name": "창원동성샛별아파트 놀이터",
    "category": "어린이놀이시설",
    "type": "어린이놀이시설",
    "address": "경상남도 창원시 성산구 연덕로184번길 5 (내동, 동성샛별아파트)",
    "tel": "",
    "lat": 35.218978,
    "lng": 128.667282
  },
  {
    "name": "피오르빌아파트(203동)",
    "category": "어린이놀이시설",
    "type": "어린이놀이시설",
    "address": "경상남도 창원시 성산구 대정로 84 (남양동, 피오르빌아파트)",
    "tel": "",
    "lat": 35.209674,
    "lng": 128.701894
  },
  {
    "name": "동성아파트 (105동) 제 2놀이터",
    "category": "어린이놀이시설",
    "type": "어린이놀이시설",
    "address": "경상남도 창원시 성산구 창이대로 737 (사파동, 사파동성아파트)",
    "tel": "",
    "lat": 35.219486,
    "lng": 128.703899
  },
  {
    "name": "여우비어린이공원",
    "category": "어린이놀이시설",
    "type": "어린이놀이시설",
    "address": "경상남도 창원시 성산구 원이대로552번길 23-4 (중앙동)",
    "tel": "",
    "lat": 35.227763,
    "lng": 128.674495
  },
  {
    "name": "해오름어린이공원",
    "category": "어린이놀이시설",
    "type": "어린이놀이시설",
    "address": "경상남도 창원시 성산구 신월로6번길 7 (신월동)",
    "tel": "",
    "lat": 35.230169,
    "lng": 128.689402
  },
  {
    "name": "신월어린이공원",
    "category": "어린이놀이시설",
    "type": "어린이놀이시설",
    "address": "경상남도 창원시 성산구 창이대로570번길 13-10 (신월동)",
    "tel": "",
    "lat": 35.231252,
    "lng": 128.692825
  },
  {
    "name": "창원시립 반송어린이집",
    "category": "어린이놀이시설",
    "type": "어린이놀이시설",
    "address": "경상남도 창원시 성산구 원이대로473번길 19-14 (반림동)",
    "tel": "",
    "lat": 35.235943,
    "lng": 128.669513
  },
  {
    "name": "동성아파트1단지 어린이놀이터",
    "category": "어린이놀이시설",
    "type": "어린이놀이시설",
    "address": "경상남도 창원시 성산구 신촌로 95 (신촌동)",
    "tel": "",
    "lat": 35.201339,
    "lng": 128.629241
  },
  {
    "name": "우성아파트 어린이놀이터 108동앞",
    "category": "어린이놀이시설",
    "type": "어린이놀이시설",
    "address": "경상남도 창원시 성산구 가음로13번길 15  (남양동)",
    "tel": "",
    "lat": 35.212174,
    "lng": 128.699218
  },
  {
    "name": "우성아파트 어린이놀이터 105동앞",
    "category": "어린이놀이시설",
    "type": "어린이놀이시설",
    "address": "경상남도 창원시 성산구 가음로13번길 15  (남양동)",
    "tel": "",
    "lat": 35.212174,
    "lng": 128.699218
  },
  {
    "name": "남양동성아파트(4동) 어린이놀이터",
    "category": "어린이놀이시설",
    "type": "어린이놀이시설",
    "address": "경상남도 창원시 성산구 대암로 64  (남양동, 상남동성아파트)",
    "tel": "",
    "lat": 35.214029,
    "lng": 128.703725
  },
  {
    "name": "남양동성아파트(6동)어린이놀이터",
    "category": "어린이놀이시설",
    "type": "어린이놀이시설",
    "address": "경상남도 창원시 성산구 대암로 64  (남양동, 상남동성아파트)",
    "tel": "",
    "lat": 35.214029,
    "lng": 128.703725
  },
  {
    "name": "사파무궁화아파트 어린이놀이터(6동앞)",
    "category": "어린이놀이시설",
    "type": "어린이놀이시설",
    "address": "경상남도 창원시 성산구 동산로 148 (사파동)",
    "tel": "",
    "lat": 35.220514,
    "lng": 128.693181
  },
  {
    "name": "사파무궁화아파트 어린이놀이터(16동옆)",
    "category": "어린이놀이시설",
    "type": "어린이놀이시설",
    "address": "경상남도 창원시 성산구 동산로 148 (사파동)",
    "tel": "",
    "lat": 35.220514,
    "lng": 128.693181
  },
  {
    "name": "트리비앙아파트 어린이놀이터3",
    "category": "어린이놀이시설",
    "type": "어린이놀이시설",
    "address": "경상남도 창원시 성산구 원이대로 495 (반림동)",
    "tel": "",
    "lat": 35.234606,
    "lng": 128.672084
  },
  {
    "name": "트리비앙아파트 어린이놀이터4",
    "category": "어린이놀이시설",
    "type": "어린이놀이시설",
    "address": "경상남도 창원시 성산구 원이대로 495 (반림동)",
    "tel": "",
    "lat": 35.234606,
    "lng": 128.672084
  },
  {
    "name": "노블파크놀이터 1공구2번 105동앞",
    "category": "어린이놀이시설",
    "type": "어린이놀이시설",
    "address": "경상남도 창원시 성산구 원이대로 449  (반림동, 노블파크아파트) ",
    "tel": "",
    "lat": 35.236601,
    "lng": 128.667466
  },
  {
    "name": "동부산아이존빌1단지 어린이놀이터",
    "category": "어린이놀이시설",
    "type": "어린이놀이시설",
    "address": "경상남도 창원시 성산구 신촌로 94 (신촌동)",
    "tel": "",
    "lat": 35.200998,
    "lng": 128.627916
  },
  {
    "name": "성원2차아파트 어린이놀이터2 (201동)",
    "category": "어린이놀이시설",
    "type": "어린이놀이시설",
    "address": "경상남도 창원시 성산구 대정로 99  (남양동, 성원2차아파트) ",
    "tel": "",
    "lat": 35.212368,
    "lng": 128.703255
  },
  {
    "name": "성원2차아파트 어린이놀이터1 (204동)",
    "category": "어린이놀이시설",
    "type": "어린이놀이시설",
    "address": "경상남도 창원시 성산구 대정로 99  (남양동, 성원2차아파트) ",
    "tel": "",
    "lat": 35.212368,
    "lng": 128.703255
  },
  {
    "name": "성원2차아파트 어린이놀이터4 (207동)",
    "category": "어린이놀이시설",
    "type": "어린이놀이시설",
    "address": "경상남도 창원시 성산구 대정로 99  (남양동, 성원2차아파트) ",
    "tel": "",
    "lat": 35.212368,
    "lng": 128.703255
  },
  {
    "name": "성원2차아파트 어린이놀이터3 (211동)",
    "category": "어린이놀이시설",
    "type": "어린이놀이시설",
    "address": "경상남도 창원시 성산구 대정로 99  (남양동, 성원2차아파트) ",
    "tel": "",
    "lat": 35.212368,
    "lng": 128.703255
  },
  {
    "name": "남양롯데아파트 어린이놀이터",
    "category": "어린이놀이시설",
    "type": "어린이놀이시설",
    "address": "경상남도 창원시 성산구 대암로 56  (남양동, 롯데아파트)",
    "tel": "",
    "lat": 35.213685,
    "lng": 128.70207
  },
  {
    "name": "볼보사원아파트 어린이놀이터",
    "category": "어린이놀이시설",
    "type": "어린이놀이시설",
    "address": "경상남도 창원시 성산구 신촌로134번길 9 (신촌동)",
    "tel": "",
    "lat": 35.196895,
    "lng": 128.627724
  },
  {
    "name": "삼익2차아파트 어린이놀이터",
    "category": "어린이놀이시설",
    "type": "어린이놀이시설",
    "address": "경상남도 창원시 성산구 원이대로773번길 13 (사파동)",
    "tel": "",
    "lat": 35.219143,
    "lng": 128.694608
  },
  {
    "name": "일신대동프리빌리지 놀이터2(105동앞)",
    "category": "어린이놀이시설",
    "type": "어린이놀이시설",
    "address": "경상남도 창원시 성산구 대암로 253  (성주동, 프리빌리지아파트)",
    "tel": "",
    "lat": 35.203314,
    "lng": 128.710408
  },
  {
    "name": "외동대동아파트 어린이놀이터",
    "category": "어린이놀이시설",
    "type": "어린이놀이시설",
    "address": "경상남도 창원시 성산구 창원대로780번길 47 (외동, 대동아파트)",
    "tel": "",
    "lat": 35.212211,
    "lng": 128.679165
  },
  {
    "name": "대방동성아파트 어린이놀이터",
    "category": "어린이놀이시설",
    "type": "어린이놀이시설",
    "address": "경상남도 창원시 성산구 대암로 282  (대방동, 대방동성아파트)",
    "tel": "",
    "lat": 35.204262,
    "lng": 128.70786
  },
  {
    "name": "삼익1차아파트 제2놀이터(관리소옆)",
    "category": "어린이놀이시설",
    "type": "어린이놀이시설",
    "address": "경상남도 창원시 성산구 원이대로773번길 13 (사파동)",
    "tel": "",
    "lat": 35.219143,
    "lng": 128.694608
  },
  {
    "name": "삼익1차아파트 제1놀이터(106동옆)",
    "category": "어린이놀이시설",
    "type": "어린이놀이시설",
    "address": "경상남도 창원시 성산구 원이대로773번길 13 (사파동)",
    "tel": "",
    "lat": 35.219143,
    "lng": 128.694608
  },
  {
    "name": "효성가든아파트 어린이놀이터",
    "category": "어린이놀이시설",
    "type": "어린이놀이시설",
    "address": "경상남도 창원시 성산구 신촌로134번길 5 (신촌동)",
    "tel": "",
    "lat": 35.197179,
    "lng": 128.628731
  },
  {
    "name": "사파대동2차아파트 어린이놀이터",
    "category": "어린이놀이시설",
    "type": "어린이놀이시설",
    "address": "경상남도 창원시 성산구 신사로 106 (사파동)",
    "tel": "",
    "lat": 35.220591,
    "lng": 128.695424
  },
  {
    "name": "광득미지루아파트 어린이놀이터",
    "category": "어린이놀이시설",
    "type": "어린이놀이시설",
    "address": "경상남도 창원시 성산구 창원대로780번길 77 (외동)",
    "tel": "",
    "lat": 35.210656,
    "lng": 128.681702
  },
  {
    "name": "양곡상가아파트 놀이터",
    "category": "어린이놀이시설",
    "type": "어린이놀이시설",
    "address": "경상남도 창원시 성산구 신촌로 102 (신촌동)",
    "tel": "",
    "lat": 35.199969,
    "lng": 128.628555
  },
  {
    "name": "대호타워아파트 어린이놀이터",
    "category": "어린이놀이시설",
    "type": "어린이놀이시설",
    "address": "경상남도 창원시 성산구 상남로24번길 13  (상남동, 상남대호타워아파트)",
    "tel": "",
    "lat": 35.217101,
    "lng": 128.677675
  },
  {
    "name": "개나리1차아파트 어린이놀이터(관리동앞)",
    "category": "어린이놀이시설",
    "type": "어린이놀이시설",
    "address": "경상남도 창원시 성산구 대정로 149  (대방동, 대방개나리1차아파트)",
    "tel": "",
    "lat": 35.213365,
    "lng": 128.708544
  },
  {
    "name": "럭키반림아파트 어린이놀이터(14동앞)",
    "category": "어린이놀이시설",
    "type": "어린이놀이시설",
    "address": "경상남도 창원시 성산구 반송로 105  (반림동, 럭키아파트)",
    "tel": "",
    "lat": 35.238897,
    "lng": 128.668338
  },
  {
    "name": "럭키반림아파트 어린이놀이터(2동옆)",
    "category": "어린이놀이시설",
    "type": "어린이놀이시설",
    "address": "경상남도 창원시 성산구 반송로 105  (반림동, 럭키아파트)",
    "tel": "",
    "lat": 35.238897,
    "lng": 128.668338
  },
  {
    "name": "상남대우아파트 어린이놀이터1",
    "category": "어린이놀이시설",
    "type": "어린이놀이시설",
    "address": "경상남도 창원시 성산구 상남로 48 (상남동)",
    "tel": "",
    "lat": 35.217911,
    "lng": 128.679865
  },
  {
    "name": "상남대우아파트 어린이놀이터2",
    "category": "어린이놀이시설",
    "type": "어린이놀이시설",
    "address": "경상남도 창원시 성산구 상남로 48 (상남동)",
    "tel": "",
    "lat": 35.217911,
    "lng": 128.679865
  },
  {
    "name": "성원3차아파트 어린이놀이터(304동앞)",
    "category": "어린이놀이시설",
    "type": "어린이놀이시설",
    "address": "경상남도 창원시 성산구 대암로 82  (대방동, 성원3차아파트)",
    "tel": "",
    "lat": 35.21468,
    "lng": 128.707211
  },
  {
    "name": "사파동서아파트 어린이놀이터",
    "category": "어린이놀이시설",
    "type": "어린이놀이시설",
    "address": "경상남도 창원시 성산구 신사로 116 (사파동)",
    "tel": "",
    "lat": 35.221491,
    "lng": 128.695702
  },
  {
    "name": "은아아파트 어린이놀이터(108동옆)",
    "category": "어린이놀이시설",
    "type": "어린이놀이시설",
    "address": "경상남도 창원시 의창구 원이대로 663  (신월동, 은아아파트)",
    "tel": "",
    "lat": 35.225614,
    "lng": 128.687439
  },
  {
    "name": "유목초등학교 병설유치원 어린이놀이시설",
    "category": "어린이놀이시설",
    "type": "어린이놀이시설",
    "address": "경상남도 창원시 성산구 반송로29번길 15 (반지동)",
    "tel": "",
    "lat": 35.244493,
    "lng": 128.662938
  },
  {
    "name": "은아아파트 어린이놀이터(204동옆)",
    "category": "어린이놀이시설",
    "type": "어린이놀이시설",
    "address": "경상남도 창원시 의창구 원이대로 663  (신월동, 은아아파트)",
    "tel": "",
    "lat": 35.225272,
    "lng": 128.687532
  },
  {
    "name": "은아아파트 어린이놀이터(216동옆)",
    "category": "어린이놀이시설",
    "type": "어린이놀이시설",
    "address": "경상남도 창원시 의창구 원이대로 663  (신월동, 은아아파트)",
    "tel": "",
    "lat": 35.22566,
    "lng": 128.687417
  },
  {
    "name": "하늘빛유치원 어린이놀이시설",
    "category": "어린이놀이시설",
    "type": "어린이놀이시설",
    "address": "경상남도 창원시 성산구 동산로 115 (상남동, 대동아파트)",
    "tel": "",
    "lat": 35.219621,
    "lng": 128.688856
  },
  {
    "name": "동성아이별꽃유치원 어린이놀이시설",
    "category": "어린이놀이시설",
    "type": "어린이놀이시설",
    "address": "경상남도 창원시 성산구 창이대로 737 (사파동, 사파동성아파트)",
    "tel": "",
    "lat": 35.219486,
    "lng": 128.703899
  },
  {
    "name": "용호롯데아파트1단지 어린이놀이터",
    "category": "어린이놀이시설",
    "type": "어린이놀이시설",
    "address": "경남 창원시 성산구 용지로 229",
    "tel": "",
    "lat": 35.234208,
    "lng": 128.684472
  },
  {
    "name": "이레유치원 어린이놀이시설(2022.3.1.~ 휴원)",
    "category": "어린이놀이시설",
    "type": "어린이놀이시설",
    "address": "경상남도 창원시 성산구 대정로 32 (가음동)",
    "tel": "",
    "lat": 35.206982,
    "lng": 128.698478
  },
  {
    "name": "용호롯데아파트2단지 어린이놀이터",
    "category": "어린이놀이시설",
    "type": "어린이놀이시설",
    "address": "경상남도 창원시 의창구 용지로239번길 19-30 (용호동, 롯데아파트)",
    "tel": "",
    "lat": 35.23514,
    "lng": 128.682472
  },
  {
    "name": "일동아파트 어린이놀이터",
    "category": "어린이놀이시설",
    "type": "어린이놀이시설",
    "address": "경상남도 창원시 의창구 외동반림로 216 (용호동)",
    "tel": "",
    "lat": 35.22719,
    "lng": 128.651881
  },
  {
    "name": "남정초등학교 어린이놀이시설",
    "category": "어린이놀이시설",
    "type": "어린이놀이시설",
    "address": "경남 창원시 성산구 원이대로878번길 30",
    "tel": "",
    "lat": 35.21131,
    "lng": 128.691913
  },
  {
    "name": "내동초등학교 어린이놀이시설",
    "category": "어린이놀이시설",
    "type": "어린이놀이시설",
    "address": "경상남도 창원시 성산구 두대로 185 (중앙동)",
    "tel": "",
    "lat": 35.226026,
    "lng": 128.662354
  },
  {
    "name": "대방초등학교 어린이놀이시설(병설유치원 겸용)",
    "category": "어린이놀이시설",
    "type": "어린이놀이시설",
    "address": "경상남도 창원시 성산구 대정로 132 (대방동)",
    "tel": "",
    "lat": 35.211661,
    "lng": 128.706653
  },
  {
    "name": "대암초등학교 어린이놀이시설",
    "category": "어린이놀이시설",
    "type": "어린이놀이시설",
    "address": "경상남도 창원시 성산구 창이대로899번길 23 (대방동)",
    "tel": "",
    "lat": 35.206238,
    "lng": 128.709613
  },
  {
    "name": "반송초등학교 어린이놀이시설",
    "category": "어린이놀이시설",
    "type": "어린이놀이시설",
    "address": "경상남도 창원시 성산구 반송로 133 (반림동)",
    "tel": "",
    "lat": 35.237368,
    "lng": 128.670725
  },
  {
    "name": "삼정자초등학교 어린이놀이시설(병설유치원 겸용)",
    "category": "어린이놀이시설",
    "type": "어린이놀이시설",
    "address": "경상남도 창원시 성산구 외리로34번길 8 (삼정자동)",
    "tel": "",
    "lat": 35.200875,
    "lng": 128.709581
  },
  {
    "name": "안남초등학교 어린이놀이시설",
    "category": "어린이놀이시설",
    "type": "어린이놀이시설",
    "address": "경상남도 창원시 성산구 가양로 158 (대방동)",
    "tel": "",
    "lat": 35.209701,
    "lng": 128.710287
  },
  {
    "name": "용호초등학교 어린이놀이시설",
    "category": "어린이놀이시설",
    "type": "어린이놀이시설",
    "address": "경남 창원시 성산구 용지로169번길 76",
    "tel": "",
    "lat": 35.234126,
    "lng": 128.675537
  },
  {
    "name": "웅남초등학교 어린이놀이시설",
    "category": "어린이놀이시설",
    "type": "어린이놀이시설",
    "address": "경상남도 창원시 성산구 단정로 75 (상남동)",
    "tel": "",
    "lat": 35.218318,
    "lng": 128.688238
  },
  {
    "name": "창원신월초등학교 병설유치원 어린이놀이시설",
    "category": "어린이놀이시설",
    "type": "어린이놀이시설",
    "address": "경상남도 창원시 의창구 신월로72번길 12 (신월동)",
    "tel": "",
    "lat": 0.0,
    "lng": 0.0
  },
  {
    "name": "토월초등학교 어린이놀이시설",
    "category": "어린이놀이시설",
    "type": "어린이놀이시설",
    "address": "경남 창원시 성산구 비음로4번길 33-11",
    "tel": "",
    "lat": 35.227451,
    "lng": 128.699613
  },
  {
    "name": "동산초등학교 어린이놀이시설",
    "category": "어린이놀이시설",
    "type": "어린이놀이시설",
    "address": "경상남도 창원시 성산구 단정로 126 (상남동)",
    "tel": "",
    "lat": 35.214101,
    "lng": 128.6901
  },
  {
    "name": "이바돔감자탕(용호동)",
    "category": "어린이놀이시설",
    "type": "어린이놀이시설",
    "address": "경남 창원시 성산구 용지로169번길 15",
    "tel": "",
    "lat": 35.230642,
    "lng": 128.680697
  },
  {
    "name": "대방대동아파트 101동 놀이터",
    "category": "어린이놀이시설",
    "type": "어린이놀이시설",
    "address": "경상남도 창원시 성산구 대정로 142 (대방동, 대방대동아파트)",
    "tel": "",
    "lat": 35.211021,
    "lng": 128.709202
  },
  {
    "name": "대방대동아파트 105동 놀이터",
    "category": "어린이놀이시설",
    "type": "어린이놀이시설",
    "address": "경상남도 창원시 성산구 대정로 142 (대방동, 대방대동아파트)",
    "tel": "",
    "lat": 35.211021,
    "lng": 128.709202
  },
  {
    "name": "대방대동아파트 107동 놀이터",
    "category": "어린이놀이시설",
    "type": "어린이놀이시설",
    "address": "경상남도 창원시 성산구 대정로 142 (대방동, 대방대동아파트)",
    "tel": "",
    "lat": 35.211021,
    "lng": 128.709202
  },
  {
    "name": "용남초등학교 어린이놀이시설",
    "category": "어린이놀이시설",
    "type": "어린이놀이시설",
    "address": "경상남도 창원시 의창구 용호로 65 (용호동)",
    "tel": "",
    "lat": 35.235767,
    "lng": 128.680141
  },
  {
    "name": "창원시립대방어린이집",
    "category": "어린이놀이시설",
    "type": "어린이놀이시설",
    "address": "경상남도 창원시 성산구 대암로 268 (대방동)",
    "tel": "",
    "lat": 35.20405,
    "lng": 128.709273
  },
  {
    "name": "창원시립대원어린이집",
    "category": "어린이놀이시설",
    "type": "어린이놀이시설",
    "address": "경상남도 창원시 성산구 대원로27번길 34 (대원동)",
    "tel": "",
    "lat": 35.232712,
    "lng": 128.649993
  },
  {
    "name": "창원시립용지어린이집",
    "category": "어린이놀이시설",
    "type": "어린이놀이시설",
    "address": "경상남도 창원시 성산구 용지로239번길 19-4 (용호동)",
    "tel": "",
    "lat": 35.236228,
    "lng": 128.684129
  },
  {
    "name": "창원시립상남어린이집",
    "category": "어린이놀이시설",
    "type": "어린이놀이시설",
    "address": "경상남도 창원시 성산구 마디미로73번길 14 (상남동)",
    "tel": "",
    "lat": 35.218722,
    "lng": 128.682703
  },
  {
    "name": "반송공원(현대A'뒤)",
    "category": "어린이놀이시설",
    "type": "어린이놀이시설",
    "address": "경상남도 창원시 성산구 반송로 177 (반림동, 현대아파트)",
    "tel": "",
    "lat": 35.237194,
    "lng": 128.675117
  },
  {
    "name": "반송공원(럭키A'뒤)",
    "category": "어린이놀이시설",
    "type": "어린이놀이시설",
    "address": "경상남도 창원시 성산구 반송로 105 (반림동, 럭키반림아파트)",
    "tel": "",
    "lat": 35.238897,
    "lng": 128.668338
  },
  {
    "name": "용지문화공원",
    "category": "어린이놀이시설",
    "type": "어린이놀이시설",
    "address": "경상남도 창원시 성산구 중앙대로186번길 13 (신월동)",
    "tel": "",
    "lat": 35.229308,
    "lng": 128.687084
  },
  {
    "name": "창원시립 내동어린이집 놀이터",
    "category": "어린이놀이시설",
    "type": "어린이놀이시설",
    "address": "경상남도 창원시 성산구 창원대로 716",
    "tel": "",
    "lat": 35.217578,
    "lng": 128.66952
  },
  {
    "name": "창원시립남산어린이집",
    "category": "어린이놀이시설",
    "type": "어린이놀이시설",
    "address": "경상남도 창원시 성산구 삼정자로 110 (성주동)",
    "tel": "",
    "lat": 35.196822,
    "lng": 128.716378
  },
  {
    "name": "남산녹지",
    "category": "어린이놀이시설",
    "type": "어린이놀이시설",
    "address": "경상남도 창원시 성산구 가음로92번길 34 (가음동)",
    "tel": "",
    "lat": 35.203617,
    "lng": 128.700565
  },
  {
    "name": "가음정체육공원",
    "category": "어린이놀이시설",
    "type": "어린이놀이시설",
    "address": "경상남도 창원시 성산구 가음정로43번길 10-5 (가음동, 두산중공업사원아파트)",
    "tel": "",
    "lat": 35.1546,
    "lng": 129.0648
  },
  {
    "name": "내동녹지",
    "category": "어린이놀이시설",
    "type": "어린이놀이시설",
    "address": "경상남도 창원시 성산구 두대로 259-5 (내동)",
    "tel": "",
    "lat": 35.220836,
    "lng": 128.668129
  },
  {
    "name": "88올림픽공원",
    "category": "어린이놀이시설",
    "type": "어린이놀이시설",
    "address": "경상남도 창원시 성산구 두대로 198 (중앙동)",
    "tel": "",
    "lat": 35.224405,
    "lng": 128.661746
  },
  {
    "name": "대동한솔아파트(103동)",
    "category": "어린이놀이시설",
    "type": "어린이놀이시설",
    "address": "경상남도 창원시 성산구 안민로 161 (안민동，한솔마을대동아파트)",
    "tel": "",
    "lat": 35.185506,
    "lng": 128.69215
  },
  {
    "name": "대동한솔아파트(104동)",
    "category": "어린이놀이시설",
    "type": "어린이놀이시설",
    "address": "경상남도 창원시 성산구 안민로 161 (안민동，한솔마을대동아파트)",
    "tel": "",
    "lat": 35.185506,
    "lng": 128.69215
  },
  {
    "name": "안민초등학교 어린이놀이시설",
    "category": "어린이놀이시설",
    "type": "어린이놀이시설",
    "address": "경상남도 창원시 성산구 안민로79번길 6 (안민동)",
    "tel": "",
    "lat": 35.18726,
    "lng": 128.6875
  },
  {
    "name": "통도사유치원 어린이놀이시설",
    "category": "어린이놀이시설",
    "type": "어린이놀이시설",
    "address": "경상남도 창원시 성산구 원이대로 776 (상남동)",
    "tel": "",
    "lat": 35.216421,
    "lng": 128.693964
  },
  {
    "name": "현대배꽃유치원 어린이놀이시설",
    "category": "어린이놀이시설",
    "type": "어린이놀이시설",
    "address": "경상남도 창원시 성산구 외동반림로 219 (반림동, 현대아파트)",
    "tel": "",
    "lat": 35.238183,
    "lng": 128.676517
  },
  {
    "name": "사파초등학교 어린이놀이시설",
    "category": "어린이놀이시설",
    "type": "어린이놀이시설",
    "address": "경상남도 창원시 성산구 원이대로773번길 27 (사파동)",
    "tel": "",
    "lat": 35.220031,
    "lng": 128.697366
  },
  {
    "name": "성주초등학교 어린이놀이시설",
    "category": "어린이놀이시설",
    "type": "어린이놀이시설",
    "address": "경상남도 창원시 성산구 가음정로 127 (가음동)",
    "tel": "",
    "lat": 35.205485,
    "lng": 128.697837
  },
  {
    "name": "용지초등학교 어린이놀이시설",
    "category": "어린이놀이시설",
    "type": "어린이놀이시설",
    "address": "경상남도 창원시 성산구 원이대로538번길 24 (중앙동)",
    "tel": "",
    "lat": 35.229393,
    "lng": 128.672237
  },
  {
    "name": "창원천광학교 어린이놀이시설",
    "category": "어린이놀이시설",
    "type": "어린이놀이시설",
    "address": "경남 창원시 성산구 원이대로878번길 20",
    "tel": "",
    "lat": 35.210669,
    "lng": 128.692916
  },
  {
    "name": "양곡초등학교 병설유치원 어린이놀이시설",
    "category": "어린이놀이시설",
    "type": "어린이놀이시설",
    "address": "경상남도 창원시 성산구 양곡길 102 (신촌동)",
    "tel": "",
    "lat": 35.202112,
    "lng": 128.626856
  },
  {
    "name": "현대예닮유치원 어린이놀이시설",
    "category": "어린이놀이시설",
    "type": "어린이놀이시설",
    "address": "경상남도 창원시 성산구 반송로 177 (반림동, 현대아파트)",
    "tel": "",
    "lat": 35.237194,
    "lng": 128.675117
  },
  {
    "name": "도솔유치원 어린이놀이시설",
    "category": "어린이놀이시설",
    "type": "어린이놀이시설",
    "address": "경상남도 창원시 성산구 원이대로 774 (상남동, 성원아파트)",
    "tel": "",
    "lat": 35.216254,
    "lng": 128.692526
  },
  {
    "name": "신비하나름유치원 어린이놀이시설",
    "category": "어린이놀이시설",
    "type": "어린이놀이시설",
    "address": "경상남도 창원시 성산구 반송로 107 (반림동)",
    "tel": "",
    "lat": 35.238103,
    "lng": 128.668032
  },
  {
    "name": "성주유치원 어린이놀이시설",
    "category": "어린이놀이시설",
    "type": "어린이놀이시설",
    "address": "경상남도 창원시 성산구 안민안길11번길 13 (안민동)",
    "tel": "",
    "lat": 35.186763,
    "lng": 128.68997
  },
  {
    "name": "중앙체육공원",
    "category": "어린이놀이시설",
    "type": "어린이놀이시설",
    "address": "경상남도 창원시 성산구 상남로 25 (상남동)",
    "tel": "",
    "lat": 35.217092,
    "lng": 128.676716
  },
  {
    "name": "동성피노키오어린이집 놀이터",
    "category": "어린이놀이시설",
    "type": "어린이놀이시설",
    "address": "경상남도 창원시 성산구 창이대로 737 (사파동, 사파동성아파트)",
    "tel": "",
    "lat": 35.219205,
    "lng": 128.70387
  },
  {
    "name": "한화에어로스페이스 어린이집 놀이터",
    "category": "어린이놀이시설",
    "type": "어린이놀이시설",
    "address": "경상남도 창원시 성산구 정동로 84 (성주동)",
    "tel": "",
    "lat": 35.198538,
    "lng": 128.687117
  },
  {
    "name": "성주어린이공원",
    "category": "어린이놀이시설",
    "type": "어린이놀이시설",
    "address": "경상남도 창원시 성산구 삼정자로 78 (성주동, 성주 효성해링턴 코트)",
    "tel": "",
    "lat": 35.196209,
    "lng": 128.714988
  },
  {
    "name": "창원시청어린이집",
    "category": "어린이놀이시설",
    "type": "어린이놀이시설",
    "address": "경상남도 창원시 성산구 중앙대로 151 (용호동)",
    "tel": "",
    "lat": 35.227877,
    "lng": 128.681875
  },
  {
    "name": "예명몬테소리어린이집",
    "category": "어린이놀이시설",
    "type": "어린이놀이시설",
    "address": "경상남도 창원시 성산구 대암로 56-1 (남양동)",
    "tel": "",
    "lat": 35.214198,
    "lng": 128.702513
  },
  {
    "name": "청석어린이공원 놀이터",
    "category": "어린이놀이시설",
    "type": "어린이놀이시설",
    "address": "경상남도 창원시 성산구 반송로61번길 10 (반지동)",
    "tel": "",
    "lat": 35.24109,
    "lng": 128.664292
  },
  {
    "name": "삼성빌라아파트",
    "category": "어린이놀이시설",
    "type": "어린이놀이시설",
    "address": "경상남도 창원시 성산구 신촌로134번길 23 (신촌동, 삼성빌라)",
    "tel": "",
    "lat": 35.196951,
    "lng": 128.626263
  },
  {
    "name": "유니온빌리지아파트 102동",
    "category": "어린이놀이시설",
    "type": "어린이놀이시설",
    "address": "경상남도 창원시 성산구 삼정자로 79  (성주동, 유니온빌리지아파트)",
    "tel": "",
    "lat": 35.200488,
    "lng": 128.720136
  },
  {
    "name": "비앤지스틸사원아파트어린이놀이터",
    "category": "어린이놀이시설",
    "type": "어린이놀이시설",
    "address": "경상남도 창원시 성산구 창원대로780번길 31 (외동, 현대비앤지스틸(주)외동사원아파트)",
    "tel": "",
    "lat": 35.213001,
    "lng": 128.677625
  },
  {
    "name": "성주한림푸르지오아파트101동오린이놀이터",
    "category": "어린이놀이시설",
    "type": "어린이놀이시설",
    "address": "경상남도 창원시 성산구 외리로34번길 13  (성주동, 한림푸르지오아파트)",
    "tel": "",
    "lat": 35.201705,
    "lng": 128.709935
  },
  {
    "name": "성주한림푸르지오아파트107동어린이놀이터",
    "category": "어린이놀이시설",
    "type": "어린이놀이시설",
    "address": "경상남도 창원시 성산구 외리로34번길 13  (성주동, 한림푸르지오아파트)",
    "tel": "",
    "lat": 35.201708,
    "lng": 128.709796
  },
  {
    "name": "낙동강유역환경청다솜어린이집",
    "category": "어린이놀이시설",
    "type": "어린이놀이시설",
    "address": "경상남도 창원시 성산구 중앙대로250번길 5 (신월동)",
    "tel": "",
    "lat": 35.234926,
    "lng": 128.690262
  },
  {
    "name": "쌍용자동차사원아파트 놀이터",
    "category": "어린이놀이시설",
    "type": "어린이놀이시설",
    "address": "경상남도 창원시 성산구 정동로162번길 70 (남산동)",
    "tel": "",
    "lat": 35.20108,
    "lng": 128.697522
  },
  {
    "name": "에코센트럴빌",
    "category": "어린이놀이시설",
    "type": "어린이놀이시설",
    "address": "경상남도 창원시 성산구 창원대로780번길 41 (외동, 에코센트럴빌)",
    "tel": "",
    "lat": 35.212654,
    "lng": 128.678092
  },
  {
    "name": "효성해링턴코트 104동 놀이터",
    "category": "어린이놀이시설",
    "type": "어린이놀이시설",
    "address": "경상남도 창원시 성산구 삼정자로 78 (성주동, 성주 효성해링턴 코트)",
    "tel": "",
    "lat": 35.196209,
    "lng": 128.714988
  },
  {
    "name": "효성해링턴코트 126동 놀이터",
    "category": "어린이놀이시설",
    "type": "어린이놀이시설",
    "address": "경상남도 창원시 성산구 삼정자로 78 (성주동, 성주 효성해링턴 코트)",
    "tel": "",
    "lat": 35.196209,
    "lng": 128.714988
  },
  {
    "name": "창원대방 대동황토방아파트(101동)",
    "category": "어린이놀이시설",
    "type": "어린이놀이시설",
    "address": "경상남도 창원시 성산구 창이대로881번길 19 (대방동, 대방대동황토방아파트)",
    "tel": "",
    "lat": 35.20823,
    "lng": 128.709193
  },
  {
    "name": "창원대방 대동황토방아파트(106동)",
    "category": "어린이놀이시설",
    "type": "어린이놀이시설",
    "address": "경상남도 창원시 성산구 창이대로881번길 19 (대방동, 대방대동황토방아파트)",
    "tel": "",
    "lat": 35.20823,
    "lng": 128.709193
  },
  {
    "name": "창원대방 대동황토방아파트(109동)",
    "category": "어린이놀이시설",
    "type": "어린이놀이시설",
    "address": "경상남도 창원시 성산구 창이대로881번길 19 (대방동, 대방대동황토방아파트)",
    "tel": "",
    "lat": 35.20823,
    "lng": 128.709193
  },
  {
    "name": "안민초등학교 병설유치원 어린이놀이시설",
    "category": "어린이놀이시설",
    "type": "어린이놀이시설",
    "address": "경상남도 창원시 성산구 안민로79번길 6 (안민동)",
    "tel": "",
    "lat": 35.18726,
    "lng": 128.6875
  },
  {
    "name": "영흥아파트 어린이놀이터",
    "category": "어린이놀이시설",
    "type": "어린이놀이시설",
    "address": "경상남도 창원시 성산구 신촌로 107 (신촌동, 영흥아파트)",
    "tel": "",
    "lat": 35.200042,
    "lng": 128.62946
  },
  {
    "name": "창원남산초등학교 어린이놀이시설",
    "category": "어린이놀이시설",
    "type": "어린이놀이시설",
    "address": "경상남도 창원시 성산구 가음로83번길 7 (남양동)",
    "tel": "",
    "lat": 35.20676,
    "lng": 128.703788
  },
  {
    "name": "대방경관녹지놀이터",
    "category": "어린이놀이시설",
    "type": "어린이놀이시설",
    "address": "경상남도 창원시 성산구 대암로 82(대방동, 성원남산3차아파트)",
    "tel": "",
    "lat": 35.21468,
    "lng": 128.707211
  },
  {
    "name": "창원신월초등학교 어린이놀이시설",
    "category": "어린이놀이시설",
    "type": "어린이놀이시설",
    "address": "경상남도 창원시 의창구 신월로72번길 12 (신월동)",
    "tel": "",
    "lat": 0.0,
    "lng": 0.0
  },
  {
    "name": "한사랑어린이집",
    "category": "어린이놀이시설",
    "type": "어린이놀이시설",
    "address": "경상남도 창원시 성산구 안민안길24번길 8 (안민동)",
    "tel": "",
    "lat": 35.186366,
    "lng": 128.692251
  },
  {
    "name": "상록어린이집",
    "category": "어린이놀이시설",
    "type": "어린이놀이시설",
    "address": "경상남도 창원시 성산구 동산로206번길 18 (사파동)",
    "tel": "",
    "lat": 35.223988,
    "lng": 128.698114
  },
  {
    "name": "청솔아파트 105동놀이터",
    "category": "어린이놀이시설",
    "type": "어린이놀이시설",
    "address": "경상남도 창원시 성산구 안민로101번길 29 (안민동, 안민청솔마을대동아파트)",
    "tel": "",
    "lat": 35.188966,
    "lng": 128.688719
  },
  {
    "name": "청솔아파트 108동놀이터",
    "category": "어린이놀이시설",
    "type": "어린이놀이시설",
    "address": "경상남도 창원시 성산구 안민로101번길 29 (안민동, 안민청솔마을대동아파트)",
    "tel": "",
    "lat": 35.188966,
    "lng": 128.688719
  },
  {
    "name": "삼정자공원",
    "category": "어린이놀이시설",
    "type": "어린이놀이시설",
    "address": "경상남도 창원시 성산구 창원대로1137번길 7-1 (성주동)",
    "tel": "",
    "lat": 35.197445,
    "lng": 128.70863
  },
  {
    "name": "제75호어린이공원",
    "category": "어린이놀이시설",
    "type": "어린이놀이시설",
    "address": null,
    "tel": "",
    "lat": 35.189741,
    "lng": 128.695021
  },
  {
    "name": "한림풀에버아파트 놀이터",
    "category": "어린이놀이시설",
    "type": "어린이놀이시설",
    "address": "경상남도 창원시 성산구 가음정로23번길 10-21 (가음동, 창원 가음정 한림풀에버)",
    "tel": "",
    "lat": 35.210597,
    "lng": 128.689323
  },
  {
    "name": "상남 꿈에그린 101동놀이터",
    "category": "어린이놀이시설",
    "type": "어린이놀이시설",
    "address": "경상남도 창원시 성산구 토월로27번길 18 (상남동, 상남 꿈에그린)",
    "tel": "",
    "lat": 35.215687,
    "lng": 128.680262
  },
  {
    "name": "상남 꿈에그린 102동놀이터",
    "category": "어린이놀이시설",
    "type": "어린이놀이시설",
    "address": "경상남도 창원시 성산구 토월로27번길 18 (상남동, 상남 꿈에그린)",
    "tel": "",
    "lat": 35.215687,
    "lng": 128.680262
  },
  {
    "name": "상남 꿈에그린 104동놀이터",
    "category": "어린이놀이시설",
    "type": "어린이놀이시설",
    "address": "경상남도 창원시 성산구 토월로27번길 18 (상남동, 상남 꿈에그린)",
    "tel": "",
    "lat": 35.215687,
    "lng": 128.680262
  },
  {
    "name": "상남 꿈에그린 105동놀이터",
    "category": "어린이놀이시설",
    "type": "어린이놀이시설",
    "address": "경상남도 창원시 성산구 토월로27번길 18 (상남동, 상남 꿈에그린)",
    "tel": "",
    "lat": 35.215687,
    "lng": 128.680262
  },
  {
    "name": "기업사랑공원 놀이터",
    "category": "어린이놀이시설",
    "type": "어린이놀이시설",
    "address": null,
    "tel": "",
    "lat": 35.2061,
    "lng": 128.6971
  },
  {
    "name": "제99호어린이공원",
    "category": "어린이놀이시설",
    "type": "어린이놀이시설",
    "address": "경상남도 창원시 성산구 성주동",
    "tel": "",
    "lat": 35.189741,
    "lng": 128.695021
  },
  {
    "name": "신촌유신아파트 놀이터",
    "category": "어린이놀이시설",
    "type": "어린이놀이시설",
    "address": "경상남도 창원시 성산구 신촌로 7 (신촌동, 유신아파트)",
    "tel": "",
    "lat": 35.20858,
    "lng": 128.626657
  },
  {
    "name": "성원남산3차아파트",
    "category": "어린이놀이시설",
    "type": "어린이놀이시설",
    "address": "경상남도 창원시 성산구 대암로 126 (대방동, 성원남산3차아파트)",
    "tel": "",
    "lat": 35.214717,
    "lng": 128.707258
  },
  {
    "name": "대방덕산2차타운",
    "category": "어린이놀이시설",
    "type": "어린이놀이시설",
    "address": "경상남도 창원시 성산구 대암로 272 (대방동, 대방2차덕산타운)",
    "tel": "",
    "lat": 35.204492,
    "lng": 128.709141
  },
  {
    "name": "두산중공업 사원아파트 놀이터",
    "category": "어린이놀이시설",
    "type": "어린이놀이시설",
    "address": "경상남도 창원시 성산구 정동로162번길 49 (남산동, 한양아파트)",
    "tel": "",
    "lat": 35.20261,
    "lng": 128.695812
  },
  {
    "name": "삼성그린빌아파트 놀이터",
    "category": "어린이놀이시설",
    "type": "어린이놀이시설",
    "address": "경상남도 창원시 성산구 안민로 177 (천선동, 삼성황토방그린빌)",
    "tel": "",
    "lat": 35.186535,
    "lng": 128.693909
  },
  {
    "name": "덕산타운1차아파트 놀이터2",
    "category": "어린이놀이시설",
    "type": "어린이놀이시설",
    "address": "경상남도 창원시 성산구 대정로 131 (대방동, 대방덕산타운)",
    "tel": "",
    "lat": 35.212716,
    "lng": 128.706829
  },
  {
    "name": "고산정 어린이공원",
    "category": "어린이놀이시설",
    "type": "어린이놀이시설",
    "address": "경상남도 창원시 성산구 비음로27번길 20-1 (사파동)",
    "tel": "",
    "lat": 35.230457,
    "lng": 128.701494
  },
  {
    "name": "유니온빌리지아파트 106동",
    "category": "어린이놀이시설",
    "type": "어린이놀이시설",
    "address": "경상남도 창원시 성산구 삼정자로 79 (성주동, 유니온빌리지)",
    "tel": "",
    "lat": 35.199858,
    "lng": 128.715266
  },
  {
    "name": "유니온빌리지아파트 107동",
    "category": "어린이놀이시설",
    "type": "어린이놀이시설",
    "address": "경상남도 창원시 성산구 삼정자로 79 (성주동, 유니온빌리지)",
    "tel": "",
    "lat": 35.199858,
    "lng": 128.715266
  },
  {
    "name": "유니온빌리지아파트 112동",
    "category": "어린이놀이시설",
    "type": "어린이놀이시설",
    "address": "경상남도 창원시 성산구 삼정자로 79 (성주동, 유니온빌리지)",
    "tel": "",
    "lat": 35.199858,
    "lng": 128.715266
  },
  {
    "name": "유니온빌리지아파트 113동",
    "category": "어린이놀이시설",
    "type": "어린이놀이시설",
    "address": "경상남도 창원시 성산구 삼정자로 79 (성주동, 유니온빌리지)",
    "tel": "",
    "lat": 35.199858,
    "lng": 128.715266
  },
  {
    "name": "창원중앙어린이집",
    "category": "어린이놀이시설",
    "type": "어린이놀이시설",
    "address": "경상남도 창원시 성산구 외동반림로126번길 56 (중앙동)",
    "tel": "",
    "lat": 35.226992,
    "lng": 128.676837
  },
  {
    "name": "내동초등학교 병설유치원 어린이놀이시설",
    "category": "어린이놀이시설",
    "type": "어린이놀이시설",
    "address": "경상남도 창원시 성산구 두대로 185 (중앙동)",
    "tel": "",
    "lat": 35.226051,
    "lng": 128.662287
  },
  {
    "name": "루이젠하우스아파트 놀이터",
    "category": "어린이놀이시설",
    "type": "어린이놀이시설",
    "address": "경상남도 창원시 성산구 창원대로1137번길 18 (성주동, 루이젠하우스)",
    "tel": "",
    "lat": 35.196057,
    "lng": 128.709799
  },
  {
    "name": "외동초등학교 어린이놀이시설",
    "category": "어린이놀이시설",
    "type": "어린이놀이시설",
    "address": "경상남도 창원시 성산구 토월로43번길 22 (상남동)",
    "tel": "",
    "lat": 35.216698,
    "lng": 128.681763
  },
  {
    "name": "창원경상대학교병원 어린이놀이터",
    "category": "어린이놀이시설",
    "type": "어린이놀이시설",
    "address": null,
    "tel": "",
    "lat": 35.200488,
    "lng": 128.720136
  },
  {
    "name": "블루아템 아파트 102동 앞 놀이터",
    "category": "어린이놀이시설",
    "type": "어린이놀이시설",
    "address": "경상남도 창원시 성산구 삼정자로72번길 99 (성주동, 성주중앙블루아템)",
    "tel": "",
    "lat": 35.193709,
    "lng": 128.720268
  },
  {
    "name": "한국지엠어린이집",
    "category": "어린이놀이시설",
    "type": "어린이놀이시설",
    "address": "경상남도 창원시 성산구 성주로 130 (성주동)",
    "tel": "",
    "lat": 35.197055,
    "lng": 128.702882
  },
  {
    "name": "문창팀버빌리지 어린이놀이터",
    "category": "어린이놀이시설",
    "type": "어린이놀이시설",
    "address": "경상남도 창원시 성산구 신촌로134번길 33 (신촌동, 문창팀버빌리지)",
    "tel": "",
    "lat": 35.197144,
    "lng": 128.625813
  },
  {
    "name": "볼보 바르미어린이집 어린이놀이시설",
    "category": "어린이놀이시설",
    "type": "어린이놀이시설",
    "address": "경상남도 창원시 성산구 신촌로 106 (신촌동, 볼보그룹코리아㈜기숙사)",
    "tel": "",
    "lat": 35.200068,
    "lng": 128.627838
  },
  {
    "name": "경남경찰청직장어린이집놀이터",
    "category": "어린이놀이시설",
    "type": "어린이놀이시설",
    "address": "경상남도 창원시 성산구 비음로55번길 20 (사파동)",
    "tel": "",
    "lat": 35.228447,
    "lng": 128.703275
  },
  {
    "name": "경남경찰청어린이집",
    "category": "어린이놀이시설",
    "type": "어린이놀이시설",
    "address": "경상남도 창원시 성산구 비음로55번길 18-21 (사파동)",
    "tel": "",
    "lat": 35.228447,
    "lng": 128.703275
  },
  {
    "name": "창원시립신월어린이집",
    "category": "어린이놀이시설",
    "type": "어린이놀이시설",
    "address": "경상남도 창원시 성산구 신월로 46 (신월동)",
    "tel": "",
    "lat": 35.227867,
    "lng": 128.692361
  },
  {
    "name": "가음정공원",
    "category": "어린이놀이시설",
    "type": "어린이놀이시설",
    "address": null,
    "tel": "",
    "lat": 35.2061,
    "lng": 128.6971
  },
  {
    "name": "KERI 꿈터어린이집",
    "category": "어린이놀이시설",
    "type": "어린이놀이시설",
    "address": "경상남도 창원시 성산구 불모산로10번길 10 (성주동)",
    "tel": "",
    "lat": 35.194304,
    "lng": 128.116608
  },
  {
    "name": "창원법원 어린이집 어린이 놀이터",
    "category": "어린이놀이시설",
    "type": "어린이놀이시설",
    "address": "경상남도 창원시 성산구 창이대로 681 (사파동)",
    "tel": "",
    "lat": 35.224193,
    "lng": 128.700877
  },
  {
    "name": "창원더샾센트럴파크 1단지 103동앞 어린이놀이터",
    "category": "어린이놀이시설",
    "type": "어린이놀이시설",
    "address": null,
    "tel": "",
    "lat": 35.227174,
    "lng": 128.651889
  },
  {
    "name": "창원더샾센트럴파크 1단지 103동앞 유아놀이터",
    "category": "어린이놀이시설",
    "type": "어린이놀이시설",
    "address": null,
    "tel": "",
    "lat": 35.227173,
    "lng": 128.651891
  },
  {
    "name": "창원더샾센트럴파크 2단지 204동앞 어린이놀이터",
    "category": "어린이놀이시설",
    "type": "어린이놀이시설",
    "address": null,
    "tel": "",
    "lat": 35.227178,
    "lng": 128.651893
  },
  {
    "name": "창원더샾센트럴파크 2단지204동앞 유아놀이터",
    "category": "어린이놀이시설",
    "type": "어린이놀이시설",
    "address": null,
    "tel": "",
    "lat": 35.227175,
    "lng": 128.65189
  },
  {
    "name": "창원더샾센트럴파크 3단지 305동앞 어린이놀이터",
    "category": "어린이놀이시설",
    "type": "어린이놀이시설",
    "address": null,
    "tel": "",
    "lat": 35.227175,
    "lng": 128.651888
  },
  {
    "name": "DN솔루션즈 새싹어린이집",
    "category": "어린이놀이시설",
    "type": "어린이놀이시설",
    "address": "경상남도 창원시 성산구 창원대로1144번길 8 (성주동)",
    "tel": "",
    "lat": 35.195483,
    "lng": 128.7076
  },
  {
    "name": "대상공원(시티세븐 일원) 조합놀이대",
    "category": "어린이놀이시설",
    "type": "어린이놀이시설",
    "address": "경상남도 창원시 성산구 원이대로 320 (대원동)",
    "tel": "",
    "lat": 35.239667,
    "lng": 128.654409
  },
  {
    "name": "창원 용지 아이파크 105동 앞 어린이놀이터",
    "category": "어린이놀이시설",
    "type": "어린이놀이시설",
    "address": "경상남도 창원시 성산구 원이대로579번길 13 (용호동, 용지 아이파크)",
    "tel": "",
    "lat": 35.230531,
    "lng": 128.678894
  },
  {
    "name": "창원 용지 아이파크 103동 앞 유아놀이터",
    "category": "어린이놀이시설",
    "type": "어린이놀이시설",
    "address": "경상남도 창원시 성산구 원이대로579번길 13 (용호동, 용지 아이파크)",
    "tel": "",
    "lat": 35.230531,
    "lng": 128.678894
  },
  {
    "name": "창원 용지 아이파크 101동 앞 어린이놀이시설",
    "category": "어린이놀이시설",
    "type": "어린이놀이시설",
    "address": "경상남도 창원시 성산구 원이대로579번길 13 (용호동, 용지 아이파크)",
    "tel": "",
    "lat": 35.230531,
    "lng": 128.678894
  },
  {
    "name": "창원 용지 아이파크 109동 앞 어린이놀이시설",
    "category": "어린이놀이시설",
    "type": "어린이놀이시설",
    "address": "경상남도 창원시 성산구 원이대로579번길 13 (용호동, 용지 아이파크)",
    "tel": "",
    "lat": 35.230531,
    "lng": 128.678894
  },
  {
    "name": "창원가음 꿈에그린 103동앞 아린이 놀이터1",
    "category": "어린이놀이시설",
    "type": "어린이놀이시설",
    "address": null,
    "tel": "",
    "lat": 35.208028,
    "lng": 128.692664
  },
  {
    "name": "창원가음 꿈에그린 105동앞 아린이 놀이터2",
    "category": "어린이놀이시설",
    "type": "어린이놀이시설",
    "address": null,
    "tel": "",
    "lat": 35.208046,
    "lng": 128.692723
  },
  {
    "name": "창원가음 꿈에그린 101동앞 아린이 놀이터3",
    "category": "어린이놀이시설",
    "type": "어린이놀이시설",
    "address": null,
    "tel": "",
    "lat": 35.208046,
    "lng": 128.692615
  },
  {
    "name": "LG전자창원어린이집",
    "category": "어린이놀이시설",
    "type": "어린이놀이시설",
    "address": "경상남도 창원시 성산구 성산패총로178번길 6 (가음정동, LG전자 생활관)",
    "tel": "",
    "lat": 35.207018,
    "lng": 128.687325
  },
  {
    "name": "용지더샵레이크파크 어린이놀이터-1(103동 앞)",
    "category": "어린이놀이시설",
    "type": "어린이놀이시설",
    "address": "경상남도 창원시 성산구 외동반림로 156 (용호동, 용지 더샵 레이크파크)",
    "tel": "",
    "lat": 35.232041,
    "lng": 128.67504
  },
  {
    "name": "용지더샵레이크파크 어린이놀이터-2(105동 앞)",
    "category": "어린이놀이시설",
    "type": "어린이놀이시설",
    "address": "경상남도 창원시 성산구 외동반림로 156 (용호동, 용지 더샵 레이크파크)",
    "tel": "",
    "lat": 35.232041,
    "lng": 128.67504
  },
  {
    "name": "용호4구역 어린이공원 내 어린이놀이터",
    "category": "어린이놀이시설",
    "type": "어린이놀이시설",
    "address": "경상남도 창원시 성산구 외동반림로 156 (용호동, 용지 더샵 레이크파크)",
    "tel": "",
    "lat": 35.232041,
    "lng": 128.67504
  },
  {
    "name": "창원 센텀 푸르지오 아파트 어린이놀이시설(103동)",
    "category": "어린이놀이시설",
    "type": "어린이놀이시설",
    "address": null,
    "tel": "",
    "lat": 35.2061,
    "lng": 128.6971
  },
  {
    "name": "창원 센텀 푸르지오 아파트 어린이놀이시설(104동)",
    "category": "어린이놀이시설",
    "type": "어린이놀이시설",
    "address": null,
    "tel": "",
    "lat": 35.2061,
    "lng": 128.6971
  },
  {
    "name": "창원 센텀 푸르지오 아파트 어린이놀이시설(107동)",
    "category": "어린이놀이시설",
    "type": "어린이놀이시설",
    "address": null,
    "tel": "",
    "lat": 35.2061,
    "lng": 128.6971
  },
  {
    "name": "제일교회 어린이놀이시설",
    "category": "어린이놀이시설",
    "type": "어린이놀이시설",
    "address": "경상남도 창원시 성산구 가음로 110 (가음동)",
    "tel": "",
    "lat": 35.203579,
    "lng": 128.704013
  },
  {
    "name": "창원남산유치원 어린이놀이시설",
    "category": "어린이놀이시설",
    "type": "어린이놀이시설",
    "address": "경상남도 창원시 성산구 가음로83번길 7 (남양동)",
    "tel": "",
    "lat": 35.20676,
    "lng": 128.703788
  },
  {
    "name": "남산효성해링턴플레이스 108동 놀이터",
    "category": "어린이놀이시설",
    "type": "어린이놀이시설",
    "address": null,
    "tel": "",
    "lat": 35.198101,
    "lng": 128.695963
  },
  {
    "name": "남산효성해링턴플레이스 102동 놀이터",
    "category": "어린이놀이시설",
    "type": "어린이놀이시설",
    "address": null,
    "tel": "",
    "lat": 35.198101,
    "lng": 128.695963
  },
  {
    "name": "챔피언 더시티세븐몰 창원점",
    "category": "어린이놀이시설",
    "type": "어린이놀이시설",
    "address": "경상남도 창원시 성산구 원이대로 320 (대원동)",
    "tel": "",
    "lat": 35.239667,
    "lng": 128.654409
  },
  {
    "name": "기업사랑공원 놀이터 유아용",
    "category": "어린이놀이시설",
    "type": "어린이놀이시설",
    "address": null,
    "tel": "",
    "lat": 35.208593,
    "lng": 128.686592
  },
  {
    "name": "포레나대원 어린이놀이터1",
    "category": "어린이놀이시설",
    "type": "어린이놀이시설",
    "address": "경상남도 창원시 성산구 창원천로 34 (대원동, 포레나 대원)",
    "tel": "",
    "lat": 35.234409,
    "lng": 128.648802
  },
  {
    "name": "포레나대원 어린이놀이터2",
    "category": "어린이놀이시설",
    "type": "어린이놀이시설",
    "address": "경상남도 창원시 성산구 창원천로 34 (대원동, 포레나 대원)",
    "tel": "",
    "lat": 35.234409,
    "lng": 128.648802
  },
  {
    "name": "포레나대원 어린이놀이터3",
    "category": "어린이놀이시설",
    "type": "어린이놀이시설",
    "address": "경상남도 창원시 성산구 창원천로 34 (대원동, 포레나 대원)",
    "tel": "",
    "lat": 35.234409,
    "lng": 128.648802
  },
  {
    "name": "포레나대원 유아놀이터(어린이집 앞)",
    "category": "어린이놀이시설",
    "type": "어린이놀이시설",
    "address": "경상남도 창원시 성산구 창원천로 34 (대원동, 포레나 대원)",
    "tel": "",
    "lat": 35.234409,
    "lng": 128.648802
  },
  {
    "name": "포레나대원 모래놀이터(어린이집 옆)",
    "category": "어린이놀이시설",
    "type": "어린이놀이시설",
    "address": "경상남도 창원시 성산구 창원천로 34 (대원동, 포레나 대원)",
    "tel": "",
    "lat": 35.234409,
    "lng": 128.648802
  },
  {
    "name": "대원동 40번지일원 기부채납 어린이놀이시설",
    "category": "어린이놀이시설",
    "type": "어린이놀이시설",
    "address": "경상남도 창원시 성산구 창원천로 34 (대원동, 포레나 대원)",
    "tel": "",
    "lat": 35.234409,
    "lng": 128.648802
  },
  {
    "name": "위드필하임아파트 어린이놀이터",
    "category": "어린이놀이시설",
    "type": "어린이놀이시설",
    "address": null,
    "tel": "",
    "lat": 35.190167,
    "lng": 128.686584
  },
  {
    "name": "용호유치원 어린이놀이시설",
    "category": "어린이놀이시설",
    "type": "어린이놀이시설",
    "address": "경상남도 창원시 의창구 용호로 41 (용호동)",
    "tel": "",
    "lat": 35.233837,
    "lng": 128.6774
  },
  {
    "name": "롯데백화점 창원점 실내놀이시설",
    "category": "어린이놀이시설",
    "type": "어린이놀이시설",
    "address": "경상남도 창원시 성산구 중앙대로 124 (상남동)",
    "tel": "",
    "lat": 35.224563,
    "lng": 128.681893
  },
  {
    "name": "가음정교회 교육관 어린이놀이터",
    "category": "어린이놀이시설",
    "type": "어린이놀이시설",
    "address": "경상남도 창원시 성산구 가음정로23번길 33 (가음동)",
    "tel": "",
    "lat": 35.211409,
    "lng": 128.69047
  },
  {
    "name": "창원해돋이유치원 어린이놀이시설(실내)",
    "category": "어린이놀이시설",
    "type": "어린이놀이시설",
    "address": "경상남도 창원시 의창구 신월로17번길 7 (신월동)",
    "tel": "",
    "lat": 0.0,
    "lng": 0.0
  },
  {
    "name": "시크릿쥬쥬콩순이키즈카페",
    "category": "어린이놀이시설",
    "type": "어린이놀이시설",
    "address": "경상남도 창원시 성산구 원이대로 320 (대원동)",
    "tel": "",
    "lat": 35.239667,
    "lng": 128.654409
  },
  {
    "name": "창원왕성교회 실내놀이시설",
    "category": "어린이놀이시설",
    "type": "어린이놀이시설",
    "address": "경상남도 창원시 성산구 창원천로94번길 82-6 (대원동)",
    "tel": "",
    "lat": 35.237406,
    "lng": 128.658902
  },
  {
    "name": "상남중앙체육공원 어린이놀이터",
    "category": "어린이놀이시설",
    "type": "어린이놀이시설",
    "address": null,
    "tel": "",
    "lat": 35.216266,
    "lng": 128.687217
  },
  {
    "name": "안민복지회관 놀이터",
    "category": "어린이놀이시설",
    "type": "어린이놀이시설",
    "address": "경상남도 창원시 성산구 안민안길 34 (안민동)",
    "tel": "",
    "lat": 35.187222,
    "lng": 128.692687
  },
  {
    "name": "반송공원 종합놀이시설",
    "category": "어린이놀이시설",
    "type": "어린이놀이시설",
    "address": "경상남도 창원시 성산구 반송로 159 (반림동)",
    "tel": "",
    "lat": 35.238052,
    "lng": 128.673859
  },
  {
    "name": "대원근린공원 물놀이장",
    "category": "어린이놀이시설",
    "type": "어린이놀이시설",
    "address": "경상남도 창원시 성산구 대원로 19 (대원동)",
    "tel": "",
    "lat": 35.230231,
    "lng": 128.652233
  },
  {
    "name": "눈꽃대패 대방점",
    "category": "어린이놀이시설",
    "type": "어린이놀이시설",
    "address": "경상남도 창원시 성산구 가양로 130 (대방동)",
    "tel": "",
    "lat": 35.209301,
    "lng": 128.707455
  },
  {
    "name": "동산초등학교 병설유치원 어린이놀이시설",
    "category": "어린이놀이시설",
    "type": "어린이놀이시설",
    "address": "경상남도 창원시 성산구 단정로 126 (상남동)",
    "tel": "",
    "lat": 35.214101,
    "lng": 128.6901
  },
  {
    "name": "청년감자탕-창원대방점",
    "category": "어린이놀이시설",
    "type": "어린이놀이시설",
    "address": "경상남도 창원시 성산구 가양로124번길 5-3 (대방동)",
    "tel": "",
    "lat": 35.209042,
    "lng": 128.707093
  },
  {
    "name": "성산 유아숲체험원",
    "category": "어린이놀이시설",
    "type": "어린이놀이시설",
    "address": "경상남도 창원시 성산구 성주동",
    "tel": "",
    "lat": 35.189741,
    "lng": 128.695021
  },
  {
    "name": "성산반도유보라아이비파크 104동 놀이터",
    "category": "어린이놀이시설",
    "type": "어린이놀이시설",
    "address": "경남 창원시 성산구 비음로 191",
    "tel": "",
    "lat": 35.219267,
    "lng": 128.708307
  },
  {
    "name": "성산반도유보라아이비파크 109동 놀이터",
    "category": "어린이놀이시설",
    "type": "어린이놀이시설",
    "address": "경남 창원시 성산구 비음로 191",
    "tel": "",
    "lat": 35.220196,
    "lng": 128.70865
  },
  {
    "name": "성산반도유보라아이비파크 116동 놀이터",
    "category": "어린이놀이시설",
    "type": "어린이놀이시설",
    "address": "경남 창원시 성산구 비음로 191",
    "tel": "",
    "lat": 35.219394,
    "lng": 128.710377
  },
  {
    "name": "성산반도유보라아이비파크 101동 어린이집 옆 유아놀이터",
    "category": "어린이놀이시설",
    "type": "어린이놀이시설",
    "address": "경남 창원시 성산구 비음로 191",
    "tel": "",
    "lat": 35.217872,
    "lng": 128.709943
  },
  {
    "name": "성산반도유보라아이비파크 102동 놀이터",
    "category": "어린이놀이시설",
    "type": "어린이놀이시설",
    "address": "경남 창원시 성산구 비음로 191",
    "tel": "",
    "lat": 35.218262,
    "lng": 128.709409
  },
  {
    "name": "창원시 가음정공원 모험놀이시설",
    "category": "어린이놀이시설",
    "type": "어린이놀이시설",
    "address": null,
    "tel": "",
    "lat": 35.223438,
    "lng": 128.699303
  },
  {
    "name": "KIMS어린이집",
    "category": "어린이놀이시설",
    "type": "어린이놀이시설",
    "address": "경상남도 창원시 성산구 창원대로 797 (상남동)",
    "tel": "",
    "lat": 35.215276,
    "lng": 128.677489
  },
  {
    "name": "KIMS어린이집(실내)",
    "category": "어린이놀이시설",
    "type": "어린이놀이시설",
    "address": "경상남도 창원시 성산구 창원대로 797 (상남동)",
    "tel": "",
    "lat": 35.215276,
    "lng": 128.677489
  },
  {
    "name": "창원숲유치원 어린이놀이시설",
    "category": "어린이놀이시설",
    "type": "어린이놀이시설",
    "address": "경상남도 창원시 성산구 두대로 197-45 (중앙동)",
    "tel": "",
    "lat": 35.226731,
    "lng": 128.663331
  },
  {
    "name": "웅남어린이공원 어린이놀이시설",
    "category": "어린이놀이시설",
    "type": "어린이놀이시설",
    "address": null,
    "tel": "",
    "lat": 35.2046,
    "lng": 128.6038
  },
  {
    "name": "서광파크빌아파트 105동 놀이터",
    "category": "어린이놀이시설",
    "type": "어린이놀이시설",
    "address": "경상남도 창원시 성산구 안민안길 50 (천선동)",
    "tel": "",
    "lat": 35.187462,
    "lng": 128.694316
  },
  {
    "name": "서광파크빌아파트 106동 놀이터",
    "category": "어린이놀이시설",
    "type": "어린이놀이시설",
    "address": "경상남도 창원시 성산구 안민안길 50 (천선동)",
    "tel": "",
    "lat": 35.187462,
    "lng": 128.694316
  },
  {
    "name": "까치2차아파트 어린이놀이터",
    "category": "어린이놀이시설",
    "type": "어린이놀이시설",
    "address": "경상남도 창원시 성산구 창원천로 256  (반지동)",
    "tel": "",
    "lat": 35.245309,
    "lng": 128.667556
  },
  {
    "name": "대동청솔아파트 103동놀이터",
    "category": "어린이놀이시설",
    "type": "어린이놀이시설",
    "address": "경상남도 창원시 성산구 안민로101번길 29  (안민동, 안민청솔마을대동아파트)",
    "tel": "",
    "lat": 35.188966,
    "lng": 128.688719
  },
  {
    "name": "현대건설아파트 어린이놀이터",
    "category": "어린이놀이시설",
    "type": "어린이놀이시설",
    "address": "경상남도 창원시 성산구 반송로 177  (반림동, 현대아파트)",
    "tel": "",
    "lat": 35.237194,
    "lng": 128.675117
  },
  {
    "name": "현대산업아파트 어린이놀이터(112동뒤)",
    "category": "어린이놀이시설",
    "type": "어린이놀이시설",
    "address": "경상남도 창원시 성산구 외동반림로 219  (반림동, 현대아파트)",
    "tel": "",
    "lat": 35.238183,
    "lng": 128.676517
  },
  {
    "name": "노블파크놀이터 2공구2번 119동앞",
    "category": "어린이놀이시설",
    "type": "어린이놀이시설",
    "address": "경상남도 창원시 성산구 원이대로 449  (반림동, 노블파크아파트)",
    "tel": "",
    "lat": 35.236601,
    "lng": 128.667466
  },
  {
    "name": "노블파크놀이터 2공구3번 120동앞",
    "category": "어린이놀이시설",
    "type": "어린이놀이시설",
    "address": "경상남도 창원시 성산구 원이대로 449  (반림동, 노블파크아파트)",
    "tel": "",
    "lat": 35.236601,
    "lng": 128.667466
  },
  {
    "name": "일신대동프리빌리지 놀이터3(110동앞)",
    "category": "어린이놀이시설",
    "type": "어린이놀이시설",
    "address": "경상남도 창원시 성산구 대암로 253  (성주동, 프리빌리지아파트)",
    "tel": "",
    "lat": 35.203314,
    "lng": 128.710408
  },
  {
    "name": "한일유앤아이오르젠 어린이놀이터",
    "category": "어린이놀이시설",
    "type": "어린이놀이시설",
    "address": "경상남도 창원시 성산구 창원대로780번길 93 (외동)",
    "tel": "",
    "lat": 35.210053,
    "lng": 128.682623
  },
  {
    "name": "동성빌라2차아파트 어린이놀이터",
    "category": "어린이놀이시설",
    "type": "어린이놀이시설",
    "address": "경상남도 창원시 성산구 신촌로 43 (신촌동)",
    "tel": "",
    "lat": 35.206052,
    "lng": 128.627946
  },
  {
    "name": "사파대동1차아파트 어린이놀이터(1동옆)",
    "category": "어린이놀이시설",
    "type": "어린이놀이시설",
    "address": "경상남도 창원시 성산구 신사로 106 (사파동)",
    "tel": "",
    "lat": 35.220591,
    "lng": 128.695424
  },
  {
    "name": "사파대동1차아파트 어린이놀이터(4동옆)",
    "category": "어린이놀이시설",
    "type": "어린이놀이시설",
    "address": "경상남도 창원시 성산구 신사로 106 (사파동)",
    "tel": "",
    "lat": 35.220591,
    "lng": 128.695424
  },
  {
    "name": "성원3차아파트 어린이놀이터(302동앞)",
    "category": "어린이놀이시설",
    "type": "어린이놀이시설",
    "address": "경상남도 창원시 성산구 대암로 82  (대방동, 성원3차아파트)",
    "tel": "",
    "lat": 35.21468,
    "lng": 128.707211
  },
  {
    "name": "대원대동2차아파트 어린이놀이터",
    "category": "어린이놀이시설",
    "type": "어린이놀이시설",
    "address": "경남 창원시 성산구 창원대로 538",
    "tel": "",
    "lat": 35.226536,
    "lng": 128.65316
  },
  {
    "name": "대원대동1차아파트 어린이놀이터1",
    "category": "어린이놀이시설",
    "type": "어린이놀이시설",
    "address": "경상남도 창원시 의창구 창원대로 548 (대원동)",
    "tel": "",
    "lat": 35.225837,
    "lng": 128.654042
  },
  {
    "name": "대원대동1차아파트 어린이놀이터2",
    "category": "어린이놀이시설",
    "type": "어린이놀이시설",
    "address": "경상남도 창원시 의창구 창원대로 548 (대원동)",
    "tel": "",
    "lat": 35.225924,
    "lng": 128.65402
  },
  {
    "name": "성원5단지아파트 506동앞",
    "category": "어린이놀이시설",
    "type": "어린이놀이시설",
    "address": "경상남도 창원시 성산구 원이대로 774  (상남동, 성원아파트)",
    "tel": "",
    "lat": 35.216353,
    "lng": 128.691952
  },
  {
    "name": "성원5단지아파트 508동앞",
    "category": "어린이놀이시설",
    "type": "어린이놀이시설",
    "address": "경상남도 창원시 성산구 원이대로 774  (상남동, 성원아파트)",
    "tel": "",
    "lat": 35.215121,
    "lng": 128.692595
  },
  {
    "name": "성원5단지아파트 512동앞",
    "category": "어린이놀이시설",
    "type": "어린이놀이시설",
    "address": "경상남도 창원시 성산구 원이대로 774  (상남동, 성원아파트)",
    "tel": "",
    "lat": 35.215879,
    "lng": 128.690948
  },
  {
    "name": "트리비앙아파트 어린이놀이터1",
    "category": "어린이놀이시설",
    "type": "어린이놀이시설",
    "address": "경상남도 창원시 성산구 원이대로 495 (반림동)",
    "tel": "",
    "lat": 35.234606,
    "lng": 128.672084
  },
  {
    "name": "현대산업아파트 어린이놀이터(113동옆)",
    "category": "어린이놀이시설",
    "type": "어린이놀이시설",
    "address": "경상남도 창원시 성산구 외동반림로 219  (반림동, 현대아파트)",
    "tel": "",
    "lat": 35.238183,
    "lng": 128.676517
  },
  {
    "name": "노블파크놀이터 1공구3번 107동앞",
    "category": "어린이놀이시설",
    "type": "어린이놀이시설",
    "address": "경상남도 창원시 성산구 원이대로 449  (반림동, 노블파크아파트)",
    "tel": "",
    "lat": 35.236601,
    "lng": 128.667466
  },
  {
    "name": "노블파크놀이터 2공구4번 135동앞",
    "category": "어린이놀이시설",
    "type": "어린이놀이시설",
    "address": "경상남도 창원시 성산구 원이대로 449  (반림동, 노블파크아파트)",
    "tel": "",
    "lat": 35.236601,
    "lng": 128.667466
  },
  {
    "name": "대동디지털아파트 어린이놀이터1",
    "category": "어린이놀이시설",
    "type": "어린이놀이시설",
    "address": "경상남도 창원시 성산구 창이대로881번길 8  (대방동, 대동디지털황토아파트)",
    "tel": "",
    "lat": 35.206664,
    "lng": 128.708609
  },
  {
    "name": "성원3단지아파트 어린이놀이터1",
    "category": "어린이놀이시설",
    "type": "어린이놀이시설",
    "address": "경상남도 창원시 성산구 원이대로 774  (상남동, 성원아파트)",
    "tel": "",
    "lat": 35.216254,
    "lng": 128.692526
  },
  {
    "name": "위드파크아파트 어린이놀이터1(402동옆)",
    "category": "어린이놀이시설",
    "type": "어린이놀이시설",
    "address": "경상남도 창원시 성산구 가양로 99 (남양동, 위드파크아파트)",
    "tel": "",
    "lat": 35.209708,
    "lng": 128.704894
  },
  {
    "name": "위드파크아파트어린이놀이터2(404동앞)",
    "category": "어린이놀이시설",
    "type": "어린이놀이시설",
    "address": "경상남도 창원시 성산구 가양로 99 (남양동, 위드파크아파트)",
    "tel": "",
    "lat": 35.209708,
    "lng": 128.704894
  },
  {
    "name": "성원3차아파트 어린이놀이터(305동앞)",
    "category": "어린이놀이시설",
    "type": "어린이놀이시설",
    "address": "경상남도 창원시 성산구 대암로 82  (대방동, 성원3차아파트)",
    "tel": "",
    "lat": 35.21468,
    "lng": 128.707211
  },
  {
    "name": "한림엘리시온아파트 어린이놀이터",
    "category": "어린이놀이시설",
    "type": "어린이놀이시설",
    "address": "경상남도 창원시 성산구 대암로 8 (남양동)",
    "tel": "",
    "lat": 35.213554,
    "lng": 128.69787
  },
  {
    "name": "노블파크놀이터 2공구1번 124동앞",
    "category": "어린이놀이시설",
    "type": "어린이놀이시설",
    "address": "경상남도 창원시 성산구 원이대로 449  (반림동, 노블파크아파트)",
    "tel": "",
    "lat": 35.236601,
    "lng": 128.667466
  },
  {
    "name": "대동디지털아파트 어린이놀이터2",
    "category": "어린이놀이시설",
    "type": "어린이놀이시설",
    "address": "경상남도 창원시 성산구 창이대로881번길 8  (대방동, 대동디지털황토아파트)",
    "tel": "",
    "lat": 35.206664,
    "lng": 128.708609
  },
  {
    "name": "일신대동프리빌리지 놀이터1(101동앞)",
    "category": "어린이놀이시설",
    "type": "어린이놀이시설",
    "address": "경상남도 창원시 성산구 대암로 253  (성주동, 프리빌리지아파트)",
    "tel": "",
    "lat": 35.203314,
    "lng": 128.710408
  },
  {
    "name": "성원3단지아파트 어린이놀이터2",
    "category": "어린이놀이시설",
    "type": "어린이놀이시설",
    "address": "경상남도 창원시 성산구 원이대로 774  (상남동, 성원아파트)",
    "tel": "",
    "lat": 35.216254,
    "lng": 128.692526
  },
  {
    "name": "성원아파트2단지놀이터 203동앞",
    "category": "어린이놀이시설",
    "type": "어린이놀이시설",
    "address": "경상남도 창원시 성산구 원이대로 774  (상남동, 성원아파트)",
    "tel": "",
    "lat": 35.216254,
    "lng": 128.692526
  },
  {
    "name": "성원아파트2단지놀이터 204동앞",
    "category": "어린이놀이시설",
    "type": "어린이놀이시설",
    "address": "경상남도 창원시 성산구 원이대로 774  (상남동, 성원아파트)",
    "tel": "",
    "lat": 35.216254,
    "lng": 128.692526
  },
  {
    "name": "대방그린빌아파트 어린이놀이터3(107동)",
    "category": "어린이놀이시설",
    "type": "어린이놀이시설",
    "address": "경상남도 창원시 성산구 대암로 256  (대방동, 대방그린빌아파트)",
    "tel": "",
    "lat": 35.205343,
    "lng": 128.710662
  },
  {
    "name": "노블파크놀이터 1공구1번 116동앞",
    "category": "어린이놀이시설",
    "type": "어린이놀이시설",
    "address": "경상남도 창원시 성산구 원이대로 449  (반림동, 노블파크아파트) ",
    "tel": "",
    "lat": 35.236601,
    "lng": 128.667466
  },
  {
    "name": "덕산타운1차아파트 어린이놀이터",
    "category": "어린이놀이시설",
    "type": "어린이놀이시설",
    "address": "경상남도 창원시 성산구 대정로 131 (대방동, 대방덕산타운)",
    "tel": "",
    "lat": 35.212716,
    "lng": 128.706829
  },
  {
    "name": "한국폴리텍 VII 대학 창원캠퍼스",
    "category": "대학교",
    "type": "대학교",
    "address": "경상남도 창원시 성산구 외동반림로 51-88 (중앙동, 한국폴리텍VII대학) ",
    "tel": "055-279-1700",
    "lat": 35.226028,
    "lng": 128.669155
  },
  {
    "name": "홍익재활병원",
    "category": "약자보호시설",
    "type": "장애인편의시설",
    "address": "경상남도 창원시 성산구 신촌로 134번길 43",
    "tel": "055-286-1518",
    "lat": 35.196909,
    "lng": 128.62441
  },
  {
    "name": "풀잎마을",
    "category": "약자보호시설",
    "type": "장애인편의시설",
    "address": "경상남도 창원시 성산구 신촌로 134번길 43",
    "tel": "055-286-1117",
    "lat": 35.196909,
    "lng": 128.62441
  },
  {
    "name": "에스더의집",
    "category": "약자보호시설",
    "type": "장애인편의시설",
    "address": "경상남도 창원시 성산구 신촌로134번길 33, 102동202호",
    "tel": "055-286-6605",
    "lat": 35.196935,
    "lng": 128.625709
  },
  {
    "name": "요셉의집",
    "category": "약자보호시설",
    "type": "장애인편의시설",
    "address": "경상남도 창원시 성산구 신촌로 134번길 33 101동 301호",
    "tel": "055-264-3257",
    "lat": 35.197204,
    "lng": 128.625696
  },
  {
    "name": "창원나눔터그룹홈",
    "category": "약자보호시설",
    "type": "장애인편의시설",
    "address": "경상남도 창원시 성산구 대암로 256, 107동 406호(대방동, 대방그린빌아파트)",
    "tel": "070-8639-2701",
    "lat": 35.204295,
    "lng": 128.710614
  },
  {
    "name": "요한의집",
    "category": "약자보호시설",
    "type": "장애인편의시설",
    "address": "경상남도 창원시 성산구 신촌로 134번길 43",
    "tel": "055-286-1109",
    "lat": 35.196909,
    "lng": 128.62441
  },
  {
    "name": "바울의집",
    "category": "약자보호시설",
    "type": "장애인편의시설",
    "address": "경상남도 창원시 성산구 신촌로 134번길 43",
    "tel": "055-286-1309",
    "lat": 35.196909,
    "lng": 128.62441
  },
  {
    "name": "굿윌스토어 밀알창원점",
    "category": "약자보호시설",
    "type": "장애인편의시설",
    "address": "경상남도 창원시 성산구 외동반림로 245 (반림동, 남산교회 2동)",
    "tel": "055-912-9193",
    "lat": 35.239192,
    "lng": 128.679227
  },
  {
    "name": "나눔터",
    "category": "약자보호시설",
    "type": "장애인편의시설",
    "address": "경상남도 창원시 성산구 월림로39번길 8-10 (신촌동)",
    "tel": "055-286-3233",
    "lat": 35.209586,
    "lng": 128.640114
  },
  {
    "name": "밀알희망작업장",
    "category": "약자보호시설",
    "type": "장애인편의시설",
    "address": "경상남도 창원시 성산구 용지로 90, 3층 32-1호 (중앙동)",
    "tel": "055-286-9515",
    "lat": 35.223657,
    "lng": 128.677596
  },
  {
    "name": "선린",
    "category": "약자보호시설",
    "type": "장애인편의시설",
    "address": "경상남도 창원시 성산구 신촌로134번길 43 (신촌동)",
    "tel": "055-286-1108",
    "lat": 35.196909,
    "lng": 128.62441
  },
  {
    "name": "하늘빛보호작업장",
    "category": "약자보호시설",
    "type": "장애인편의시설",
    "address": "경상남도 창원시 성산구 삼정자로72번길 미래빌딩 504 호",
    "tel": "055-714-7776",
    "lat": 35.195021,
    "lng": 128.71358
  },
  {
    "name": "함께나눔일터",
    "category": "약자보호시설",
    "type": "장애인편의시설",
    "address": "경상남도 창원시 성산구 웅남로 316, 지원시설동 102,104호 (웅남동, 창원지식산업센터)",
    "tel": "055-266-0220",
    "lat": 35.217923,
    "lng": 128.652173
  },
  {
    "name": "창원시창원수어통역센터",
    "category": "약자보호시설",
    "type": "장애인편의시설",
    "address": "경상남도 창원시 성산구 용지로 90 공성상가 4층 34호",
    "tel": "055-275-7418",
    "lat": 35.223657,
    "lng": 128.677596
  },
  {
    "name": "창원가정성폭력통합상담센터",
    "category": "약자보호시설",
    "type": "성폭력피해상담소",
    "address": "경상남도 창원시 성산구 창이대로663번길 7",
    "tel": "055-261-0280",
    "lat": 35.225857,
    "lng": 128.699603
  },
  {
    "name": "롯데시네마 창원관",
    "category": "우수다중시설",
    "type": "영화상영관",
    "address": "-",
    "tel": "",
    "lat": 35.22456,
    "lng": 128.681842
  },
  {
    "name": "안민651",
    "category": "우수다중시설",
    "type": "휴게음식점",
    "address": "-",
    "tel": "",
    "lat": 35.183474,
    "lng": 128.684793
  },
  {
    "name": "CGV창원더시티",
    "category": "우수다중시설",
    "type": "영화상영관",
    "address": "-",
    "tel": "",
    "lat": 35.239662,
    "lng": 128.654419
  },
  {
    "name": "CGV창원상남",
    "category": "우수다중시설",
    "type": "영화상영관",
    "address": "-",
    "tel": "",
    "lat": 35.222709,
    "lng": 128.681426
  },
  {
    "name": "경남관광고등학교",
    "category": "초중고",
    "type": "초중고",
    "address": "경상남도 창원시 의창구 봉곡동 169",
    "tel": "",
    "lat": 35.248527,
    "lng": 128.675248
  },
  {
    "name": "경원중학교",
    "category": "초중고",
    "type": "초중고",
    "address": "경상남도 창원시 성산구 중앙동 11-3",
    "tel": "",
    "lat": 35.2253,
    "lng": 128.663083
  },
  {
    "name": "경화초등학교",
    "category": "초중고",
    "type": "초중고",
    "address": "경상남도 창원시 진해구 경화동 1186",
    "tel": "",
    "lat": 35.157788,
    "lng": 128.687359
  },
  {
    "name": "내동초등학교",
    "category": "초중고",
    "type": "초중고",
    "address": "경상남도 창원시 성산구 중앙동 11-4",
    "tel": "",
    "lat": 35.225805,
    "lng": 128.662173
  },
  {
    "name": "남산중학교",
    "category": "초중고",
    "type": "초중고",
    "address": "경상남도 창원시 성산구 가음동 2-6",
    "tel": "",
    "lat": 35.203769,
    "lng": 128.698692
  },
  {
    "name": "남양초등학교",
    "category": "초중고",
    "type": "초중고",
    "address": "경상남도 창원시 성산구 남양동 18",
    "tel": "",
    "lat": 35.212105,
    "lng": 128.698283
  },
  {
    "name": "남정초등학교",
    "category": "초중고",
    "type": "초중고",
    "address": "경상남도 창원시 성산구 가음동 1-1",
    "tel": "",
    "lat": 35.211423,
    "lng": 128.692805
  },
  {
    "name": "도천초등학교",
    "category": "초중고",
    "type": "초중고",
    "address": "경상남도 창원시 진해구 도천동 12",
    "tel": "",
    "lat": 35.152739,
    "lng": 128.653867
  },
  {
    "name": "사파중학교",
    "category": "초중고",
    "type": "초중고",
    "address": "경상남도 창원시 성산구 사파동 94-1",
    "tel": "",
    "lat": 35.218814,
    "lng": 128.700524
  },
  {
    "name": "사파초등학교",
    "category": "초중고",
    "type": "초중고",
    "address": "경상남도 창원시 성산구 사파동 14-4",
    "tel": "",
    "lat": 35.219318,
    "lng": 128.697295
  },
  {
    "name": "반림중학교",
    "category": "초중고",
    "type": "초중고",
    "address": "경상남도 창원시 성산구 반림동 2",
    "tel": "",
    "lat": 35.239145,
    "lng": 128.677847
  },
  {
    "name": "반송여자중학교",
    "category": "초중고",
    "type": "초중고",
    "address": "경상남도 창원시 성산구 반림동 19",
    "tel": "",
    "lat": 35.23573,
    "lng": 128.67439
  },
  {
    "name": "반송중학교",
    "category": "초중고",
    "type": "초중고",
    "address": "경상남도 창원시 성산구 반림동 19",
    "tel": "",
    "lat": 35.235551,
    "lng": 128.674952
  },
  {
    "name": "반송초등학교",
    "category": "초중고",
    "type": "초중고",
    "address": "경상남도 창원시 성산구 반림동 7",
    "tel": "",
    "lat": 35.237349,
    "lng": 128.671279
  },
  {
    "name": "동산초등학교",
    "category": "초중고",
    "type": "초중고",
    "address": "경상남도 창원시 성산구 상남동 4-6",
    "tel": "",
    "lat": 35.214153,
    "lng": 128.690183
  },
  {
    "name": "대방중학교",
    "category": "초중고",
    "type": "초중고",
    "address": "경상남도 창원시 성산구 대방동 360",
    "tel": "",
    "lat": 35.21051,
    "lng": 128.706808
  },
  {
    "name": "대방초등학교",
    "category": "초중고",
    "type": "초중고",
    "address": "경상남도 창원시 성산구 대방동 359",
    "tel": "",
    "lat": 35.211804,
    "lng": 128.707211
  },
  {
    "name": "대암초등학교",
    "category": "초중고",
    "type": "초중고",
    "address": "경상남도 창원시 성산구 대방동 372",
    "tel": "",
    "lat": 35.205612,
    "lng": 128.709389
  },
  {
    "name": "대야초등학교",
    "category": "초중고",
    "type": "초중고",
    "address": "경상남도 창원시 진해구 여좌동 150",
    "tel": "",
    "lat": 35.159542,
    "lng": 128.664459
  },
  {
    "name": "대원초등학교",
    "category": "초중고",
    "type": "초중고",
    "address": "경상남도 창원시 의창구 대원동 4-3",
    "tel": "",
    "lat": 35.233026,
    "lng": 128.650986
  },
  {
    "name": "삼정자중학교",
    "category": "초중고",
    "type": "초중고",
    "address": "경상남도 창원시 성산구 성주동 105",
    "tel": "",
    "lat": 35.201232,
    "lng": 128.712299
  },
  {
    "name": "삼정자초등학교",
    "category": "초중고",
    "type": "초중고",
    "address": "경상남도 창원시 성산구 성주동 103",
    "tel": "",
    "lat": 35.200865,
    "lng": 128.709565
  },
  {
    "name": "상북초등학교",
    "category": "초중고",
    "type": "초중고",
    "address": "경상남도 창원시 의창구 봉곡동 1-8",
    "tel": "",
    "lat": 35.246904,
    "lng": 128.653282
  },
  {
    "name": "봉곡중학교",
    "category": "초중고",
    "type": "초중고",
    "address": "경상남도 창원시 의창구 봉곡동 90",
    "tel": "",
    "lat": 35.248764,
    "lng": 128.661798
  },
  {
    "name": "봉림중학교",
    "category": "초중고",
    "type": "초중고",
    "address": "경상남도 창원시 의창구 사림동 102",
    "tel": "",
    "lat": 35.246744,
    "lng": 128.677334
  },
  {
    "name": "봉림초등학교",
    "category": "초중고",
    "type": "초중고",
    "address": "경상남도 창원시 의창구 사림동 102-1",
    "tel": "",
    "lat": 35.246584,
    "lng": 128.677854
  },
  {
    "name": "명곡여자중학교",
    "category": "초중고",
    "type": "초중고",
    "address": "경상남도 창원시 의창구 명서동 117",
    "tel": "",
    "lat": 35.24371,
    "lng": 128.644972
  },
  {
    "name": "명곡초등학교",
    "category": "초중고",
    "type": "초중고",
    "address": "경상남도 창원시 의창구 명서동 11-7",
    "tel": "",
    "lat": 35.242936,
    "lng": 128.644838
  },
  {
    "name": "안남중학교",
    "category": "초중고",
    "type": "초중고",
    "address": "경상남도 창원시 성산구 대방동 373",
    "tel": "",
    "lat": 35.205577,
    "lng": 128.708078
  },
  {
    "name": "안남초등학교",
    "category": "초중고",
    "type": "초중고",
    "address": "경상남도 창원시 성산구 대방동 368",
    "tel": "",
    "lat": 35.208809,
    "lng": 128.710344
  },
  {
    "name": "안민중학교",
    "category": "초중고",
    "type": "초중고",
    "address": "경상남도 창원시 성산구 안민동 663-4",
    "tel": "",
    "lat": 35.183546,
    "lng": 128.693638
  },
  {
    "name": "안민초등학교",
    "category": "초중고",
    "type": "초중고",
    "address": "경상남도 창원시 성산구 안민동 190",
    "tel": "",
    "lat": 35.187879,
    "lng": 128.687768
  },
  {
    "name": "외동초등학교",
    "category": "초중고",
    "type": "초중고",
    "address": "경상남도 창원시 성산구 상남동 62",
    "tel": "",
    "lat": 35.216718,
    "lng": 128.68133
  },
  {
    "name": "양곡중학교",
    "category": "초중고",
    "type": "초중고",
    "address": "경상남도 창원시 성산구 신촌동 32",
    "tel": "",
    "lat": 35.198516,
    "lng": 128.626833
  },
  {
    "name": "양곡초등학교",
    "category": "초중고",
    "type": "초중고",
    "address": "경상남도 창원시 성산구 신촌동 36-3",
    "tel": "",
    "lat": 35.202134,
    "lng": 128.626849
  },
  {
    "name": "용남초등학교",
    "category": "초중고",
    "type": "초중고",
    "address": "경상남도 창원시 의창구 용호동 65",
    "tel": "",
    "lat": 35.235839,
    "lng": 128.679878
  },
  {
    "name": "신월중학교",
    "category": "초중고",
    "type": "초중고",
    "address": "경상남도 창원시 의창구 신월동 3-3",
    "tel": "",
    "lat": 35.229943,
    "lng": 128.693341
  },
  {
    "name": "성주초등학교",
    "category": "초중고",
    "type": "초중고",
    "address": "경상남도 창원시 성산구 가음동 2-5",
    "tel": "",
    "lat": 35.205455,
    "lng": 128.698624
  },
  {
    "name": "유목초등학교",
    "category": "초중고",
    "type": "초중고",
    "address": "경상남도 창원시 성산구 반지동 34",
    "tel": "",
    "lat": 35.244779,
    "lng": 128.663761
  },
  {
    "name": "용지초등학교",
    "category": "초중고",
    "type": "초중고",
    "address": "경상남도 창원시 성산구 중앙동 2-2",
    "tel": "",
    "lat": 35.229248,
    "lng": 128.671852
  },
  {
    "name": "용호초등학교",
    "category": "초중고",
    "type": "초중고",
    "address": "경상남도 창원시 의창구 용호동 68-1",
    "tel": "",
    "lat": 35.234279,
    "lng": 128.676502
  },
  {
    "name": "웅남중학교",
    "category": "초중고",
    "type": "초중고",
    "address": "경상남도 창원시 성산구 상남동 5-3",
    "tel": "",
    "lat": 35.216224,
    "lng": 128.68898
  },
  {
    "name": "웅남초등학교",
    "category": "초중고",
    "type": "초중고",
    "address": "경상남도 창원시 성산구 상남동 44-3",
    "tel": "",
    "lat": 35.218441,
    "lng": 128.688075
  },
  {
    "name": "진해고등학교",
    "category": "초중고",
    "type": "초중고",
    "address": "경상남도 창원시 진해구 여좌동 55",
    "tel": "",
    "lat": 35.16135,
    "lng": 128.663705
  },
  {
    "name": "진해남산초등학교",
    "category": "초중고",
    "type": "초중고",
    "address": "경상남도 창원시 진해구 제황산동 28-13",
    "tel": "",
    "lat": 35.147839,
    "lng": 128.663317
  },
  {
    "name": "진해남중학교",
    "category": "초중고",
    "type": "초중고",
    "address": "경상남도 창원시 진해구 경화동 781-22",
    "tel": "",
    "lat": 35.161618,
    "lng": 128.689414
  },
  {
    "name": "진해여자고등학교",
    "category": "초중고",
    "type": "초중고",
    "address": "경상남도 창원시 진해구 여좌동 534",
    "tel": "",
    "lat": 35.156476,
    "lng": 128.657929
  },
  {
    "name": "진해여자중학교",
    "category": "초중고",
    "type": "초중고",
    "address": "경상남도 창원시 진해구 여좌동 499",
    "tel": "",
    "lat": 35.156944,
    "lng": 128.659035
  },
  {
    "name": "진해중앙고등학교",
    "category": "초중고",
    "type": "초중고",
    "address": "경상남도 창원시 진해구 경화동 781-22",
    "tel": "",
    "lat": 35.161627,
    "lng": 128.689414
  },
  {
    "name": "진해중앙초등학교",
    "category": "초중고",
    "type": "초중고",
    "address": "경상남도 창원시 진해구 태백동 5",
    "tel": "",
    "lat": 35.153824,
    "lng": 128.674512
  },
  {
    "name": "진해중학교",
    "category": "초중고",
    "type": "초중고",
    "address": "경상남도 창원시 진해구 여좌동 63",
    "tel": "",
    "lat": 35.160195,
    "lng": 128.664183
  },
  {
    "name": "토월중학교",
    "category": "초중고",
    "type": "초중고",
    "address": "경상남도 창원시 의창구 신월동 9-2",
    "tel": "",
    "lat": 35.223816,
    "lng": 128.689227
  },
  {
    "name": "토월초등학교",
    "category": "초중고",
    "type": "초중고",
    "address": "경상남도 창원시 성산구 사파동 13",
    "tel": "",
    "lat": 35.22642,
    "lng": 128.698983
  },
  {
    "name": "창원경일고등학교",
    "category": "초중고",
    "type": "초중고",
    "address": "경상남도 창원시 성산구 중앙동 11-5",
    "tel": "",
    "lat": 35.226582,
    "lng": 128.661229
  },
  {
    "name": "창원경일여자고등학교",
    "category": "초중고",
    "type": "초중고",
    "address": "경상남도 창원시 성산구 내동 산 8-17",
    "tel": "",
    "lat": 35.226944,
    "lng": 128.66251
  },
  {
    "name": "창원공업고등학교",
    "category": "초중고",
    "type": "초중고",
    "address": "경상남도 창원시 의창구 팔용동 4-5",
    "tel": "",
    "lat": 35.236306,
    "lng": 128.643724
  },
  {
    "name": "창원기계공업고등학교",
    "category": "초중고",
    "type": "초중고",
    "address": "경상남도 창원시 성산구 중앙동 109",
    "tel": "",
    "lat": 35.22658,
    "lng": 128.664129
  },
  {
    "name": "창원남고등학교",
    "category": "초중고",
    "type": "초중고",
    "address": "경상남도 창원시 성산구 외동 257-6",
    "tel": "",
    "lat": 35.213964,
    "lng": 128.679767
  },
  {
    "name": "창원남산고등학교",
    "category": "초중고",
    "type": "초중고",
    "address": "경상남도 창원시 성산구 가음동 2-7",
    "tel": "",
    "lat": 35.203473,
    "lng": 128.700316
  },
  {
    "name": "창원남산초등학교",
    "category": "초중고",
    "type": "초중고",
    "address": "경상남도 창원시 성산구 남양동 36",
    "tel": "",
    "lat": 35.20593,
    "lng": 128.704534
  },
  {
    "name": "창원남중학교",
    "category": "초중고",
    "type": "초중고",
    "address": "경상남도 창원시 성산구 외동 257-7",
    "tel": "",
    "lat": 35.213964,
    "lng": 128.679767
  },
  {
    "name": "제황초등학교",
    "category": "초중고",
    "type": "초중고",
    "address": "경상남도 창원시 진해구 제황산동 28-2",
    "tel": "",
    "lat": 35.148719,
    "lng": 128.669313
  },
  {
    "name": "창원대암고등학교",
    "category": "초중고",
    "type": "초중고",
    "address": "경상남도 창원시 성산구 대방동 76",
    "tel": "",
    "lat": 35.207554,
    "lng": 128.711432
  },
  {
    "name": "창원문성고등학교",
    "category": "초중고",
    "type": "초중고",
    "address": "경상남도 창원시 의창구 두대동 108-2",
    "tel": "",
    "lat": 35.236446,
    "lng": 128.659989
  },
  {
    "name": "창원봉림고등학교",
    "category": "초중고",
    "type": "초중고",
    "address": "경상남도 창원시 의창구 봉곡동 169-1",
    "tel": "",
    "lat": 35.248354,
    "lng": 128.67648
  },
  {
    "name": "창원사파고등학교",
    "category": "초중고",
    "type": "초중고",
    "address": "경상남도 창원시 성산구 사파동 92",
    "tel": "",
    "lat": 35.221584,
    "lng": 128.704557
  },
  {
    "name": "창원상남중학교",
    "category": "초중고",
    "type": "초중고",
    "address": "경상남도 창원시 성산구 가음정동 689",
    "tel": "",
    "lat": 35.21474,
    "lng": 128.68438
  },
  {
    "name": "창원상남초등학교",
    "category": "초중고",
    "type": "초중고",
    "address": "경상남도 창원시 성산구 상남동 44-2",
    "tel": "",
    "lat": 35.22155,
    "lng": 128.68947
  },
  {
    "name": "창원신월고등학교",
    "category": "초중고",
    "type": "초중고",
    "address": "경상남도 창원시 의창구 신월동 76-1",
    "tel": "",
    "lat": 35.226833,
    "lng": 128.693688
  },
  {
    "name": "창원신월초등학교",
    "category": "초중고",
    "type": "초중고",
    "address": "경상남도 창원시 의창구 신월동 76",
    "tel": "",
    "lat": 35.22536,
    "lng": 128.693751
  },
  {
    "name": "창원여자고등학교",
    "category": "초중고",
    "type": "초중고",
    "address": "경상남도 창원시 성산구 중앙동 11-6",
    "tel": "",
    "lat": 35.227375,
    "lng": 128.660151
  },
  {
    "name": "창원용호고등학교",
    "category": "초중고",
    "type": "초중고",
    "address": "경상남도 창원시 의창구 용호동 68-2",
    "tel": "",
    "lat": 35.233144,
    "lng": 128.676703
  },
  {
    "name": "창원중앙고등학교",
    "category": "초중고",
    "type": "초중고",
    "address": "경상남도 창원시 의창구 용호동 71",
    "tel": "",
    "lat": 35.231018,
    "lng": 128.677289
  },
  {
    "name": "창원중앙여자고등학교",
    "category": "초중고",
    "type": "초중고",
    "address": "경상남도 창원시 성산구 상남동 45-4",
    "tel": "",
    "lat": 35.214819,
    "lng": 128.691764
  },
  {
    "name": "창원중앙중학교",
    "category": "초중고",
    "type": "초중고",
    "address": "경상남도 창원시 성산구 반지동 91",
    "tel": "",
    "lat": 35.240613,
    "lng": 128.657735
  },
  {
    "name": "창원천광학교",
    "category": "초중고",
    "type": "초중고",
    "address": "경상남도 창원시 성산구 가음동 11-2",
    "tel": "",
    "lat": 35.210699,
    "lng": 128.692855
  },
  {
    "name": "창원토월고등학교",
    "category": "초중고",
    "type": "초중고",
    "address": "경상남도 창원시 성산구 토월동 443",
    "tel": "",
    "lat": 35.225747,
    "lng": 128.703829
  },
  {
    "name": "국제예술유치원",
    "category": "유아시설",
    "type": "유아시설",
    "address": "경상남도 창원시 성산구 상남동 44-1",
    "tel": "",
    "lat": 35.220488,
    "lng": 128.688612
  },
  {
    "name": "가온유치원",
    "category": "유아시설",
    "type": "유아시설",
    "address": "경상남도 창원시 진해구 경화동 1503-1",
    "tel": "",
    "lat": 35.159542,
    "lng": 128.680455
  },
  {
    "name": "나라유치원",
    "category": "유아시설",
    "type": "유아시설",
    "address": "경상남도 창원시 성산구 대방동 355",
    "tel": "",
    "lat": 35.214826,
    "lng": 128.706886
  },
  {
    "name": "다나유치원",
    "category": "유아시설",
    "type": "유아시설",
    "address": "경상남도 창원시 성산구 상남동 45-1",
    "tel": "",
    "lat": 35.21601,
    "lng": 128.693045
  },
  {
    "name": "대광유치원",
    "category": "유아시설",
    "type": "유아시설",
    "address": "경상남도 창원시 진해구 태백동 산 84-14",
    "tel": "",
    "lat": 35.17114,
    "lng": 128.658159
  },
  {
    "name": "꽃무지풀무지유치원",
    "category": "유아시설",
    "type": "유아시설",
    "address": "경상남도 창원시 성산구 사파동 72-3",
    "tel": "",
    "lat": 35.221265,
    "lng": 128.70237
  },
  {
    "name": "도솔유치원",
    "category": "유아시설",
    "type": "유아시설",
    "address": "경상남도 창원시 성산구 상남동 45-1",
    "tel": "",
    "lat": 35.218352,
    "lng": 128.692614
  },
  {
    "name": "동성아이별꽃유치원",
    "category": "유아시설",
    "type": "유아시설",
    "address": "경상남도 창원시 성산구 사파동 93",
    "tel": "",
    "lat": 35.219877,
    "lng": 128.703891
  },
  {
    "name": "동화유치원",
    "category": "유아시설",
    "type": "유아시설",
    "address": "경상남도 창원시 성산구 남산동 601-1",
    "tel": "",
    "lat": 35.20987,
    "lng": 128.700801
  },
  {
    "name": "라온유치원",
    "category": "유아시설",
    "type": "유아시설",
    "address": "경상남도 창원시 성산구 용호동 22-2",
    "tel": "",
    "lat": 35.237839,
    "lng": 128.685636
  },
  {
    "name": "룸비니유치원",
    "category": "유아시설",
    "type": "유아시설",
    "address": "경상남도 창원시 성산구 남양동 20",
    "tel": "",
    "lat": 35.211985,
    "lng": 128.700647
  },
  {
    "name": "리라아름유치원",
    "category": "유아시설",
    "type": "유아시설",
    "address": "경상남도 창원시 성산구 가음동 22-2",
    "tel": "",
    "lat": 35.209137,
    "lng": 128.695932
  },
  {
    "name": "성모유치원",
    "category": "유아시설",
    "type": "유아시설",
    "address": "경상남도 창원시 의창구 명서동 104",
    "tel": "",
    "lat": 35.241356,
    "lng": 128.644705
  },
  {
    "name": "숲과샘유치원",
    "category": "유아시설",
    "type": "유아시설",
    "address": "경상남도 창원시 성산구 양곡동 951-2",
    "tel": "",
    "lat": 35.201107,
    "lng": 128.627102
  },
  {
    "name": "신비하나름유치원",
    "category": "유아시설",
    "type": "유아시설",
    "address": "경상남도 창원시 성산구 반림동 8",
    "tel": "",
    "lat": 35.239052,
    "lng": 128.669181
  },
  {
    "name": "성심유치원",
    "category": "유아시설",
    "type": "유아시설",
    "address": "경상남도 창원시 진해구 중앙동 13",
    "tel": "",
    "lat": 35.150358,
    "lng": 128.662038
  },
  {
    "name": "성아유치원",
    "category": "유아시설",
    "type": "유아시설",
    "address": "경상남도 창원시 성산구 사파동 145",
    "tel": "",
    "lat": 35.219409,
    "lng": 128.695929
  },
  {
    "name": "성주유치원",
    "category": "유아시설",
    "type": "유아시설",
    "address": "경상남도 창원시 성산구 안민동 92",
    "tel": "",
    "lat": 35.186545,
    "lng": 128.690132
  },
  {
    "name": "아이뜰유치원",
    "category": "유아시설",
    "type": "유아시설",
    "address": "경상남도 창원시 성산구 대방동 376",
    "tel": "",
    "lat": 35.204733,
    "lng": 128.711322
  },
  {
    "name": "용호유치원",
    "category": "유아시설",
    "type": "유아시설",
    "address": "경상남도 창원시 의창구 용호동 68-3",
    "tel": "",
    "lat": 35.233695,
    "lng": 128.677387
  },
  {
    "name": "자연유치원",
    "category": "유아시설",
    "type": "유아시설",
    "address": "경상남도 창원시 성산구 대방동 370-2",
    "tel": "",
    "lat": 35.206973,
    "lng": 128.710675
  },
  {
    "name": "창원남산유치원",
    "category": "유아시설",
    "type": "유아시설",
    "address": "경상남도 창원시 성산구 남양동 36",
    "tel": "",
    "lat": 35.206345,
    "lng": 128.703733
  },