[{"name":"비봉시장","category":"전통시장","type":"상설장","address":"경상남도 진주시 진주대로1070번길 15-1","tel":"","lat":35.1954967666573,"lng":128.085212880419,"geocoded_by":"kakao"},{"name":"평거한보하이타운","category":"전통시장","type":"상설장","address":"경상남도 진주시 순환로 553번길 7","tel":"055-742-6853","lat":35.1726510696047,"lng":128.05925668107,"geocoded_by":"kakao"},{"name":"천전시장","category":"전통시장","type":"상설장","address":"경상남도 진주시 진주대로 954번길 4","tel":"","lat":35.1850559816874,"lng":128.088580557424,"geocoded_by":"kakao"},{"name":"진주논개시장(장대시장)","category":"전통시장","type":"상설장","address":"경상남도 진주시 진양호로569번길 12","tel":"055-745-0120","lat":35.1950658471675,"lng":128.087223255444,"geocoded_by":"kakao"},{"name":"일반성시장","category":"전통시장","type":"상설장+3일장","address":"경상남도 진주시 일반성면 동부로1993번길 27","tel":"","lat":35.1712243861204,"lng":128.282206804687,"geocoded_by":"kakao"},{"name":"이현종합상가","category":"전통시장","type":"상설장","address":"경상남도 진주시 신안로 165","tel":"055-742-0343","lat":35.1919912909273,"lng":128.066133403217,"geocoded_by":"kakao"},{"name":"진주청과시장","category":"전통시장","type":"상설장","address":"경상남도 진주시 촉석로 226번길 3","tel":"055-748-4955","lat":35.1962457016164,"lng":128.086685149641,"geocoded_by":"kakao"},{"name":"자유시장","category":"전통시장","type":"상설장","address":"경상남도 진주시 도동천로 95","tel":"055-752-3095","lat":35.1801682154105,"lng":128.110304794753,"geocoded_by":"kakao"},{"name":"동부종합상가","category":"전통시장","type":"상설장","address":"경상남도 진주시 대신로299번길 7","tel":"051-752-9540","lat":35.1870447432628,"lng":128.116209230907,"geocoded_by":"kakao"},{"name":"새서부시장","category":"전통시장","type":"상설장","address":"경상남도 진주시 진주대로1175번길16-1","tel":"","lat":35.1949434223621,"lng":128.07593519418,"geocoded_by":"kakao"},{"name":"문산시장","category":"전통시장","type":"4일장","address":"경상남도 진주시 문산읍 소문길 68","tel":"","lat":35.1704650612364,"lng":128.16915739068,"geocoded_by":"kakao"},{"name":"진주중앙시장","category":"전통시장","type":"상설장","address":"경상남도 진주시 진양호로547번길 8-1","tel":"055-741-2151","lat":35.1939144840151,"lng":128.084896703682,"geocoded_by":"kakao"},{"name":"대곡시장","category":"전통시장","type":"상설장","address":"경상남도 진주시 대곡면 진의로 1079번길 6","tel":"","lat":35.2637011834033,"lng":128.168562543848,"geocoded_by":"kakao"},{"name":"금곡시장","category":"전통시장","type":"상설장","address":"경상남도 진주시 금곡면 구암두문로 1021-9","tel":"","lat":35.0907504700679,"lng":128.18623093266,"geocoded_by":"kakao"},{"name":"진주동성상가","category":"전통시장","type":"상설장","address":"경상남도 진주시 진주대로 901","tel":"","lat":35.180954319298,"lng":128.089084194945,"geocoded_by":"kakao"}]