[
  {
    "name": "비봉시장",
    "category": "전통시장",
    "type": "상설장",
    "address": "경상남도 진주시 진주대로1070번길 15-1",
    "tel": "",
    "lat": 35.195497,
    "lng": 128.085214
  },
  {
    "name": "평거한보하이타운",
    "category": "전통시장",
    "type": "상설장",
    "address": "경상남도 진주시 순환로 553번길 7",
    "tel": "055-742-6853",
    "lat": 35.172615,
    "lng": 128.05929
  },
  {
    "name": "천전시장",
    "category": "전통시장",
    "type": "상설장",
    "address": "경상남도 진주시 진주대로 954번길 4",
    "tel": "",
    "lat": 35.185054,
    "lng": 128.088577
  },
  {
    "name": "진주논개시장(장대시장)",
    "category": "전통시장",
    "type": "상설장",
    "address": "경상남도 진주시 진양호로569번길 12",
    "tel": "055-745-0120",
    "lat": 35.195062,
    "lng": 128.087218
  },
  {
    "name": "일반성시장",
    "category": "전통시장",
    "type": "상설장+3일장",
    "address": "경상남도 진주시 일반성면 동부로1993번길 27",
    "tel": "",
    "lat": 35.171217,
    "lng": 128.282215
  },
  {
    "name": "이현종합상가",
    "category": "전통시장",
    "type": "상설장",
    "address": "경상남도 진주시 신안로 165",
    "tel": "055-742-0343",
    "lat": 35.191987,
    "lng": 128.066129
  },
  {
    "name": "진주청과시장",
    "category": "전통시장",
    "type": "상설장",
    "address": "경상남도 진주시 촉석로 226번길 3",
    "tel": "055-748-4955",
    "lat": 35.196247,
    "lng": 128.086684
  },
  {
    "name": "자유시장",
    "category": "전통시장",
    "type": "상설장",
    "address": "경상남도 진주시 도동천로 95",
    "tel": "055-752-3095",
    "lat": 35.18017,
    "lng": 128.110347
  },
  {
    "name": "동부종합상가",
    "category": "전통시장",
    "type": "상설장",
    "address": "경상남도 진주시 대신로299번길 7",
    "tel": "051-752-9540",
    "lat": 35.187047,
    "lng": 128.116215
  },
  {
    "name": "새서부시장",
    "category": "전통시장",
    "type": "상설장",
    "address": "경상남도 진주시 진주대로1175번길16-1",
    "tel": "",
    "lat": 35.194946,
    "lng": 128.075929
  },
  {
    "name": "문산시장",
    "category": "전통시장",
    "type": "4일장",
    "address": "경상남도 진주시 문산읍 소문길 68",
    "tel": "",
    "lat": 35.170423,
    "lng": 128.169125
  },
  {
    "name": "진주중앙시장",
    "category": "전통시장",
    "type": "상설장",
    "address": "경상남도 진주시 진양호로547번길 8-1",
    "tel": "055-741-2151",
    "lat": 35.19392,
    "lng": 128.084897
  },
  {
    "name": "대곡시장",
    "category": "전통시장",
    "type": "상설장",
    "address": "경상남도 진주시 대곡면 진의로 1079번길 6",
    "tel": "",
    "lat": 35.263703,
    "lng": 128.168562
  },
  {
    "name": "금곡시장",
    "category": "전통시장",
    "type": "상설장",
    "address": "경상남도 진주시 금곡면 구암두문로 1021-9",
    "tel": "",
    "lat": 35.090754,
    "lng": 128.186233
  },
  {
    "name": "진주동성상가",
    "category": "전통시장",
    "type": "상설장",
    "address": "경상남도 진주시 진주대로 901",
    "tel": "",
    "lat": 35.180919,
    "lng": 128.089335
  }
]