[{"name":"진주고용복지플러스센터","category":"관공서","type":"관공서","address":"경상남도 진주시 진양호로 563 안성빌딩 2~4층","tel":"055-753-9090","lat":35.1941452409628,"lng":128.086863921848,"geocoded_by":"kakao"},{"name":"진주지청 별관","category":"관공서","type":"관공서","address":"경상남도 진주시 진주대로 973 (ABL생명 2층)","tel":"055-763-9090","lat":35.1866226381769,"lng":128.086792611925,"geocoded_by":"kakao"},{"name":"진주지청","category":"관공서","type":"관공서","address":"경상남도 진주시 금산면 금산순환로11번길 43","tel":"055-752-0009","lat":35.2175989505898,"lng":128.143333963417,"geocoded_by":"kakao"},{"name":"경남서부세관","category":"관공서","type":"관공서","address":"경상남도 진주시 동진로 259 (상대동)","tel":"055-750-7999","lat":35.1807025097624,"lng":128.119604885054,"geocoded_by":"kakao"},{"name":"진주세무서","category":"관공서","type":"관공서","address":"경상남도 진주시 진주대로908번길 15","tel":"055-751-0200","lat":35.1823674580593,"lng":128.09142820161,"geocoded_by":"kakao"},{"name":"진주교도소","category":"관공서","type":"관공서","address":"경상남도 진주시 대곡면 월암로23번길 39","tel":"055-741-2181","lat":35.280724,"lng":128.158618},{"name":"진주지소","category":"관공서","type":"관공서","address":"경상남도 진주시 소호로 86","tel":"055-750-3500","lat":35.1761317648287,"lng":128.13603848645,"geocoded_by":"kakao"},{"name":"경남서부보훈지청","category":"관공서","type":"관공서","address":"경상남도 진주시 월아산로 2082-5 (초전동)","tel":"055-752-3881","lat":35.2129428937957,"lng":128.116761217313,"geocoded_by":"kakao"},{"name":"진주우체국","category":"관공서","type":"관공서","address":"경상남도 진주시 비봉로24번길 15 (중안동)","tel":"055-790-0570","lat":35.1936085258312,"lng":128.082768306055,"geocoded_by":"kakao"},{"name":"진주일반성우체국","category":"관공서","type":"관공서","address":"경상남도 진주시 일반성면 동부로 1941","tel":"055-754-6800","lat":35.1723714123188,"lng":128.275783387212,"geocoded_by":"kakao"},{"name":"진주문산우체국","category":"관공서","type":"관공서","address":"경상남도 진주시 문산읍 동부로609번길 10","tel":"055-761-5800","lat":35.1692790947723,"lng":128.167068434753,"geocoded_by":"kakao"},{"name":"진주칠암동우체국","category":"관공서","type":"관공서","address":"경상남도 진주시 진주대로 940 (칠암동)","tel":"055-752-7024","lat":35.1841014325565,"lng":128.089019584107,"geocoded_by":"kakao"},{"name":"진주상대동우체국","category":"관공서","type":"관공서","address":"경상남도 진주시 솔밭로 129 (상대동)","tel":"055-752-3026","lat":35.1806694268987,"lng":128.10669101974,"geocoded_by":"kakao"},{"name":"진주이현동우체국","category":"관공서","type":"관공서","address":"경상남도 진주시 평거로 272 (이현동)","tel":"055-745-2122","lat":35.1915696707247,"lng":128.062676871213,"geocoded_by":"kakao"},{"name":"진주하대동우체국","category":"관공서","type":"관공서","address":"경상남도 진주시 도동로 182 (하대동)","tel":"055-753-1480","lat":35.1864361178811,"lng":128.122525443642,"geocoded_by":"kakao"},{"name":"진주평거동우체국","category":"관공서","type":"관공서","address":"경상남도 진주시 진양호로125번길 15 (평거동)","tel":"055-747-4717","lat":35.1692414288184,"lng":128.052567381672,"geocoded_by":"kakao"},{"name":"진주신안동우체국","category":"관공서","type":"관공서","address":"경상남도 진주시 평거로 86 (신안동)","tel":"055-741-5755","lat":35.1771921328968,"lng":128.067508133937,"geocoded_by":"kakao"},{"name":"진주명석우체국","category":"관공서","type":"관공서","address":"경상남도 진주시 명석면 광제산로 17","tel":"055-744-3200","lat":35.2174225841518,"lng":128.040702906526,"geocoded_by":"kakao"},{"name":"진주초장동우체국","category":"관공서","type":"관공서","address":"경상남도 진주시 초장로14번길 18 (초전동)","tel":"055-762-2101","lat":35.2049014940061,"lng":128.114507269196,"geocoded_by":"kakao"},{"name":"진주충무공동우체국","category":"관공서","type":"관공서","address":"경상남도 진주시 충의로 153","tel":"055-790-9557","lat":35.17483595481,"lng":128.149508863872,"geocoded_by":"kakao"},{"name":"진주대곡우체국","category":"관공서","type":"관공서","address":"경상남도 진주시 대곡면 진의로 1090","tel":"055-744-0100","lat":35.2640075659734,"lng":128.169230347128,"geocoded_by":"kakao"},{"name":"진주내동우체국","category":"관공서","type":"관공서","address":"경상남도 진주시 내동면 순환로 370","tel":"055-759-5400","lat":35.1594280181935,"lng":128.069962108415,"geocoded_by":"kakao"},{"name":"진주금곡우체국","category":"관공서","type":"관공서","address":"경상남도 진주시 금곡면 월아산로 115","tel":"055-754-2000","lat":35.0921964097797,"lng":128.186923860485,"geocoded_by":"kakao"},{"name":"진주수곡우체국","category":"관공서","type":"관공서","address":"경상남도 진주시 수곡면 곤수로 977","tel":"055-754-5000","lat":35.1987102318193,"lng":127.931427620657,"geocoded_by":"kakao"},{"name":"진주이반성우체국","category":"관공서","type":"관공서","address":"경상남도 진주시 이반성면 오봉산로 707","tel":"055-754-7000","lat":35.1682034369312,"lng":128.326154050098,"geocoded_by":"kakao"},{"name":"진주미천우체국","category":"관공서","type":"관공서","address":"경상남도 진주시 미천면 진산로 1824","tel":"055-744-1400","lat":35.3180683443212,"lng":128.090482408408,"geocoded_by":"kakao"},{"name":"진주지수우체국","category":"관공서","type":"관공서","address":"경상남도 진주시 지수면 지수로 488","tel":"055-754-5500","lat":35.2351035683453,"lng":128.270145823512,"geocoded_by":"kakao"},{"name":"진주사봉우체국","category":"관공서","type":"관공서","address":"경상남도 진주시 사봉면 사군로 51","tel":"055-754-4000","lat":35.1871831221631,"lng":128.264590468902,"geocoded_by":"kakao"},{"name":"진주진성우체국","category":"관공서","type":"관공서","address":"경상남도 진주시 진성면 동부로 1316","tel":"055-754-3000","lat":35.1836150623047,"lng":128.22454553251,"geocoded_by":"kakao"},{"name":"진주집현우체국","category":"관공서","type":"관공서","address":"경상남도 진주시 집현면 진산로 529","tel":"055-772-5500","lat":35.2322725277522,"lng":128.101272072762,"geocoded_by":"kakao"},{"name":"진주대평우체국","category":"관공서","type":"관공서","address":"경상남도 진주시 대평면 한들길 52","tel":"055-744-4061","lat":35.2333307561661,"lng":127.96033007827,"geocoded_by":"kakao"},{"name":"진주금산우체국","category":"관공서","type":"관공서","address":"경상남도 진주시 금산면 금산순환로 40","tel":"055-761-2200","lat":35.2174917920612,"lng":128.148218343828,"geocoded_by":"kakao"},{"name":"진주가좌동우체국","category":"관공서","type":"관공서","address":"경상남도 진주시 가좌길 15 (가좌동)","tel":"055-759-8400","lat":35.1560663482025,"lng":128.105820929331,"geocoded_by":"kakao"},{"name":"진주상봉서동우편취급국","category":"관공서","type":"관공서","address":"경상남도 진주시 창렬로 128 (상봉동)","tel":"055-741-1301","lat":35.1982287872831,"lng":128.071224745258,"geocoded_by":"kakao"},{"name":"진주서부우편취급국","category":"관공서","type":"관공서","address":"경상남도 진주시 평거로 159 (신안동)","tel":"055-741-9955","lat":35.1831721263621,"lng":128.068792945527,"geocoded_by":"kakao"},{"name":"진주옥봉동우편취급국","category":"관공서","type":"관공서","address":"경상남도 진주시 진산로 5 (옥봉동)","tel":" 055-748-0183","lat":35.1934279124793,"lng":128.091801423638,"geocoded_by":"kakao"},{"name":"진주천전우편취급국","category":"관공서","type":"관공서","address":"경상남도 진주시 진주대로856번길 9 (주약동)","tel":"055-753-9976","lat":35.1774400683915,"lng":128.092824847698,"geocoded_by":"kakao"},{"name":"경상국립대학교우편취급국","category":"관공서","type":"관공서","address":"경상남도 진주시 진주대로 501 (가좌동, 경상국립대학교가좌캠퍼스)","tel":"055-753-2800","lat":35.1567141271262,"lng":128.098001405271,"geocoded_by":"kakao"},{"name":"진주도동우편취급국","category":"관공서","type":"관공서","address":"경상남도 진주시 대신로340번길 7 (하대동)","tel":"055-758-9527","lat":35.1909374189539,"lng":128.11754121874,"geocoded_by":"kakao"},{"name":"진주상평공단우편취급국","category":"관공서","type":"관공서","address":"경상남도 진주시 돗골로 117번길 13","tel":"055-753-9957","lat":35.1784934990496,"lng":128.110905651442,"geocoded_by":"kakao"},{"name":"진주우편집중국","category":"관공서","type":"관공서","address":"경상남도 진주시 금산면 중천로 25","tel":"055-760-7003","lat":35.216846808758,"lng":128.141157748497,"geocoded_by":"kakao"},{"name":"진주시청","category":"관공서","type":"관공서","address":"경상남도 진주시 동진로 155 (상대동)","tel":"055-749-2114","lat":35.1802432613252,"lng":128.108822830868,"geocoded_by":"kakao"},{"name":"문산읍사무소","category":"관공서","type":"관공서","address":"경상남도 진주시 문산읍 동부로587번길 12","tel":"055-749-3001","lat":35.1691520254141,"lng":128.164351219731,"geocoded_by":"kakao"},{"name":"금곡면사무소","category":"관공서","type":"관공서","address":"경상남도 진주시 금곡면 월아산로 140","tel":"055-749-3091","lat":35.0944568659102,"lng":128.188148968076,"geocoded_by":"kakao"},{"name":"금산면사무소","category":"관공서","type":"관공서","address":"경상남도 진주시 금산면 금산로 107","tel":"055-749-3791","lat":35.2140280476912,"lng":128.147961339335,"geocoded_by":"kakao"},{"name":"내동면사무소","category":"관공서","type":"관공서","address":"경상남도 진주시 내동면 순환로 389","tel":"055-749-3031","lat":35.1602112495299,"lng":128.06791969122,"geocoded_by":"kakao"},{"name":"대곡면사무소","category":"관공서","type":"관공서","address":"경상남도 진주시 대곡면 진의로 1094","tel":"055-749-3761","lat":35.2644855025075,"lng":128.169129081716,"geocoded_by":"kakao"},{"name":"대평면사무소","category":"관공서","type":"관공서","address":"경상남도 진주시 대평면 한들길 44","tel":"055-749-3911","lat":35.2326291210182,"lng":127.96089390664,"geocoded_by":"kakao"},{"name":"명석면사무소","category":"관공서","type":"관공서","address":"경상남도 진주시 명석면 광제산로 37","tel":"055-749-3881","lat":35.21976489325,"lng":128.040209021858,"geocoded_by":"kakao"},{"name":"미천면사무소","category":"관공서","type":"관공서","address":"경상남도 진주시 미천면 오방로 731","tel":"055-749-3851","lat":35.2992120912889,"lng":128.115382869871,"geocoded_by":"kakao"},{"name":"사봉면사무소","category":"관공서","type":"관공서","address":"경상남도 진주시 사봉면 사군로 105","tel":"055-749-3701","lat":35.1890286901114,"lng":128.270332394011,"geocoded_by":"kakao"},{"name":"수곡면사무소","category":"관공서","type":"관공서","address":"경상남도 진주시 수곡면 곤수로 972","tel":"055-749-3941","lat":35.1986435294945,"lng":127.932166171749,"geocoded_by":"kakao"},{"name":"이반성면사무소","category":"관공서","type":"관공서","address":"경상남도 진주시 이반성면 오봉산로 719","tel":"055-749-3181","lat":35.1692066998361,"lng":128.326313907267,"geocoded_by":"kakao"},{"name":"일반성면사무소","category":"관공서","type":"관공서","address":"경상남도 진주시 일반성면 동부로1959번길 2","tel":"055-749-3151","lat":35.1712778281565,"lng":128.277165782869,"geocoded_by":"kakao"},{"name":"정촌면사무소","category":"관공서","type":"관공서","address":"경상남도 진주시 정촌면 정촌로 57","tel":"055-749-3061","lat":35.1314267401538,"lng":128.102606637727,"geocoded_by":"kakao"},{"name":"지수면사무소","category":"관공서","type":"관공서","address":"경상남도 진주시 지수면 지수로 483","tel":"055-749-3731","lat":35.2351537904554,"lng":128.269387877135,"geocoded_by":"kakao"},{"name":"진성면사무소","category":"관공서","type":"관공서","address":"경상남도 진주시 진성면 동부로 1329","tel":"055-749-3121","lat":35.1852932239092,"lng":128.223550168671,"geocoded_by":"kakao"},{"name":"집현면사무소","category":"관공서","type":"관공서","address":"경상남도 진주시 집현면 진산로 697","tel":"055-749-3821","lat":35.2393003302271,"lng":128.086677730693,"geocoded_by":"kakao"},{"name":"가호동주민센터","category":"관공서","type":"관공서","address":"경상남도 진주시 진주역로95번길 6 (가좌동)","tel":"055-749-4531","lat":35.1519209909955,"lng":128.114171973163,"geocoded_by":"kakao"},{"name":"상대동주민센터","category":"관공서","type":"관공서","address":"경상남도 진주시 동진로 189 (상대동)","tel":"055-749-4161","lat":35.1803148437127,"lng":128.111936986314,"geocoded_by":"kakao"},{"name":"상봉동주민센터","category":"관공서","type":"관공서","address":"경상남도 진주시 진주성로111(상봉동)","tel":"055-749-4121","lat":35.1995550290122,"lng":128.074949361392,"geocoded_by":"kakao"},{"name":"상평동주민센터","category":"관공서","type":"관공서","address":"경상남도 진주시 솔밭로80번길 18 (상평동)","tel":"055-749-4281","lat":35.1760982965967,"lng":128.109076314774,"geocoded_by":"kakao"},{"name":"성북동주민센터","category":"관공서","type":"관공서","address":"경상남도 진주시 진주대로1143번길 3 (봉곡동)","tel":"055-749-4041","lat":35.1957352660964,"lng":128.078249763335,"geocoded_by":"kakao"},{"name":"신안동주민센터","category":"관공서","type":"관공서","address":"경상남도 진주시 진양호로 360 (신안동)","tel":"055-749-4461","lat":35.1845055568418,"lng":128.069012736585,"geocoded_by":"kakao"},{"name":"이현동주민센터","category":"관공서","type":"관공서","address":"경상남도 진주시 평거로 287 (이현동)","tel":"055-749-4481","lat":35.1927807288043,"lng":128.061775195794,"geocoded_by":"kakao"},{"name":"중앙동주민센터","category":"관공서","type":"관공서","address":"경상남도 진주시 진주대로1032번길 14 (동성동)","tel":"055-749-4081","lat":35.1920682381776,"lng":128.086186168613,"geocoded_by":"kakao"},{"name":"천전동주민센터","category":"관공서","type":"관공서","address":"경상남도 진주시 망경남길 44번길 22(망경동)","tel":"055-749-4001","lat":35.1831498229719,"lng":128.085497606253,"geocoded_by":"kakao"},{"name":"초장동주민센터","category":"관공서","type":"관공서","address":"경상남도 진주시 초장로14번길 14 (초전동)","tel":"055-749-4401","lat":35.2045815913529,"lng":128.114608754971,"geocoded_by":"kakao"},{"name":"충무공동주민센터","category":"관공서","type":"관공서","address":"경상남도 진주시 충의로 145 (충무공동)","tel":"055-749-3971","lat":35.174832522467,"lng":128.150307061011,"geocoded_by":"kakao"},{"name":"판문동주민센터","category":"관공서","type":"관공서","address":"경상남도 진주시 새평거로 55 (평거동)","tel":"055-749-4501","lat":35.1668551358331,"lng":128.054628658897,"geocoded_by":"kakao"},{"name":"평거동주민센터","category":"관공서","type":"관공서","address":"경상남도 진주시 평거로 40번길 5(평거동)","tel":"055-749-4431","lat":35.1738124486089,"lng":128.065396442668,"geocoded_by":"kakao"},{"name":"하대동행정복지센터","category":"관공서","type":"관공서","address":"경상남도 진주시 모덕로 305 (하대동)","tel":"055-749-4251","lat":35.1893422414685,"lng":128.127378370745,"geocoded_by":"kakao"},{"name":"농업기술센터","category":"관공서","type":"관공서","address":"경상남도 진주시 문정로471-9(문산읍)","tel":"055-749-5611","lat":35.1488839429427,"lng":128.146107710221,"geocoded_by":"kakao"},{"name":"시립도서관","category":"관공서","type":"관공서","address":"경상남도 진주시 모덕로47번길 13-17 (상대동)","tel":"055-749-5981","lat":35.1831009097617,"lng":128.101951345981,"geocoded_by":"kakao"},{"name":"보건소","category":"관공서","type":"관공서","address":"경상남도 진주시 월아산로 2026 (초전동)","tel":"055-749-5711","lat":35.2147000914572,"lng":128.122915099843,"geocoded_by":"kakao"},{"name":"경상남도청 서부청사","category":"관공서","type":"관공서","address":"경상남도 진주시 월아산로 2026","tel":"055-120","lat":35.2147000914572,"lng":128.122915099843,"geocoded_by":"kakao"},{"name":"한국이민사박물관","category":"관공서","type":"관공서","address":"인천광역시 중구 월미로329번길","tel":"032-440-4710","lat":35.184936,"lng":128.223342},{"name":"신진주 역세권데시앙 어린이놀이터 1(108동 앞)","category":"어린이놀이시설","type":"어린이놀이시설","address":"경남 진주시 가좌동 2092 / 108동  앞","tel":"","lat":35.1533682014632,"lng":128.122268223951,"geocoded_by":"kakao"},{"name":"신진주 역세권 데시앙 어린이놀이터2(106동 앞)","category":"어린이놀이시설","type":"어린이놀이시설","address":"경남 진주시 가좌동 2092 / 106동 앞","tel":"","lat":35.1533682014632,"lng":128.122268223951,"geocoded_by":"kakao"},{"name":"신진주 역세권 파밀리에 피아체 208동 앞 놀이터","category":"어린이놀이시설","type":"어린이놀이시설","address":"경상남도 진주시 가좌동 1962 신진주 역세권 파밀리에 피아체","tel":"","lat":35.1539718149844,"lng":128.113966183747,"geocoded_by":"kakao"},{"name":"신진주 역세권 파밀리에 피아체 102동 108동 사이 놀이터","category":"어린이놀이시설","type":"어린이놀이시설","address":"경상남도 진주시 가좌동 1964  신진주 역세권 파밀리에 피아체","tel":"","lat":35.1529738053897,"lng":128.11283805146,"geocoded_by":"kakao"},{"name":"신진주역세권 데시앙 유아놀이터 (108동 앞)","category":"어린이놀이시설","type":"어린이놀이시설","address":"경남 진주시 가좌길 11","tel":"","lat":35.155988221926,"lng":128.106391643245,"geocoded_by":"kakao"},{"name":"신진주역세권 데시앙 어린이놀이터 4 (101동 앞)","category":"어린이놀이시설","type":"어린이놀이시설","address":"경남 진주시 가좌길 11","tel":"","lat":35.155988221926,"lng":128.106391643245,"geocoded_by":"kakao"},{"name":"신진주역세권 데시앙 어린이놀이터 3 (103동 앞)","category":"어린이놀이시설","type":"어린이놀이시설","address":"경남 진주시 가좌길 11","tel":"","lat":35.155988221926,"lng":128.106391643245,"geocoded_by":"kakao"},{"name":"코딩하루라운지 어린이놀이시설","category":"어린이놀이시설","type":"어린이놀이시설","address":"경남 진주시 진성면 진의로257번길 25","tel":"","lat":35.2057772134301,"lng":128.219374387358,"geocoded_by":"kakao"},{"name":"햇살가득유치원 실외놀이터","category":"어린이놀이시설","type":"어린이놀이시설","address":"경남 진주시 진주역로95번길 15","tel":"","lat":35.1517346177229,"lng":128.113003344064,"geocoded_by":"kakao"},{"name":"보인원 어린이집 놀이시설 1","category":"어린이놀이시설","type":"어린이놀이시설","address":"경남 진주시 내동면 삼계로258번길 77","tel":"","lat":35.1488427272003,"lng":128.040434686226,"geocoded_by":"kakao"},{"name":"신진주역세권우미린 마운딩놀이터","category":"어린이놀이시설","type":"어린이놀이시설","address":"경남 진주시 진주역로 55","tel":"","lat":35.1516636876879,"lng":128.109327764853,"geocoded_by":"kakao"},{"name":"신진주역세권우미린 어린이놀이터2","category":"어린이놀이시설","type":"어린이놀이시설","address":"경남 진주시 진주역로 55","tel":"","lat":35.1516636876879,"lng":128.109327764853,"geocoded_by":"kakao"},{"name":"신진주역세권 우미린 더시그니처 유아놀이터(어린이집 뒤)","category":"어린이놀이시설","type":"어린이놀이시설","address":"경남 진주시 진주역로 55","tel":"","lat":35.1516636876879,"lng":128.109327764853,"geocoded_by":"kakao"},{"name":"신진주역세권 우미린 더시그니처  어린이놀이터1(어린이집 앞)","category":"어린이놀이시설","type":"어린이놀이시설","address":"경남 진주시 진주역로 55","tel":"","lat":35.1516636876879,"lng":128.109327764853,"geocoded_by":"kakao"},{"name":"신진주역세권 우미린","category":"어린이놀이시설","type":"어린이놀이시설","address":"경남 진주시 진주역로 55","tel":"","lat":35.1516636876879,"lng":128.109327764853,"geocoded_by":"kakao"},{"name":"대암팜트리캠핑장 어린이놀이터","category":"어린이놀이시설","type":"어린이놀이시설","address":"경남 진주시 집현면 진산로 1205-36","tel":"","lat":35.2718775414806,"lng":128.081512204557,"geocoded_by":"kakao"},{"name":"경상남도교육청 유아교육원 진주체험분원 영상미디어실","category":"어린이놀이시설","type":"어린이놀이시설","address":"경남 진주시 진성면 진의로 160","tel":"","lat":35.2003327706462,"lng":128.222231328707,"geocoded_by":"kakao"},{"name":"아이누리 어린이공원","category":"어린이놀이시설","type":"어린이놀이시설","address":"경남 진주시 진양호로327번길 8-3","tel":"","lat":35.1828767437367,"lng":128.066413624135,"geocoded_by":"kakao"},{"name":"꿀잼키즈룸 진주혁신점","category":"어린이놀이시설","type":"어린이놀이시설","address":"경남 진주시 충의로 119","tel":"","lat":35.1746095179074,"lng":128.152774279876,"geocoded_by":"kakao"},{"name":"진주장재 더샵진주피에르테아파트 어린이놀이터3","category":"어린이놀이시설","type":"어린이놀이시설","address":"경남 진주시 초북로 95","tel":"","lat":35.2128448925696,"lng":128.106310260109,"geocoded_by":"kakao"},{"name":"진주장재 더샵진주피에르테아파트 어린이놀이터2","category":"어린이놀이시설","type":"어린이놀이시설","address":"경남 진주시 초북로 95","tel":"","lat":35.2128448925696,"lng":128.106310260109,"geocoded_by":"kakao"},{"name":"진주장재 더샵진주피에르테아파트 어린이놀이터1","category":"어린이놀이시설","type":"어린이놀이시설","address":"경남 진주시 초북로 95","tel":"","lat":35.2128448925696,"lng":128.106310260109,"geocoded_by":"kakao"},{"name":"꿀잼키즈룸 신진주역점","category":"어린이놀이시설","type":"어린이놀이시설","address":"경남 진주시 개양로 114","tel":"","lat":35.154251563943,"lng":128.118643381467,"geocoded_by":"kakao"},{"name":"덕진 진주의봄 유아놀이터","category":"어린이놀이시설","type":"어린이놀이시설","address":"가좌동2033번지","tel":"","lat":35.1494109740268,"lng":128.110999413929,"geocoded_by":"kakao"},{"name":"덕진 진주의봄 어린이놀이터-1","category":"어린이놀이시설","type":"어린이놀이시설","address":"가좌동2033번지","tel":"","lat":35.1494109740268,"lng":128.110999413929,"geocoded_by":"kakao"},{"name":"덕진 진주의봄 어린이놀이터-2","category":"어린이놀이시설","type":"어린이놀이시설","address":"가좌동2033번지","tel":"","lat":35.1494109740268,"lng":128.110999413929,"geocoded_by":"kakao"},{"name":"하이베어","category":"어린이놀이시설","type":"어린이놀이시설","address":"경남 진주시 영천강로 172","tel":"","lat":35.1788044877172,"lng":128.139547976499,"geocoded_by":"kakao"},{"name":"예하공원 어린이놀이터","category":"어린이놀이시설","type":"어린이놀이시설","address":"진주시 정촌면 화개리 1513-10","tel":"","lat":35.1249848361424,"lng":128.097889661857,"geocoded_by":"kakao"},{"name":"청년감자탕순대국 진주혁신점","category":"어린이놀이시설","type":"어린이놀이시설","address":"경남 진주시 충의로 20-12","tel":"","lat":35.1755266394381,"lng":128.14727278915,"geocoded_by":"kakao"},{"name":"장대어린이공원 어린이놀이시설","category":"어린이놀이시설","type":"어린이놀이시설","address":null,"tel":"","lat":35.1932,"lng":128.0881},{"name":"상평제1어린이공원(하대중앙공원) 어린이놀이시설","category":"어린이놀이시설","type":"어린이놀이시설","address":"경상남도 진주시 도동로263번길 24 (하대동)","tel":"","lat":35.194061,"lng":128.119991},{"name":"가호2호어린이공원 어린이놀이시설","category":"어린이놀이시설","type":"어린이놀이시설","address":null,"tel":"","lat":35.158692,"lng":128.106259},{"name":"가호3호어린이공원 어린이놀이시설","category":"어린이놀이시설","type":"어린이놀이시설","address":null,"tel":"","lat":35.162601,"lng":128.111165},{"name":"평거3호어린이공원 어린이놀이시설","category":"어린이놀이시설","type":"어린이놀이시설","address":null,"tel":"","lat":35.173662,"lng":128.058273},{"name":"평거5호어린이공원 어린이놀이시설","category":"어린이놀이시설","type":"어린이놀이시설","address":null,"tel":"","lat":35.184485,"lng":128.068982},{"name":"평거9호어린이공원 어린이놀이시설","category":"어린이놀이시설","type":"어린이놀이시설","address":null,"tel":"","lat":35.174842,"lng":128.063619},{"name":"평거10호어린이공원 어린이놀이시설","category":"어린이놀이시설","type":"어린이놀이시설","address":null,"tel":"","lat":35.17234,"lng":128.063101},{"name":"원계어린이공원 어린이놀이시설","category":"어린이놀이시설","type":"어린이놀이시설","address":null,"tel":"","lat":35.1561,"lng":128.1033},{"name":"궁전키즈스쿨어린이집 놀이시설","category":"어린이놀이시설","type":"어린이놀이시설","address":"경상남도 진주시 선학산길59번길 22-17 (하대동)","tel":"","lat":35.189178120178,"lng":128.108388129854,"geocoded_by":"kakao"},{"name":"자연아이어린이집 놀이시설","category":"어린이놀이시설","type":"어린이놀이시설","address":"경상남도 진주시 신안로34번길 11-1 (신안동)","tel":"","lat":35.1821455075412,"lng":128.071438718742,"geocoded_by":"kakao"},{"name":"참사랑 어린이집 놀이시설","category":"어린이놀이시설","type":"어린이놀이시설","address":"경상남도 진주시 진양호로115번길 29-1, 8통 3반 (평거동)","tel":"","lat":35.1699517746974,"lng":128.050581459045,"geocoded_by":"kakao"},{"name":"푸른재능어린이집 놀이터","category":"어린이놀이시설","type":"어린이놀이시설","address":"경상남도 진주시 비봉로 108 (상봉동)","tel":"","lat":35.2001199433483,"lng":128.078843012392,"geocoded_by":"kakao"},{"name":"숲속연어어린이집 놀이시설","category":"어린이놀이시설","type":"어린이놀이시설","address":"경상남도 진주시 장재새미길 38 (장재동)","tel":"","lat":35.2082554019178,"lng":128.098103763252,"geocoded_by":"kakao"},{"name":"한솔어린이집 놀이시설","category":"어린이놀이시설","type":"어린이놀이시설","address":"경상남도 진주시 나불로8번길 33 (이현동)","tel":"","lat":35.2000344640515,"lng":128.056110776613,"geocoded_by":"kakao"},{"name":"가온누리어린이집 놀이터","category":"어린이놀이시설","type":"어린이놀이시설","address":"경상남도 진주시 금산면 금산순환로 536-7","tel":"","lat":35.2189396467689,"lng":128.15930796868,"geocoded_by":"kakao"},{"name":"진주망경한보타운아파트 105동앞","category":"어린이놀이시설","type":"어린이놀이시설","address":"경상남도 진주시 망경로 234-5 (망경동, 망경한보타운)","tel":"","lat":35.1824122398265,"lng":128.079483118937,"geocoded_by":"kakao"},{"name":"진주망경한보타운아파트 107동앞","category":"어린이놀이시설","type":"어린이놀이시설","address":"경상남도 진주시 망경로 234-5 (망경동, 망경한보타운)","tel":"","lat":35.1824122398265,"lng":128.079483118937,"geocoded_by":"kakao"},{"name":"가좌주공2차아파트 3-놀이터(202동앞)","category":"어린이놀이시설","type":"어린이놀이시설","address":"경상남도 진주시 가호로 26 (가좌동, 가좌주공아파트)","tel":"","lat":35.1628599327687,"lng":128.110499072524,"geocoded_by":"kakao"},{"name":"신익무지개아파트","category":"어린이놀이시설","type":"어린이놀이시설","address":"경상남도 진주시 숙호산로 64-5 (이현동, 신익무지개아파트)","tel":"","lat":35.1865401458365,"lng":128.061976486951,"geocoded_by":"kakao"},{"name":"하영그린맨션","category":"어린이놀이시설","type":"어린이놀이시설","address":"경상남도 진주시 진양호로97번길 8-3 (평거동, 하영그린맨션)","tel":"","lat":35.1681582957967,"lng":128.050640161739,"geocoded_by":"kakao"},{"name":"동성가든타워아파트","category":"어린이놀이시설","type":"어린이놀이시설","address":"경상남도 진주시 진주대로 901 (강남동, 동성가든타워)","tel":"","lat":35.180954319298,"lng":128.089084194945,"geocoded_by":"kakao"},{"name":"대경강남타운(주상복합)아파트","category":"어린이놀이시설","type":"어린이놀이시설","address":"경상남도 진주시 진주대로891번길 16 (강남동, 대경강남타운)","tel":"","lat":35.1803125257444,"lng":128.089562607632,"geocoded_by":"kakao"},{"name":"가좌주공2차아파트 1-놀이터(201동옆)","category":"어린이놀이시설","type":"어린이놀이시설","address":"경상남도 진주시 가호로 26 (가좌동, 가좌주공아파트)","tel":"","lat":35.1628599327687,"lng":128.110499072524,"geocoded_by":"kakao"},{"name":"이현하이클래스웰가아파트 어린이놀이터1","category":"어린이놀이시설","type":"어린이놀이시설","address":"경상남도 진주시 진주대로 1317 (이현동, 이현하이클래스웰가아파트)","tel":"","lat":35.1944480400036,"lng":128.057130179061,"geocoded_by":"kakao"},{"name":"이현하이클래스웰가아파트 어린이놀이터2","category":"어린이놀이시설","type":"어린이놀이시설","address":"경상남도 진주시 진주대로 1317 (이현동, 이현하이클래스웰가아파트)","tel":"","lat":35.1944480400036,"lng":128.057130179061,"geocoded_by":"kakao"},{"name":"이현하이클래스웰가아파트 어린이놀이터3","category":"어린이놀이시설","type":"어린이놀이시설","address":"경상남도 진주시 진주대로 1317 (이현동, 이현하이클래스웰가아파트)","tel":"","lat":35.1944480400036,"lng":128.057130179061,"geocoded_by":"kakao"},{"name":"옥봉대림아파트 놀이터","category":"어린이놀이시설","type":"어린이놀이시설","address":"경상남도 진주시 향교로115번길 10-1 (옥봉동)","tel":"","lat":35.1958930695956,"lng":128.093378071538,"geocoded_by":"kakao"},{"name":"진주기독육아원 놀이터","category":"어린이놀이시설","type":"어린이놀이시설","address":"경상남도 진주시 진양호로145번길 11-3 (평거동)","tel":"","lat":35.1704291931407,"lng":128.054202272567,"geocoded_by":"kakao"},{"name":"가호9호어린이공원 어린이놀이시설","category":"어린이놀이시설","type":"어린이놀이시설","address":null,"tel":"","lat":35.154666,"lng":128.108668},{"name":"칠암어린이공원 어린이놀이시설","category":"어린이놀이시설","type":"어린이놀이시설","address":null,"tel":"","lat":35.18291,"lng":128.093387},{"name":"이현1근린공원 어린이놀이시설","category":"어린이놀이시설","type":"어린이놀이시설","address":null,"tel":"","lat":35.192784,"lng":128.061745},{"name":"송림공원 어린이놀이시설","category":"어린이놀이시설","type":"어린이놀이시설","address":null,"tel":"","lat":35.176153,"lng":128.10826},{"name":"초전공원 어린이놀이시설","category":"어린이놀이시설","type":"어린이놀이시설","address":null,"tel":"","lat":35.206,"lng":128.1168},{"name":"진주현대금빛마을 - ③107동 앞","category":"어린이놀이시설","type":"어린이놀이시설","address":"경상남도 진주시 집현면 진산로 675 (현대아파트)","tel":"","lat":35.2389080421075,"lng":128.089089127887,"geocoded_by":"kakao"},{"name":"금산 e-편한세상 어린이놀이터1","category":"어린이놀이시설","type":"어린이놀이시설","address":"경상남도 진주시 금산면 금산순환로80번길 8","tel":"","lat":35.2202710958738,"lng":128.151397337659,"geocoded_by":"kakao"},{"name":"금산 e-편한세상 어린이놀이터2","category":"어린이놀이시설","type":"어린이놀이시설","address":"경상남도 진주시 금산면 금산순환로80번길 8","tel":"","lat":35.2202710958738,"lng":128.151397337659,"geocoded_by":"kakao"},{"name":"휴먼빌아파트 101동 피로티","category":"어린이놀이시설","type":"어린이놀이시설","address":"경상남도 진주시 내동면 순환로 425-61 (남강휴먼빌아파트)","tel":"","lat":35.1620384752439,"lng":128.066814102841,"geocoded_by":"kakao"},{"name":"휴먼빌아파트 유아놀이터","category":"어린이놀이시설","type":"어린이놀이시설","address":"경상남도 진주시 내동면 순환로 425-61 (남강휴먼빌아파트)","tel":"","lat":35.1620384752439,"lng":128.066814102841,"geocoded_by":"kakao"},{"name":"휴먼빌아파트 놀이터3","category":"어린이놀이시설","type":"어린이놀이시설","address":"경상남도 진주시 내동면 순환로 425-61 (남강휴먼빌아파트)","tel":"","lat":35.1620384752439,"lng":128.066814102841,"geocoded_by":"kakao"},{"name":"휴먼빌아파트 놀이터1","category":"어린이놀이시설","type":"어린이놀이시설","address":"경상남도 진주시 내동면 순환로 425-61 (남강휴먼빌아파트)","tel":"","lat":35.1620384752439,"lng":128.066814102841,"geocoded_by":"kakao"},{"name":"진주코아루 아파트 어린이놀이터2","category":"어린이놀이시설","type":"어린이놀이시설","address":"경상남도 진주시 문산읍 월아산로1117번길 5 (진주문산코아루아파트)","tel":"","lat":35.1704968128399,"lng":128.160636120851,"geocoded_by":"kakao"},{"name":"신안흥한2차아파트 201동앞 놀이터","category":"어린이놀이시설","type":"어린이놀이시설","address":"경상남도 진주시 평거로139번길 11-3 (신안동, 신안흥한타운2차아파트)","tel":"","lat":35.1809064139227,"lng":128.068222730109,"geocoded_by":"kakao"},{"name":"상봉주공1차아파트 어린이놀이시설","category":"어린이놀이시설","type":"어린이놀이시설","address":"경상남도 진주시 창렬로 129 (상봉동, 주공1차아파트)","tel":"","lat":35.1996207692698,"lng":128.071162097637,"geocoded_by":"kakao"},{"name":"평거초등학교 어린이놀이시설","category":"어린이놀이시설","type":"어린이놀이시설","address":"경상남도 진주시 진양호로51번길 16 (판문동)","tel":"","lat":35.1690001913081,"lng":128.045704954395,"geocoded_by":"kakao"},{"name":"경남 진주 두산위브 어린이놀이터(1)","category":"어린이놀이시설","type":"어린이놀이시설","address":"경상남도 진주시 금산면 중장로154번길 49 (진주금산두산위브아파트)","tel":"","lat":35.2215997142599,"lng":128.149497767222,"geocoded_by":"kakao"},{"name":"경남 진주 두산위브 어린이놀이터(2)","category":"어린이놀이시설","type":"어린이놀이시설","address":"경상남도 진주시 금산면 중장로154번길 49 (진주금산두산위브아파트)","tel":"","lat":35.2215997142599,"lng":128.149497767222,"geocoded_by":"kakao"},{"name":"경남 진주 두산위브 어린이놀이터(3)","category":"어린이놀이시설","type":"어린이놀이시설","address":"경상남도 진주시 금산면 중장로154번길 49 (진주금산두산위브아파트)","tel":"","lat":35.2215997142599,"lng":128.149497767222,"geocoded_by":"kakao"},{"name":"사봉초등학교 어린이놀이시설","category":"어린이놀이시설","type":"어린이놀이시설","address":"경상남도 진주시 사봉면 사군로 99","tel":"","lat":35.1893527699216,"lng":128.269148219305,"geocoded_by":"kakao"},{"name":"신안주공2차 211동 옆 놀이터","category":"어린이놀이시설","type":"어린이놀이시설","address":"경상남도 진주시 신안들말길 47 (신안동, 주공2차아파트)","tel":"","lat":35.1796337697703,"lng":128.066156976121,"geocoded_by":"kakao"},{"name":"문산어린이집 놀이터","category":"어린이놀이시설","type":"어린이놀이시설","address":"경상남도 진주시 문산읍 월아산로 999-12","tel":"","lat":35.1610692440886,"lng":128.163296538992,"geocoded_by":"kakao"},{"name":"대곡어린이집 놀이터","category":"어린이놀이시설","type":"어린이놀이시설","address":"경상남도 진주시 대곡면 진의로1079번길 9","tel":"","lat":35.2629986859534,"lng":128.168239934647,"geocoded_by":"kakao"},{"name":"진주가좌 주공아파트 101동 앞 놀이터","category":"어린이놀이시설","type":"어린이놀이시설","address":"경상남도 진주시 가호로 26 (가좌동, 가좌주공아파트)","tel":"","lat":35.1628599327687,"lng":128.110499072524,"geocoded_by":"kakao"},{"name":"휴먼빌아파트 놀이터2","category":"어린이놀이시설","type":"어린이놀이시설","address":"경상남도 진주시 내동면 순환로 425-61 (남강휴먼빌아파트)","tel":"","lat":35.1620384752439,"lng":128.066814102841,"geocoded_by":"kakao"},{"name":"진주코아루 아파트 어린이놀이터1","category":"어린이놀이시설","type":"어린이놀이시설","address":"경상남도 진주시 문산읍 월아산로1117번길 5 (진주문산코아루아파트)","tel":"","lat":35.1704968128399,"lng":128.160636120851,"geocoded_by":"kakao"},{"name":"신안주공2차(2-1)아파트 - ②210동앞","category":"어린이놀이시설","type":"어린이놀이시설","address":"경상남도 진주시 신안들말길 17 (신안동, 주공1차아파트)","tel":"","lat":35.1778723308049,"lng":128.069859293152,"geocoded_by":"kakao"},{"name":"대영아파트","category":"어린이놀이시설","type":"어린이놀이시설","address":"경상남도 진주시 말티고개로 102-5 (하대동, 하대대영아파트)","tel":"","lat":35.1964240584557,"lng":128.112903124721,"geocoded_by":"kakao"},{"name":"진주덕산아파트 놀이시설","category":"어린이놀이시설","type":"어린이놀이시설","address":"경상남도 진주시 서장대로178번길 17 (이현동, 진주덕산아파트)","tel":"","lat":35.1873115212372,"lng":128.058822224573,"geocoded_by":"kakao"},{"name":"하영무지개아파트","category":"어린이놀이시설","type":"어린이놀이시설","address":"경상남도 진주시 진양호로 153 (평거동, 하영무지개맨션)","tel":"","lat":35.169795478936,"lng":128.055341457052,"geocoded_by":"kakao"},{"name":"초전일동아파트","category":"어린이놀이시설","type":"어린이놀이시설","address":"경상남도 진주시 초전북로 20 (초전동, 초전일동아파트)","tel":"","lat":35.2076496951735,"lng":128.109623822432,"geocoded_by":"kakao"},{"name":"대경빌라트아파트","category":"어린이놀이시설","type":"어린이놀이시설","address":"경상남도 진주시 가호로 79 (호탄동, 대경빌라트)","tel":"","lat":35.1651007482106,"lng":128.114209143653,"geocoded_by":"kakao"},{"name":"일신아파트 어린이놀이시설","category":"어린이놀이시설","type":"어린이놀이시설","address":"경상남도 진주시 하대로34번길 10 (하대동, 일신아파트)","tel":"","lat":35.1937333536614,"lng":128.114908732853,"geocoded_by":"kakao"},{"name":"평거주공1차아파트","category":"어린이놀이시설","type":"어린이놀이시설","address":"경상남도 진주시 진양호로185번길 7 (평거동, 주공1차아파트)","tel":"","lat":35.1716970165929,"lng":128.058207340402,"geocoded_by":"kakao"},{"name":"망경한주맨션","category":"어린이놀이시설","type":"어린이놀이시설","address":"경상남도 진주시 망경북길 53 (망경동, 망경한주맨션)","tel":"","lat":35.1862663244814,"lng":128.084312414427,"geocoded_by":"kakao"},{"name":"촉석아파트","category":"어린이놀이시설","type":"어린이놀이시설","address":"경상남도 진주시 솔밭로92번길 5 (상평동, 촉석맨션)","tel":"","lat":35.1779047992634,"lng":128.107822641229,"geocoded_by":"kakao"},{"name":"도동초등학교 어린이놀이시설","category":"어린이놀이시설","type":"어린이놀이시설","address":"경상남도 진주시 대신로 324 (하대동)","tel":"","lat":35.190155272212,"lng":128.117678066536,"geocoded_by":"kakao"},{"name":"가람초등학교 어린이놀이시설","category":"어린이놀이시설","type":"어린이놀이시설","address":"경상남도 진주시 남강로959번길 22 (상평동)","tel":"","lat":35.1735953845415,"lng":128.101451598298,"geocoded_by":"kakao"},{"name":"수정어린이공원 어린이놀이시설","category":"어린이놀이시설","type":"어린이놀이시설","address":null,"tel":"","lat":35.197232,"lng":128.085312},{"name":"옥봉어린이집 놀이터","category":"어린이놀이시설","type":"어린이놀이시설","address":"경상남도 진주시 향교로120번길 9-6 (옥봉동)","tel":"","lat":35.1957161964618,"lng":128.091344208354,"geocoded_by":"kakao"},{"name":"강주어린이집 놀이터","category":"어린이놀이시설","type":"어린이놀이시설","address":"경상남도 진주시 정촌면 강주길66번길 7","tel":"","lat":35.1130932159551,"lng":128.099303471185,"geocoded_by":"kakao"},{"name":"가좌대화리네르빌아파트 놀이터","category":"어린이놀이시설","type":"어린이놀이시설","address":"경상남도 진주시 진주대로 652-15 (가좌동, 가좌 대화리네르빌)","tel":"","lat":35.1647176674566,"lng":128.107016395449,"geocoded_by":"kakao"},{"name":"평거 2차 현대아파트 놀이터","category":"어린이놀이시설","type":"어린이놀이시설","address":"경상남도 진주시 신안들말길 58 (신안동, 평거2차현대아파트)","tel":"","lat":35.1810802880345,"lng":128.06716827106,"geocoded_by":"kakao"},{"name":"남광하우스토리아파트 놀이터","category":"어린이놀이시설","type":"어린이놀이시설","address":"경상남도 진주시 진양호로 227 (평거동)","tel":"","lat":35.1746407340652,"lng":128.061075483923,"geocoded_by":"kakao"},{"name":"반성초등학교병설유치원 어린이놀이시설","category":"어린이놀이시설","type":"어린이놀이시설","address":"경상남도 진주시 일반성면 동부로 2060","tel":"","lat":35.1700770073753,"lng":128.285739573481,"geocoded_by":"kakao"},{"name":"초전흥한아파트어린이 놀이터 1","category":"어린이놀이시설","type":"어린이놀이시설","address":"경상남도 진주시 초전남로 36 (초전동)","tel":"","lat":35.1996302065622,"lng":128.114004489697,"geocoded_by":"kakao"},{"name":"초전흥한아파트어린이놀이터2","category":"어린이놀이시설","type":"어린이놀이시설","address":"경상남도 진주시 초전남로 36 (초전동)","tel":"","lat":35.1996302065622,"lng":128.114004489697,"geocoded_by":"kakao"},{"name":"초전현대아파트101동 놀이터","category":"어린이놀이시설","type":"어린이놀이시설","address":"경상남도 진주시 초전남로 60 (초전동, 현대아파트)","tel":"","lat":35.2016999567845,"lng":128.11393436847,"geocoded_by":"kakao"},{"name":"금곡초등학교 어린이놀이시설","category":"어린이놀이시설","type":"어린이놀이시설","address":"경상남도 진주시 금곡면 월아산로89번길 11","tel":"","lat":35.0900105983106,"lng":128.185253166576,"geocoded_by":"kakao"},{"name":"푸른마을아파트 놀이터","category":"어린이놀이시설","type":"어린이놀이시설","address":"경상남도 진주시 상봉대룡길 37 (상봉동, 에스디푸른마을)","tel":"","lat":35.2030056934046,"lng":128.067181400503,"geocoded_by":"kakao"},{"name":"진주 상평어린이집 놀이터","category":"어린이놀이시설","type":"어린이놀이시설","address":"경상남도 진주시 돗골로25번길 2 (상평동)","tel":"","lat":35.1706218949958,"lng":128.112595738632,"geocoded_by":"kakao"},{"name":"진주시 무지개동산 놀이터","category":"어린이놀이시설","type":"어린이놀이시설","address":null,"tel":"","lat":35.158719,"lng":128.033019},{"name":"상봉어린이집 놀이터","category":"어린이놀이시설","type":"어린이놀이시설","address":"경상남도 진주시 북장대로85번길 11 (상봉동)","tel":"","lat":35.1973228884133,"lng":128.071734185704,"geocoded_by":"kakao"},{"name":"진주 문산파란채 아파트 104동 앞 놀이터","category":"어린이놀이시설","type":"어린이놀이시설","address":"경상남도 진주시 문산읍 월아산로1048번길 15 (진주문산파란채아파트)","tel":"","lat":35.1659450417844,"lng":128.165456529685,"geocoded_by":"kakao"},{"name":"진주 문산파란채 아파트 103동 앞 놀이터","category":"어린이놀이시설","type":"어린이놀이시설","address":"경상남도 진주시 문산읍 월아산로1048번길 15 (진주문산파란채아파트)","tel":"","lat":35.1659450417844,"lng":128.165456529685,"geocoded_by":"kakao"},{"name":"들말흥한타운 (101동) 놀이터","category":"어린이놀이시설","type":"어린이놀이시설","address":"경상남도 진주시 석갑로 45 (평거동, 들말흥한아파트)","tel":"","lat":35.1751361891432,"lng":128.065069142479,"geocoded_by":"kakao"},{"name":"들말흥한타운 (105동) 놀이터","category":"어린이놀이시설","type":"어린이놀이시설","address":"경상남도 진주시 석갑로 45 (평거동, 들말흥한아파트)","tel":"","lat":35.1751361891432,"lng":128.065069142479,"geocoded_by":"kakao"},{"name":"들말흥한타운 (113동) 놀이터","category":"어린이놀이시설","type":"어린이놀이시설","address":"경상남도 진주시 석갑로 45 (평거동, 들말흥한아파트)","tel":"","lat":35.1751361891432,"lng":128.065069142479,"geocoded_by":"kakao"},{"name":"풀밭별공원(구 초전2호어린이공원) 어린이놀이시설","category":"어린이놀이시설","type":"어린이놀이시설","address":null,"tel":"","lat":35.206,"lng":128.1168},{"name":"초전1호어린이공원 어린이놀이시설","category":"어린이놀이시설","type":"어린이놀이시설","address":null,"tel":"","lat":35.206,"lng":128.1168},{"name":"풀밭해공원(구 초전택지근린공원) 어린이놀이시설","category":"어린이놀이시설","type":"어린이놀이시설","address":null,"tel":"","lat":35.206,"lng":128.1168},{"name":"진흥아파트 어린이놀이터","category":"어린이놀이시설","type":"어린이놀이시설","address":"경상남도 진주시 금산면 금산로 22 (진주금산 진흥 더 루벤스)","tel":"","lat":35.2130438724194,"lng":128.140453061836,"geocoded_by":"kakao"},{"name":"느티나무아파트 102동앞 놀이터","category":"어린이놀이시설","type":"어린이놀이시설","address":"경상남도 진주시 금산면 중천로 74 (느티나무아파트)","tel":"","lat":35.2181161320218,"lng":128.144466734956,"geocoded_by":"kakao"},{"name":"느티나무아파트 106동앞 놀이터(조합,그네,매트만 검사)","category":"어린이놀이시설","type":"어린이놀이시설","address":"경상남도 진주시 금산면 중천로 74 (느티나무아파트)","tel":"","lat":35.2181161320218,"lng":128.144466734956,"geocoded_by":"kakao"},{"name":"진주가좌 주공아파트 101동 옆 놀이터","category":"어린이놀이시설","type":"어린이놀이시설","address":"경상남도 진주시 가호로 26 (가좌동, 가좌주공아파트)","tel":"","lat":35.1628599327687,"lng":128.110499072524,"geocoded_by":"kakao"},{"name":"진주평거주공2차아파트 어린이놀이터","category":"어린이놀이시설","type":"어린이놀이시설","address":"경상남도 진주시 진양호로125번길 6 (평거동, 평거주공2아파트)","tel":"","lat":35.168622295858,"lng":128.053254638762,"geocoded_by":"kakao"},{"name":"초전현대아파트201동 놀이터","category":"어린이놀이시설","type":"어린이놀이시설","address":"경상남도 진주시 대신로457번길 19 (초전동)","tel":"","lat":35.2011391077237,"lng":128.114284017089,"geocoded_by":"kakao"},{"name":"들말흥한타운 (106동) 놀이터","category":"어린이놀이시설","type":"어린이놀이시설","address":"경상남도 진주시 석갑로 45 (평거동, 들말흥한아파트)","tel":"","lat":35.1751361891432,"lng":128.065069142479,"geocoded_by":"kakao"},{"name":"가좌초등학교 어린이놀이시설","category":"어린이놀이시설","type":"어린이놀이시설","address":"경상남도 진주시 내동로348번길 17 (가좌동)","tel":"","lat":35.1495778421855,"lng":128.103331990531,"geocoded_by":"kakao"},{"name":"관봉초등학교 어린이놀이시설","category":"어린이놀이시설","type":"어린이놀이시설","address":"경상남도 진주시 정촌면 정촌로 629","tel":"","lat":35.1371173222479,"lng":128.143145468028,"geocoded_by":"kakao"},{"name":"금산초등학교 어린이놀이시설","category":"어린이놀이시설","type":"어린이놀이시설","address":"경상남도 진주시 금산면 금산로 75","tel":"","lat":35.2153027270713,"lng":128.144393305129,"geocoded_by":"kakao"},{"name":"금성초등학교 어린이놀이시설","category":"어린이놀이시설","type":"어린이놀이시설","address":"경상남도 진주시 말티고개로123번길 19 (초전동)","tel":"","lat":35.1984397207969,"lng":128.11547879472,"geocoded_by":"kakao"},{"name":"남강초등학교 어린이놀이시설","category":"어린이놀이시설","type":"어린이놀이시설","address":"경상남도 진주시 모덕로 99 (상대동)","tel":"","lat":35.18377511065,"lng":128.109716239146,"geocoded_by":"kakao"},{"name":"내동초등학교 어린이놀이시설","category":"어린이놀이시설","type":"어린이놀이시설","address":"경상남도 진주시 내동면 순환로 426","tel":"","lat":35.1651229626599,"lng":128.067669117104,"geocoded_by":"kakao"},{"name":"대곡초등학교병설유치원 어린이놀이시설","category":"어린이놀이시설","type":"어린이놀이시설","address":"경상남도 진주시 대곡면 진의로 970","tel":"","lat":35.2581081984677,"lng":128.177087848267,"geocoded_by":"kakao"},{"name":"동진초등학교 어린이놀이시설","category":"어린이놀이시설","type":"어린이놀이시설","address":"경상남도 진주시 도동로184번길 13 (하대동)","tel":"","lat":35.1877991052959,"lng":128.124550776323,"geocoded_by":"kakao"},{"name":"망경초등학교 어린이놀이시설","category":"어린이놀이시설","type":"어린이놀이시설","address":"경상남도 진주시 천수로 175 (망경동)","tel":"","lat":35.1788879235723,"lng":128.082386310063,"geocoded_by":"kakao"},{"name":"문산초등학교병설유치원 어린이놀이시설","category":"어린이놀이시설","type":"어린이놀이시설","address":"경상남도 진주시 문산읍 소문길 11","tel":"","lat":35.1706124015125,"lng":128.16263338105,"geocoded_by":"kakao"},{"name":"미천초등학교 어린이놀이시설","category":"어린이놀이시설","type":"어린이놀이시설","address":"경상남도 진주시 미천면 안간길 18-8","tel":"","lat":35.3190184551368,"lng":128.088073733665,"geocoded_by":"kakao"},{"name":"배영초등학교 어린이놀이시설","category":"어린이놀이시설","type":"어린이놀이시설","address":"경상남도 진주시 석갑로 28 (신안동)","tel":"","lat":35.1766756270993,"lng":128.067095439427,"geocoded_by":"kakao"},{"name":"봉곡초등학교 어린이놀이시설","category":"어린이놀이시설","type":"어린이놀이시설","address":"경상남도 진주시 북장대로36번길 8 (봉곡동)","tel":"","lat":35.1941035070831,"lng":128.075782261593,"geocoded_by":"kakao"},{"name":"봉원초등학교병설유치원 어린이놀이시설","category":"어린이놀이시설","type":"어린이놀이시설","address":"경상남도 진주시 의병로 95-20 (상봉동)","tel":"","lat":35.2014599102891,"lng":128.070271119479,"geocoded_by":"kakao"},{"name":"봉원초등학교 어린이놀이시설","category":"어린이놀이시설","type":"어린이놀이시설","address":"경상남도 진주시 의병로 95-20 (상봉동)","tel":"","lat":35.2014599102891,"lng":128.070271119479,"geocoded_by":"kakao"},{"name":"선학초등학교 어린이놀이시설","category":"어린이놀이시설","type":"어린이놀이시설","address":"경상남도 진주시 하대로105번길 26 (초전동)","tel":"","lat":35.1959336915928,"lng":128.123139650652,"geocoded_by":"kakao"},{"name":"수곡초등학교 어린이놀이시설","category":"어린이놀이시설","type":"어린이놀이시설","address":"경상남도 진주시 수곡면 곤수로 1000","tel":"","lat":35.2011797662918,"lng":127.931740548013,"geocoded_by":"kakao"},{"name":"신안초등학교 어린이놀이시설","category":"어린이놀이시설","type":"어린이놀이시설","address":"경상남도 진주시 평거로139번길 8 (신안동)","tel":"","lat":35.1825860506492,"lng":128.068001544111,"geocoded_by":"kakao"},{"name":"신진초등학교 어린이놀이시설","category":"어린이놀이시설","type":"어린이놀이시설","address":"경상남도 진주시 신평공원길57번길 19 (평거동)","tel":"","lat":35.1748607458817,"lng":128.066472921398,"geocoded_by":"kakao"},{"name":"명석초등학교 어린이놀이시설","category":"어린이놀이시설","type":"어린이놀이시설","address":"경상남도 진주시 명석면 광제산로 23","tel":"","lat":35.2181633980879,"lng":128.040258438458,"geocoded_by":"kakao"},{"name":"명석초등학교병설유치원 어린이놀이시설","category":"어린이놀이시설","type":"어린이놀이시설","address":"경상남도 진주시 명석면 광제산로 23","tel":"","lat":35.2181633980879,"lng":128.040258438458,"geocoded_by":"kakao"},{"name":"이반성초등학교 어린이놀이시설","category":"어린이놀이시설","type":"어린이놀이시설","address":"경상남도 진주시 이반성면 오봉산로 762","tel":"","lat":35.1732996160058,"lng":128.329047898832,"geocoded_by":"kakao"},{"name":"정촌초등학교 어린이놀이시설","category":"어린이놀이시설","type":"어린이놀이시설","address":"경상남도 진주시 동부로 11 (가좌동)","tel":"","lat":35.1607798359561,"lng":128.108272916328,"geocoded_by":"kakao"},{"name":"주약초등학교 어린이놀이시설","category":"어린이놀이시설","type":"어린이놀이시설","address":"경상남도 진주시 천수로 64 (주약동)","tel":"","lat":35.1721151389224,"lng":128.092059637522,"geocoded_by":"kakao"},{"name":"진주초등학교 어린이놀이시설","category":"어린이놀이시설","type":"어린이놀이시설","address":"경상남도 진주시 진주성로24번길 7 (인사동)","tel":"","lat":35.1934295607794,"lng":128.078360930746,"geocoded_by":"kakao"},{"name":"지수초등학교 어린이놀이시설","category":"어린이놀이시설","type":"어린이놀이시설","address":"경상남도 진주시 지수면 지사로 806","tel":"","lat":35.2334703141589,"lng":128.252440016415,"geocoded_by":"kakao"},{"name":"촉석초등학교 어린이놀이시설","category":"어린이놀이시설","type":"어린이놀이시설","address":"경상남도 진주시 평거로 259 (이현동)","tel":"","lat":35.1902978880477,"lng":128.062363543257,"geocoded_by":"kakao"},{"name":"평거초등학교병설유치원 어린이놀이시설","category":"어린이놀이시설","type":"어린이놀이시설","address":"경상남도 진주시 진양호로51번길 16 (판문동)","tel":"","lat":35.1690001913081,"lng":128.045704954395,"geocoded_by":"kakao"},{"name":"진주혜광학교 실외 어린이놀이시설","category":"어린이놀이시설","type":"어린이놀이시설","address":"경상남도 진주시 문산읍 월아산로1048번길 36","tel":"","lat":35.1644845980257,"lng":128.168607518625,"geocoded_by":"kakao"},{"name":"초전초등학교 어린이놀이시설","category":"어린이놀이시설","type":"어린이놀이시설","address":"경상남도 진주시 초전북로62번길 9 (초전동)","tel":"","lat":35.2078704332616,"lng":128.114499303183,"geocoded_by":"kakao"},{"name":"진주교육대학교부설초등학교 어린이놀이시설","category":"어린이놀이시설","type":"어린이놀이시설","address":"경상남도 진주시 진양호로369번길 3 (신안동)","tel":"","lat":35.1847405997384,"lng":128.067942016795,"geocoded_by":"kakao"},{"name":"반야유치원 어린이놀이시설","category":"어린이놀이시설","type":"어린이놀이시설","address":"경상남도 진주시 문산읍 월아산로1094번길 10","tel":"","lat":35.1694811351967,"lng":128.16277950493,"geocoded_by":"kakao"},{"name":"세종유치원 어린이놀이시설","category":"어린이놀이시설","type":"어린이놀이시설","address":"경상남도 진주시 주약약골길75번길 14 (주약동)","tel":"","lat":35.1683244626503,"lng":128.08284109811,"geocoded_by":"kakao"},{"name":"소화유치원 어린이놀이시설","category":"어린이놀이시설","type":"어린이놀이시설","address":"경상남도 진주시 문산읍 소문길67번길 9-4","tel":"","lat":35.172434925954,"lng":128.168802948257,"geocoded_by":"kakao"},{"name":"에덴유치원 어린이놀이시설","category":"어린이놀이시설","type":"어린이놀이시설","address":"경상남도 진주시 하대로26번길 33 (하대동)","tel":"","lat":35.1951517738315,"lng":128.112934081544,"geocoded_by":"kakao"},{"name":"월경사금강유치원 어린이놀이시설","category":"어린이놀이시설","type":"어린이놀이시설","address":"경상남도 진주시 망경로224번길 45 (망경동)","tel":"","lat":35.1810713331597,"lng":128.080326493982,"geocoded_by":"kakao"},{"name":"초원유치원 어린이놀이시설","category":"어린이놀이시설","type":"어린이놀이시설","address":"경상남도 진주시 진산로322번길 66 (초전동)","tel":"","lat":35.2153727326147,"lng":128.110024460758,"geocoded_by":"kakao"},{"name":"한샘유치원 어린이놀이시설","category":"어린이놀이시설","type":"어린이놀이시설","address":"경상남도 진주시 망경남길 5-3 (망경동)","tel":"","lat":35.1792564448068,"lng":128.084917043748,"geocoded_by":"kakao"},{"name":"마루유치원 어린이놀이시설","category":"어린이놀이시설","type":"어린이놀이시설","address":"경상남도 진주시 나불로21번길 106 (이현동)","tel":"","lat":35.2023761646797,"lng":128.047485586867,"geocoded_by":"kakao"},{"name":"평거1호어린이공원 어린이놀이시설","category":"어린이놀이시설","type":"어린이놀이시설","address":"경상남도 진주시 진양호로125번길 27 (평거동)","tel":"","lat":35.1700748438038,"lng":128.051999444088,"geocoded_by":"kakao"},{"name":"상평동동어린이공원 어린이놀이시설","category":"어린이놀이시설","type":"어린이놀이시설","address":null,"tel":"","lat":35.173024,"lng":128.124331},{"name":"상평서동어린이공원 어린이놀이시설","category":"어린이놀이시설","type":"어린이놀이시설","address":null,"tel":"","lat":35.169512,"lng":128.114388},{"name":"가호1호어린이공원 어린이놀이시설","category":"어린이놀이시설","type":"어린이놀이시설","address":null,"tel":"","lat":35.160425,"lng":128.106745},{"name":"가호4호어린이공원 어린이놀이시설","category":"어린이놀이시설","type":"어린이놀이시설","address":null,"tel":"","lat":35.1561,"lng":128.1033},{"name":"가호6호어린이공원 어린이놀이시설","category":"어린이놀이시설","type":"어린이놀이시설","address":null,"tel":"","lat":35.1645,"lng":128.1233},{"name":"가호7호어린이공원 어린이놀이시설","category":"어린이놀이시설","type":"어린이놀이시설","address":null,"tel":"","lat":35.164339,"lng":128.116865},{"name":"가호8호어린이공원 어린이놀이시설","category":"어린이놀이시설","type":"어린이놀이시설","address":null,"tel":"","lat":35.1645,"lng":128.1233},{"name":"평거2호어린이공원 어린이놀이시설","category":"어린이놀이시설","type":"어린이놀이시설","address":null,"tel":"","lat":35.169219,"lng":128.050411},{"name":"평거4호어린이공원 어린이놀이시설","category":"어린이놀이시설","type":"어린이놀이시설","address":null,"tel":"","lat":35.1818,"lng":128.068303},{"name":"평거7호어린이공원 어린이놀이시설","category":"어린이놀이시설","type":"어린이놀이시설","address":null,"tel":"","lat":35.177388,"lng":128.065501},{"name":"평거8호어린이공원 어린이놀이시설","category":"어린이놀이시설","type":"어린이놀이시설","address":null,"tel":"","lat":35.184485,"lng":128.068982},{"name":"평거11호어린이공원 어린이놀이시설","category":"어린이놀이시설","type":"어린이놀이시설","address":null,"tel":"","lat":35.171352,"lng":128.065353},{"name":"평거12호어린이공원 어린이놀이시설","category":"어린이놀이시설","type":"어린이놀이시설","address":null,"tel":"","lat":35.173674,"lng":128.066562},{"name":"중천어린이공원 어린이놀이시설","category":"어린이놀이시설","type":"어린이놀이시설","address":null,"tel":"","lat":35.216088,"lng":128.14085},{"name":"대평 3소공원 어린이놀이시설","category":"어린이놀이시설","type":"어린이놀이시설","address":null,"tel":"","lat":35.230863,"lng":127.959131},{"name":"하대어린이집 놀이시설","category":"어린이놀이시설","type":"어린이놀이시설","address":"경상남도 진주시 모덕로197번길 7 (하대동)","tel":"","lat":35.1891826446535,"lng":128.115287145253,"geocoded_by":"kakao"},{"name":"햇빛놀이스쿨어린이집 놀이시설","category":"어린이놀이시설","type":"어린이놀이시설","address":"경상남도 진주시 초전남로65번길 16 (초전동)","tel":"","lat":35.2018031154345,"lng":128.111702862032,"geocoded_by":"kakao"},{"name":"진주현대금빛마을 - ①101동 앞","category":"어린이놀이시설","type":"어린이놀이시설","address":"경상남도 진주시 집현면 진산로 675 (현대아파트)","tel":"","lat":35.2389080421075,"lng":128.089089127887,"geocoded_by":"kakao"},{"name":"진주현대금빛마을 - ②103동 앞","category":"어린이놀이시설","type":"어린이놀이시설","address":"경상남도 진주시 집현면 진산로 675 (현대아파트)","tel":"","lat":35.2389080421075,"lng":128.089089127887,"geocoded_by":"kakao"},{"name":"신안주공2차(2-1)아파트 - ①206옆","category":"어린이놀이시설","type":"어린이놀이시설","address":"경상남도 진주시 신안들말길 17 (신안동, 주공1차아파트)","tel":"","lat":35.1778723308049,"lng":128.069859293152,"geocoded_by":"kakao"},{"name":"한보타워맨션(1차)아파트","category":"어린이놀이시설","type":"어린이놀이시설","address":"경상남도 진주시 모덕로306번길 2 (하대동, 한보타워맨션)","tel":"","lat":35.1887769198711,"lng":128.127071606448,"geocoded_by":"kakao"},{"name":"삼환나우빌아파트 101동 놀이터","category":"어린이놀이시설","type":"어린이놀이시설","address":"경상남도 진주시 진주대로829번길 21 (주약동, 삼환나우빌)","tel":"","lat":35.1744199529988,"lng":128.091419218336,"geocoded_by":"kakao"},{"name":"봉래초등학교병설유치원 어린이놀이시설","category":"어린이놀이시설","type":"어린이놀이시설","address":"경상남도 진주시 의병로 265 (봉래동)","tel":"","lat":35.2001613512272,"lng":128.086187845006,"geocoded_by":"kakao"},{"name":"호탄삼성아파트","category":"어린이놀이시설","type":"어린이놀이시설","address":"경상남도 진주시 동부로43번길 10-13 (호탄동, 삼성아파트)","tel":"","lat":35.162980230452,"lng":128.113545511062,"geocoded_by":"kakao"},{"name":"초전푸르지오 1단지 102동앞","category":"어린이놀이시설","type":"어린이놀이시설","address":"경상남도 진주시 초장로14번길 27 (초전동, 진주초전푸르지오1단지)","tel":"","lat":35.2037677911389,"lng":128.113670735283,"geocoded_by":"kakao"},{"name":"초전푸르지오 1단지 103동앞","category":"어린이놀이시설","type":"어린이놀이시설","address":"경상남도 진주시 초장로14번길 27 (초전동, 진주초전푸르지오1단지)","tel":"","lat":35.2037677911389,"lng":128.113670735283,"geocoded_by":"kakao"},{"name":"초전푸르지오 1단지 노인정뒤","category":"어린이놀이시설","type":"어린이놀이시설","address":"경상남도 진주시 초장로14번길 27 (초전동, 진주초전푸르지오1단지)","tel":"","lat":35.2037677911389,"lng":128.113670735283,"geocoded_by":"kakao"},{"name":"한주파크맨션","category":"어린이놀이시설","type":"어린이놀이시설","address":"경상남도 진주시 남강로 479 (신안동, 한주파크맨션)","tel":"","lat":35.1815904711927,"lng":128.072936844214,"geocoded_by":"kakao"},{"name":"비아이에스어린이집 놀이터","category":"어린이놀이시설","type":"어린이놀이시설","address":"경상남도 진주시 진양호로125번길 22-28 (평거동)","tel":"","lat":35.1724904196159,"lng":128.051399177193,"geocoded_by":"kakao"},{"name":"가좌주공2차아파트 5-놀이터(212동옆)","category":"어린이놀이시설","type":"어린이놀이시설","address":"경상남도 진주시 가호로 26 (가좌동, 진주가좌주공아파트)","tel":"","lat":35.1628599327687,"lng":128.110499072524,"geocoded_by":"kakao"},{"name":"가좌주공2차아파트 2-놀이터(208동앞)","category":"어린이놀이시설","type":"어린이놀이시설","address":"경상남도 진주시 가호로 26 (가좌동, 진주가좌주공아파트)","tel":"","lat":35.1628599327687,"lng":128.110499072524,"geocoded_by":"kakao"},{"name":"가좌주공2차아파트 6-놀이터(관리동앞)","category":"어린이놀이시설","type":"어린이놀이시설","address":"경상남도 진주시 가호로 26 (가좌동, 진주가좌주공아파트)","tel":"","lat":35.1628599327687,"lng":128.110499072524,"geocoded_by":"kakao"},{"name":"초전2차 푸르지오아파트1 놀이터","category":"어린이놀이시설","type":"어린이놀이시설","address":"경상남도 진주시 초장로14번길 29 (초전동, 진주초전푸르지오2단지)","tel":"","lat":35.2078329322089,"lng":128.111912327057,"geocoded_by":"kakao"},{"name":"초전2차 푸르지오아파트2 놀이터","category":"어린이놀이시설","type":"어린이놀이시설","address":"경상남도 진주시 초장로14번길 29 (초전동, 진주초전푸르지오2단지)","tel":"","lat":35.2078329322089,"lng":128.111912327057,"geocoded_by":"kakao"},{"name":"초전2차 푸르지오아파트 유아놀이터","category":"어린이놀이시설","type":"어린이놀이시설","address":"경상남도 진주시 초장로14번길 29 (초전동, 진주초전푸르지오2단지)","tel":"","lat":35.2078329322089,"lng":128.111912327057,"geocoded_by":"kakao"},{"name":"금산아이파크아파트 - ① 101동 뒤","category":"어린이놀이시설","type":"어린이놀이시설","address":"경상남도 진주시 금산면 중천로 82 (금산아이파크아파트)","tel":"","lat":35.2171057627035,"lng":128.145517320818,"geocoded_by":"kakao"},{"name":"금산아이파크아파트 - ② 109동 뒤","category":"어린이놀이시설","type":"어린이놀이시설","address":"경상남도 진주시 금산면 중천로 82 (금산아이파크아파트)","tel":"","lat":35.2171057627035,"lng":128.145517320818,"geocoded_by":"kakao"},{"name":"금산아이파크아파트 - ③ 110동 옆","category":"어린이놀이시설","type":"어린이놀이시설","address":"경상남도 진주시 금산면 중천로 82 (금산아이파크아파트)","tel":"","lat":35.2171057627035,"lng":128.145517320818,"geocoded_by":"kakao"},{"name":"하대현대아파트 - ① 105동 앞","category":"어린이놀이시설","type":"어린이놀이시설","address":"경상남도 진주시 하대로 142 (하대동, 현대아파트)","tel":"","lat":35.1931393064652,"lng":128.126797863523,"geocoded_by":"kakao"},{"name":"하대현대아파트 - ② 104동 뒤편","category":"어린이놀이시설","type":"어린이놀이시설","address":"경상남도 진주시 하대로 142 (하대동, 현대아파트)","tel":"","lat":35.1931393064652,"lng":128.126797863523,"geocoded_by":"kakao"},{"name":"주약현대아파트 - ① 104동 앞","category":"어린이놀이시설","type":"어린이놀이시설","address":"경상남도 진주시 진주대로815번길 11 (주약동, 주약현대아파트)","tel":"","lat":35.1710966119639,"lng":128.091825827722,"geocoded_by":"kakao"},{"name":"주약현대아파트 - ③ 116동 뒤","category":"어린이놀이시설","type":"어린이놀이시설","address":"경상남도 진주시 진주대로815번길 11 (주약동, 주약현대아파트)","tel":"","lat":35.1710966119639,"lng":128.091825827722,"geocoded_by":"kakao"},{"name":"초전청구타운(B)아파트 - 107동 옆","category":"어린이놀이시설","type":"어린이놀이시설","address":"경상남도 진주시 대신로475번길 16-5 (초전동, 청구타운)","tel":"","lat":35.2027572604797,"lng":128.113641125855,"geocoded_by":"kakao"},{"name":"금산흥한골든빌아파트 - ① 101,102동 옆","category":"어린이놀이시설","type":"어린이놀이시설","address":"경상남도 진주시 금산면 금산로 123 (금산흥한골든빌)","tel":"","lat":35.2154459789586,"lng":128.150664643707,"geocoded_by":"kakao"},{"name":"키즈아일랜드어린이집","category":"어린이놀이시설","type":"어린이놀이시설","address":"경상남도 진주시 금산면 금산순환로 532","tel":"","lat":35.2188390733661,"lng":128.160106531725,"geocoded_by":"kakao"},{"name":"삼전프라자아파트 놀이터","category":"어린이놀이시설","type":"어린이놀이시설","address":"경상남도 진주시 도동로 251 (하대동)","tel":"","lat":35.192949457257,"lng":128.121257649643,"geocoded_by":"kakao"},{"name":"금산흥한골든빌아파트 - ②108동 옆","category":"어린이놀이시설","type":"어린이놀이시설","address":"경상남도 진주시 금산면 금산로 123 (금산흥한골든빌)","tel":"","lat":35.2154459789586,"lng":128.150664643707,"geocoded_by":"kakao"},{"name":"금산흥한골든빌아파트 - ③ 105동 옆","category":"어린이놀이시설","type":"어린이놀이시설","address":"경상남도 진주시 금산면 금산로 123 (금산흥한골든빌)","tel":"","lat":35.2154459789586,"lng":128.150664643707,"geocoded_by":"kakao"},{"name":"금호석류마을아파트 - ② 115동 뒤","category":"어린이놀이시설","type":"어린이놀이시설","address":"경상남도 진주시 강남로 45 (주약동, 금호석류마을)","tel":"","lat":35.1717590995064,"lng":128.09523667232,"geocoded_by":"kakao"},{"name":"벽산동신아파트","category":"어린이놀이시설","type":"어린이놀이시설","address":"경상남도 진주시 진양호로125번길 22-12 (평거동, 벽산동신2아파트)","tel":"","lat":35.1708716968813,"lng":128.052558756395,"geocoded_by":"kakao"},{"name":"들말대경아파트 - ① 108동 옆","category":"어린이놀이시설","type":"어린이놀이시설","address":"경상남도 진주시 석갑로53번길 10 (평거동, 들말대경아파트)","tel":"","lat":35.1761898337846,"lng":128.063887572228,"geocoded_by":"kakao"},{"name":"들말대경아파트 - ② 102동 옆","category":"어린이놀이시설","type":"어린이놀이시설","address":"경상남도 진주시 석갑로53번길 10 (평거동, 들말대경아파트)","tel":"","lat":35.1761898337846,"lng":128.063887572228,"geocoded_by":"kakao"},{"name":"대곡초등학교 어린이놀이시설","category":"어린이놀이시설","type":"어린이놀이시설","address":"경상남도 진주시 대곡면 진의로 970","tel":"","lat":35.2581081984677,"lng":128.177087848267,"geocoded_by":"kakao"},{"name":"신안주공2단지아파트 - ① 201동 앞","category":"어린이놀이시설","type":"어린이놀이시설","address":"경상남도 진주시 신안들말길 47 (신안동, 주공2차아파트)","tel":"","lat":35.1796337697703,"lng":128.066156976121,"geocoded_by":"kakao"},{"name":"평거6호어린이공원 어린이놀이시설","category":"어린이놀이시설","type":"어린이놀이시설","address":null,"tel":"","lat":35.178693,"lng":128.06639},{"name":"신안주공2단지아파트 - ② 203동 앞","category":"어린이놀이시설","type":"어린이놀이시설","address":"경상남도 진주시 신안들말길 47 (신안동, 주공2차아파트)","tel":"","lat":35.1796337697703,"lng":128.066156976121,"geocoded_by":"kakao"},{"name":"하대한보3차아파트","category":"어린이놀이시설","type":"어린이놀이시설","address":"경상남도 진주시 남강로 1399 (하대동, 하대한보아파트)","tel":"","lat":35.1859802201703,"lng":128.128249952673,"geocoded_by":"kakao"},{"name":"판문현대아파트","category":"어린이놀이시설","type":"어린이놀이시설","address":"경상남도 진주시 진양호로51번길 6-7 (판문동, 현대아파트)","tel":"","lat":35.1683240500475,"lng":128.04609934452,"geocoded_by":"kakao"},{"name":"칠암현대아파트","category":"어린이놀이시설","type":"어린이놀이시설","address":"경상남도 진주시 강남로255번길 18 (칠암동, 현대아파트)","tel":"","lat":35.1871057792951,"lng":128.089616180264,"geocoded_by":"kakao"},{"name":"도동대림아파트","category":"어린이놀이시설","type":"어린이놀이시설","address":"경상남도 진주시 하대로40번길 4 (하대동, 도동대림아파트)","tel":"","lat":35.1930859213284,"lng":128.115499256082,"geocoded_by":"kakao"},{"name":"칠암한주아파트","category":"어린이놀이시설","type":"어린이놀이시설","address":"경상남도 진주시 강남로 101 (칠암동, 칠암한주아파트)","tel":"","lat":35.1778185245491,"lng":128.097101676027,"geocoded_by":"kakao"},{"name":"가좌그린빌주공아파트 - ③ 108동 앞","category":"어린이놀이시설","type":"어린이놀이시설","address":"경상남도 진주시 내동로348번길 10 (가좌동, 가좌그린빌주공아파트)","tel":"","lat":35.1493004541556,"lng":128.102318345374,"geocoded_by":"kakao"},{"name":"한주럭키타운아파트 - ① 2동 앞","category":"어린이놀이시설","type":"어린이놀이시설","address":"경상남도 진주시 진주대로 859 (주약동, 한주럭키아파트)","tel":"","lat":35.1776517644875,"lng":128.090557220247,"geocoded_by":"kakao"},{"name":"한주럭키타운아파트 - ② 12동 앞","category":"어린이놀이시설","type":"어린이놀이시설","address":"경상남도 진주시 진주대로 859 (주약동, 한주럭키아파트)","tel":"","lat":35.1776517644875,"lng":128.090557220247,"geocoded_by":"kakao"},{"name":"진성초등학교 어린이놀이시설","category":"어린이놀이시설","type":"어린이놀이시설","address":"경상남도 진주시 진성면 진성로355번길 10","tel":"","lat":35.1703071121277,"lng":128.224687421718,"geocoded_by":"kakao"},{"name":"평거한보타운아파트 -①101동 앞","category":"어린이놀이시설","type":"어린이놀이시설","address":"경상남도 진주시 진양호로97번길 19-6 (평거동, 한보타운)","tel":"","lat":35.1693882133968,"lng":128.04944518065,"geocoded_by":"kakao"},{"name":"신안현대아파트 - ① 102동 앞","category":"어린이놀이시설","type":"어린이놀이시설","address":"경상남도 진주시 천수로 315 (신안동, 현대아파트)","tel":"","lat":35.1847878054358,"lng":128.072279546427,"geocoded_by":"kakao"},{"name":"한들어린이집","category":"어린이놀이시설","type":"어린이놀이시설","address":"경상남도 진주시 평거로139번길 5 (신안동)","tel":"","lat":35.1815517330596,"lng":128.06889852572,"geocoded_by":"kakao"},{"name":"하대쌍용아파트","category":"어린이놀이시설","type":"어린이놀이시설","address":"경상남도 진주시 말티고개로108번길 5 (하대동, 진주쌍용아파트)","tel":"","lat":35.1963486894157,"lng":128.113493584672,"geocoded_by":"kakao"},{"name":"진주푸르지오2단지아파트 어린이놀이터","category":"어린이놀이시설","type":"어린이놀이시설","address":"경상남도 진주시 금산면 덕의길 11 (진주푸르지오2단지)","tel":"","lat":35.2179518473941,"lng":128.14691194191,"geocoded_by":"kakao"},{"name":"그린타운","category":"어린이놀이시설","type":"어린이놀이시설","address":"경상남도 진주시 석갑로156번길 19 (신안동, 그린타운)","tel":"","lat":35.1832886725417,"lng":128.064494085191,"geocoded_by":"kakao"},{"name":"좋은나무어린이집","category":"어린이놀이시설","type":"어린이놀이시설","address":"경상남도 진주시 하대로34번길 14 (하대동)","tel":"","lat":35.1928182893711,"lng":128.114142491495,"geocoded_by":"kakao"},{"name":"상대한주그린아파트","category":"어린이놀이시설","type":"어린이놀이시설","address":"경상남도 진주시 선학산길 46 (상대동, 상대한주그린아파트)","tel":"","lat":35.1863272498206,"lng":128.110952432521,"geocoded_by":"kakao"},{"name":"동국강변1차아파트","category":"어린이놀이시설","type":"어린이놀이시설","address":"경상남도 진주시 큰들로66번길 12 (상평동, 동국강변아파트)","tel":"","lat":35.1701054447554,"lng":128.109560207855,"geocoded_by":"kakao"},{"name":"상평국민1차아파트","category":"어린이놀이시설","type":"어린이놀이시설","address":"경상남도 진주시 남강로1093번길 14 (상평동, 국민1차아파트)","tel":"","lat":35.1697127814685,"lng":128.111601191167,"geocoded_by":"kakao"},{"name":"상평국민2차아파트","category":"어린이놀이시설","type":"어린이놀이시설","address":"경상남도 진주시 공단로236번길 24 (상평동, 89상평국민주택(2차))","tel":"","lat":35.1737190944856,"lng":128.125330154304,"geocoded_by":"kakao"},{"name":"삼전2차아파트","category":"어린이놀이시설","type":"어린이놀이시설","address":"경상남도 진주시 모덕로306번길 17 (하대동, 삼전2차아파트)","tel":"","lat":35.1874958634263,"lng":128.127773349783,"geocoded_by":"kakao"},{"name":"가좌주공3단지 어린이놀이시설1 (304동)","category":"어린이놀이시설","type":"어린이놀이시설","address":"경상남도 진주시 진주대로568번길 12 (가좌동, 주공3차아파트)","tel":"","lat":35.1577396921513,"lng":128.109597811579,"geocoded_by":"kakao"},{"name":"가좌주공3단지 어린이놀이시설2 (308동)","category":"어린이놀이시설","type":"어린이놀이시설","address":"경상남도 진주시 진주대로568번길 12 (가좌동, 주공3차아파트)","tel":"","lat":35.1577396921513,"lng":128.109597811579,"geocoded_by":"kakao"},{"name":"가좌주공3단지 어린이놀이시설3 (301동)","category":"어린이놀이시설","type":"어린이놀이시설","address":"경상남도 진주시 진주대로568번길 12 (가좌동, 주공3차아파트)","tel":"","lat":35.1577396921513,"lng":128.109597811579,"geocoded_by":"kakao"},{"name":"동국강변(2)타워아파트","category":"어린이놀이시설","type":"어린이놀이시설","address":"경상남도 진주시 돗골로19번길 12 (상평동, 2차동국강변타워)","tel":"","lat":35.1699247101466,"lng":128.111617247388,"geocoded_by":"kakao"},{"name":"상봉화인아파트","category":"어린이놀이시설","type":"어린이놀이시설","address":"경상남도 진주시 상봉대룡길 18 (상봉동, 화인아파트)","tel":"","lat":35.2018024890483,"lng":128.069506745452,"geocoded_by":"kakao"},{"name":"제일풍경채아파트","category":"어린이놀이시설","type":"어린이놀이시설","address":"경상남도 진주시 가좌안골길21번길 5 (가좌동, 가좌제일풍경채)","tel":"","lat":35.1543758956105,"lng":128.107553937272,"geocoded_by":"kakao"},{"name":"초전대림아파트","category":"어린이놀이시설","type":"어린이놀이시설","address":"경상남도 진주시 말티고개로 113 (초전동, 초전대림아파트)","tel":"","lat":35.1979734718305,"lng":128.113570331424,"geocoded_by":"kakao"},{"name":"한보힐타워맨션","category":"어린이놀이시설","type":"어린이놀이시설","address":"경상남도 진주시 상대로143번길 11-2 (하대동, 한보힐타워맨션)","tel":"","lat":35.1861126899211,"lng":128.127274695676,"geocoded_by":"kakao"},{"name":"상대주공아파트","category":"어린이놀이시설","type":"어린이놀이시설","address":"경상남도 진주시 상대로 101 (하대동, 상대아파트)","tel":"","lat":35.185487782759,"lng":128.124942917924,"geocoded_by":"kakao"},{"name":"하대주공아파트","category":"어린이놀이시설","type":"어린이놀이시설","address":"경상남도 진주시 상대로 125 (하대동, 주공아파트)","tel":"","lat":35.1857003342062,"lng":128.127033951593,"geocoded_by":"kakao"},{"name":"상봉한주아파트","category":"어린이놀이시설","type":"어린이놀이시설","address":"경상남도 진주시 진주대로1208번길 20 (상봉동, 상봉한주아파트)","tel":"","lat":35.1964814379897,"lng":128.07088821439,"geocoded_by":"kakao"},{"name":"평거1차현대아파트","category":"어린이놀이시설","type":"어린이놀이시설","address":"경상남도 진주시 평거로115번길 5 (신안동, 평거1차현대아파트)","tel":"","lat":35.180390957349,"lng":128.068151325954,"geocoded_by":"kakao"},{"name":"주약한보은빛마을아파트 - ① 관리동앞","category":"어린이놀이시설","type":"어린이놀이시설","address":"경상남도 진주시 천수로 30 (주약동, 한보은빛마을아파트)","tel":"","lat":35.1708529706782,"lng":128.092397739552,"geocoded_by":"kakao"},{"name":"주약한보은빛마을아파트 - ② 102동앞","category":"어린이놀이시설","type":"어린이놀이시설","address":"경상남도 진주시 천수로 30 (주약동, 한보은빛마을아파트)","tel":"","lat":35.1708529706782,"lng":128.092397739552,"geocoded_by":"kakao"},{"name":"상평대림아파트","category":"어린이놀이시설","type":"어린이놀이시설","address":"경상남도 진주시 남강로 951 (상평동, 대림아파트)","tel":"","lat":35.1739356762848,"lng":128.10015685102,"geocoded_by":"kakao"},{"name":"럭키강변아파트","category":"어린이놀이시설","type":"어린이놀이시설","address":"경상남도 진주시 남강로 1407 (하대동, 럭키강변아파트)","tel":"","lat":35.1866321391734,"lng":128.128432535977,"geocoded_by":"kakao"},{"name":"한보하이타운아파트","category":"어린이놀이시설","type":"어린이놀이시설","address":"경상남도 진주시 순환로553번길 7 (평거동, 한보하이타운)","tel":"","lat":35.1726510696047,"lng":128.05925668107,"geocoded_by":"kakao"},{"name":"신안3주공아파트 어린이놀이터 (305동 앞)","category":"어린이놀이시설","type":"어린이놀이시설","address":"경상남도 진주시 석갑로 58 (신안동, 주공3차아파트)","tel":"","lat":35.1784287246445,"lng":128.064804831097,"geocoded_by":"kakao"},{"name":"신안3주공아파트 어린이놀이터 (308동 앞)","category":"어린이놀이시설","type":"어린이놀이시설","address":"경상남도 진주시 석갑로 58 (신안동, 주공3차아파트)","tel":"","lat":35.1784287246445,"lng":128.064804831097,"geocoded_by":"kakao"},{"name":"신안3주공아파트 어린이놀이터 (중앙놀이터)","category":"어린이놀이시설","type":"어린이놀이시설","address":"경상남도 진주시 석갑로 58 (신안동, 주공3차아파트)","tel":"","lat":35.1784287246445,"lng":128.064804831097,"geocoded_by":"kakao"},{"name":"신안3주공아파트 유아놀이터","category":"어린이놀이시설","type":"어린이놀이시설","address":"경상남도 진주시 석갑로 58 (신안동, 주공3차아파트)","tel":"","lat":35.1784287246445,"lng":128.064804831097,"geocoded_by":"kakao"},{"name":"진주평거휴먼시아4단지 놀이터-1","category":"어린이놀이시설","type":"어린이놀이시설","address":"경상남도 진주시 새평거로 75 (평거동, 평거휴먼시아4단지)","tel":"","lat":35.1676829560392,"lng":128.054942618341,"geocoded_by":"kakao"},{"name":"진주평거휴먼시아4단지 놀이터-3","category":"어린이놀이시설","type":"어린이놀이시설","address":"경상남도 진주시 새평거로 75 (평거동, 평거휴먼시아4단지)","tel":"","lat":35.1676829560392,"lng":128.054942618341,"geocoded_by":"kakao"},{"name":"진주평거휴먼시아4단지 유아놀이터","category":"어린이놀이시설","type":"어린이놀이시설","address":"경상남도 진주시 새평거로 75 (평거동, 평거휴먼시아4단지)","tel":"","lat":35.1676829560392,"lng":128.054942618341,"geocoded_by":"kakao"},{"name":"정촌초등학교병설유치원 어린이놀이시설","category":"어린이놀이시설","type":"어린이놀이시설","address":"경상남도 진주시 동부로 11 (가좌동)","tel":"","lat":35.1607798359561,"lng":128.108272916328,"geocoded_by":"kakao"},{"name":"신안주공1차아파트 109동 유아놀이터","category":"어린이놀이시설","type":"어린이놀이시설","address":"경상남도 진주시 신안들말길 17 (신안동, 주공1차아파트)","tel":"","lat":35.1778723308049,"lng":128.069859293152,"geocoded_by":"kakao"},{"name":"신안주공1차아파트 관리동 유아놀이터","category":"어린이놀이시설","type":"어린이놀이시설","address":"경상남도 진주시 신안들말길 17 (신안동, 주공1차아파트)","tel":"","lat":35.1778723308049,"lng":128.069859293152,"geocoded_by":"kakao"},{"name":"들말한보아파트 놀이터 (108동)","category":"어린이놀이시설","type":"어린이놀이시설","address":"경상남도 진주시 평거로39번길 9 (평거동, 들말한보타운)","tel":"","lat":35.1736349515782,"lng":128.063153518095,"geocoded_by":"kakao"},{"name":"가호5호어린이공원 어린이놀이시설","category":"어린이놀이시설","type":"어린이놀이시설","address":null,"tel":"","lat":35.162465,"lng":128.108318},{"name":"진주평거휴먼시아4단지 놀이터-2","category":"어린이놀이시설","type":"어린이놀이시설","address":"경상남도 진주시 새평거로 75 (평거동, 평거휴먼시아4단지)","tel":"","lat":35.1676829560392,"lng":128.054942618341,"geocoded_by":"kakao"},{"name":"경상남도교육청 유아교육원 진주체험분원 어린이놀이시설","category":"어린이놀이시설","type":"어린이놀이시설","address":"경상남도 진주시 진성면 진의로 160","tel":"","lat":35.2003327706462,"lng":128.222231328707,"geocoded_by":"kakao"},{"name":"진주초등학교 어린이놀이시설2","category":"어린이놀이시설","type":"어린이놀이시설","address":"경상남도 진주시 진주성로24번길 7 (인사동)","tel":"","lat":35.1934295607794,"lng":128.078360930746,"geocoded_by":"kakao"},{"name":"가좌초등학교병설유치원 어린이놀이시설","category":"어린이놀이시설","type":"어린이놀이시설","address":"경상남도 진주시 내동로348번길 17 (가좌동)","tel":"","lat":35.1495778421855,"lng":128.103331990531,"geocoded_by":"kakao"},{"name":"반성초등학교 어린이놀이시설","category":"어린이놀이시설","type":"어린이놀이시설","address":"경상남도 진주시 일반성면 동부로 2060","tel":"","lat":35.1700770073753,"lng":128.285739573481,"geocoded_by":"kakao"},{"name":"이반성초등학교병설유치원 어린이놀이시설","category":"어린이놀이시설","type":"어린이놀이시설","address":"경상남도 진주시 이반성면 오봉산로 762","tel":"","lat":35.1732996160058,"lng":128.329047898832,"geocoded_by":"kakao"},{"name":"신안초등학교병설유치원 어린이놀이시설","category":"어린이놀이시설","type":"어린이놀이시설","address":"경상남도 진주시 평거로139번길 8 (신안동)","tel":"","lat":35.1825860506492,"lng":128.068001544111,"geocoded_by":"kakao"},{"name":"지수초등학교병설유치원 어린이놀이시설","category":"어린이놀이시설","type":"어린이놀이시설","address":"경상남도 진주시 지수면 지사로 806","tel":"","lat":35.2334703141589,"lng":128.252440016415,"geocoded_by":"kakao"},{"name":"진주평거휴먼시아3단지 어린이놀이터-1","category":"어린이놀이시설","type":"어린이놀이시설","address":"경상남도 진주시 새평거로 111 (평거동, 평거휴먼시아3단지)","tel":"","lat":35.1698602779462,"lng":128.059440889606,"geocoded_by":"kakao"},{"name":"진주평거휴먼시아3단지 어린이놀이터-2","category":"어린이놀이시설","type":"어린이놀이시설","address":"경상남도 진주시 새평거로 111 (평거동, 평거휴먼시아3단지)","tel":"","lat":35.1698602779462,"lng":128.059440889606,"geocoded_by":"kakao"},{"name":"진주평거휴먼시아3단지 유아놀이터","category":"어린이놀이시설","type":"어린이놀이시설","address":"경상남도 진주시 새평거로 111 (평거동, 평거휴먼시아3단지)","tel":"","lat":35.1698602779462,"lng":128.059440889606,"geocoded_by":"kakao"},{"name":"관봉초등학교병설유치원 어린이놀이시설","category":"어린이놀이시설","type":"어린이놀이시설","address":"경상남도 진주시 정촌면 정촌로 629","tel":"","lat":35.1371173222479,"lng":128.143145468028,"geocoded_by":"kakao"},{"name":"진주평거5단지 놀이터1","category":"어린이놀이시설","type":"어린이놀이시설","address":"경상남도 진주시 새평거로 70 (평거동, 평거엘에이치5단지)","tel":"","lat":35.1669159195779,"lng":128.05784948034,"geocoded_by":"kakao"},{"name":"진주평거5단지 놀이터2","category":"어린이놀이시설","type":"어린이놀이시설","address":"경상남도 진주시 새평거로 70 (평거동, 평거엘에이치5단지)","tel":"","lat":35.1669159195779,"lng":128.05784948034,"geocoded_by":"kakao"},{"name":"진주평거5단지 유아놀이터","category":"어린이놀이시설","type":"어린이놀이시설","address":"경상남도 진주시 새평거로 70 (평거동, 평거엘에이치5단지)","tel":"","lat":35.1669159195779,"lng":128.05784948034,"geocoded_by":"kakao"},{"name":"가좌올리움아파트 복리동 앞","category":"어린이놀이시설","type":"어린이놀이시설","address":"경상남도 진주시 가호로 17-10 (가좌동, 올리움아파트)","tel":"","lat":35.1644359668853,"lng":128.108135055353,"geocoded_by":"kakao"},{"name":"가좌올리움아파트 101동 뒤","category":"어린이놀이시설","type":"어린이놀이시설","address":"경상남도 진주시 가호로 17-10 (가좌동, 올리움아파트)","tel":"","lat":35.1644359668853,"lng":128.108135055353,"geocoded_by":"kakao"},{"name":"아이뜰어린이집 놀이시설","category":"어린이놀이시설","type":"어린이놀이시설","address":"경상남도 진주시 돗골로94번길 17 (상평동)","tel":"","lat":35.1767006794121,"lng":128.114422745103,"geocoded_by":"kakao"},{"name":"아이소크라테스유치원 어린이놀이시설","category":"어린이놀이시설","type":"어린이놀이시설","address":"경상남도 진주시 진양호로115번길 32 (평거동)","tel":"","lat":35.1703020351382,"lng":128.050902087611,"geocoded_by":"kakao"},{"name":"신안2지구어린이공원 어린이놀이시설","category":"어린이놀이시설","type":"어린이놀이시설","address":null,"tel":"","lat":35.184485,"lng":128.068982},{"name":"집현초등학교 어린이놀이시설","category":"어린이놀이시설","type":"어린이놀이시설","address":"경상남도 진주시 집현면 지내길 271","tel":"","lat":35.2421524233082,"lng":128.092758695025,"geocoded_by":"kakao"},{"name":"이야스콜라진주학원","category":"어린이놀이시설","type":"어린이놀이시설","address":"경상남도 진주시 봉수대길 41-12 (망경동)","tel":"","lat":35.1799896674132,"lng":128.080449182406,"geocoded_by":"kakao"},{"name":"아이숲유치원 어린이놀이시설","category":"어린이놀이시설","type":"어린이놀이시설","address":"경상남도 진주시 봉수대길 41-10 (망경동)","tel":"","lat":35.1799556453444,"lng":128.080211502966,"geocoded_by":"kakao"},{"name":"봉래초등학교 어린이놀이시설","category":"어린이놀이시설","type":"어린이놀이시설","address":"경상남도 진주시 의병로 265 (봉래동)","tel":"","lat":35.2001613512272,"lng":128.086187845006,"geocoded_by":"kakao"},{"name":"에일린의 뜰 어린이놀이터1","category":"어린이놀이시설","type":"어린이놀이시설","address":"경상남도 진주시 강변길 31 (가좌동, 가호 에일린의 뜰 아파트)","tel":"","lat":35.1654981611534,"lng":128.109354934258,"geocoded_by":"kakao"},{"name":"에일린의 뜰 어린이놀이터2","category":"어린이놀이시설","type":"어린이놀이시설","address":"경상남도 진주시 강변길 31 (가좌동, 가호 에일린의 뜰 아파트)","tel":"","lat":35.1654981611534,"lng":128.109354934258,"geocoded_by":"kakao"},{"name":"에일린의 뜰 유아놀이터","category":"어린이놀이시설","type":"어린이놀이시설","address":"경상남도 진주시 강변길 31 (가좌동, 가호 에일린의 뜰 아파트)","tel":"","lat":35.1654981611534,"lng":128.109354934258,"geocoded_by":"kakao"},{"name":"내동초등학교병설유치원 어린이놀이시설","category":"어린이놀이시설","type":"어린이놀이시설","address":"경상남도 진주시 내동면 순환로 426","tel":"","lat":35.1651229626599,"lng":128.067669117104,"geocoded_by":"kakao"},{"name":"명화재능어린이집 1","category":"어린이놀이시설","type":"어린이놀이시설","address":"경남 진주시 선학산길17번길 3","tel":"","lat":35.183848222708,"lng":128.108139550529,"geocoded_by":"kakao"},{"name":"평거햇살공원 어린이놀이시설","category":"어린이놀이시설","type":"어린이놀이시설","address":null,"tel":"","lat":35.169435,"lng":128.058556},{"name":"평거달팽이공원 어린이놀이시설","category":"어린이놀이시설","type":"어린이놀이시설","address":null,"tel":"","lat":35.169526,"lng":128.056635},{"name":"평거종이비행기공원 어린이놀이시설","category":"어린이놀이시설","type":"어린이놀이시설","address":null,"tel":"","lat":35.168742,"lng":128.061286},{"name":"가호12호어린이공원(꿈초롱공원) 어린이물놀이시설","category":"어린이놀이시설","type":"어린이놀이시설","address":"경상남도 진주시 가좌동","tel":"","lat":35.1579190159481,"lng":128.102394990817,"geocoded_by":"kakao"},{"name":"동진초등학교병설유치원 어린이놀이시설","category":"어린이놀이시설","type":"어린이놀이시설","address":"경상남도 진주시 도동로184번길 13 (하대동)","tel":"","lat":35.1877991052959,"lng":128.124550776323,"geocoded_by":"kakao"},{"name":"정촌1공원 어린이놀이시설","category":"어린이놀이시설","type":"어린이놀이시설","address":null,"tel":"","lat":35.125347,"lng":128.099818},{"name":"가좌주공2차아파트 4-놀이터(211동앞)","category":"어린이놀이시설","type":"어린이놀이시설","address":"경상남도 진주시 가호로 26 (가좌동, 가좌주공아파트)","tel":"","lat":35.1628599327687,"lng":128.110499072524,"geocoded_by":"kakao"},{"name":"애플키즈스쿨어린이집","category":"어린이놀이시설","type":"어린이놀이시설","address":"경상남도 진주시 금산면 중장로 42","tel":"","lat":35.2177414447873,"lng":128.138696404217,"geocoded_by":"kakao"},{"name":"상대한보타운(102동)","category":"어린이놀이시설","type":"어린이놀이시설","address":"경상남도 진주시 도동천로 120 (상대동, 상대한보아파트)","tel":"","lat":35.1815666136269,"lng":128.11296224939,"geocoded_by":"kakao"},{"name":"상대한보타운(103동)","category":"어린이놀이시설","type":"어린이놀이시설","address":"경상남도 진주시 도동천로 120 (상대동, 상대한보아파트)","tel":"","lat":35.1815666136269,"lng":128.11296224939,"geocoded_by":"kakao"},{"name":"경남 혁신 센텀리버파크 어린이공원1호 놀이터","category":"어린이놀이시설","type":"어린이놀이시설","address":"경상남도 진주시 사들로 157 (충무공동, 혁신도시엘에이치아파트1단지)","tel":"","lat":35.1819277773915,"lng":128.147971691465,"geocoded_by":"kakao"},{"name":"경남혁신 센텀리버파크 아파트내 유아 놀이터","category":"어린이놀이시설","type":"어린이놀이시설","address":"경상남도 진주시 사들로 157 (충무공동, 혁신도시엘에이치아파트1단지)","tel":"","lat":35.1819277773915,"lng":128.147971691465,"geocoded_by":"kakao"},{"name":"실크공원 어린이놀이시설","category":"어린이놀이시설","type":"어린이놀이시설","address":null,"tel":"","lat":35.1749,"lng":128.150337},{"name":"토끼달공원 어린이놀이시설","category":"어린이놀이시설","type":"어린이놀이시설","address":null,"tel":"","lat":35.1749,"lng":128.150337},{"name":"여우별공원 어린이놀이시설","category":"어린이놀이시설","type":"어린이놀이시설","address":null,"tel":"","lat":35.1749,"lng":128.150337},{"name":"생기율공원 어린이놀이시설","category":"어린이놀이시설","type":"어린이놀이시설","address":null,"tel":"","lat":35.171249,"lng":128.135352},{"name":"따스하리공원 어린이놀이시설","category":"어린이놀이시설","type":"어린이놀이시설","address":null,"tel":"","lat":35.1749,"lng":128.150337},{"name":"진주센트럴자이아파트 101동 북측놀이터","category":"어린이놀이시설","type":"어린이놀이시설","address":"경상남도 진주시 도동천로 48 (상평동, 진주센트럴자이)","tel":"","lat":35.1781185886931,"lng":128.104595750727,"geocoded_by":"kakao"},{"name":"진주센트럴자이아파트 104동 동측놀이터","category":"어린이놀이시설","type":"어린이놀이시설","address":"경상남도 진주시 도동천로 48 (상평동, 진주센트럴자이)","tel":"","lat":35.1781185886931,"lng":128.104595750727,"geocoded_by":"kakao"},{"name":"진주센트럴자이아파트 101동 서측놀이터","category":"어린이놀이시설","type":"어린이놀이시설","address":"경상남도 진주시 도동천로 48 (상평동, 진주센트럴자이)","tel":"","lat":35.1781185886931,"lng":128.104595750727,"geocoded_by":"kakao"},{"name":"진주혜광학교 실내 어린이놀이시설","category":"어린이놀이시설","type":"어린이놀이시설","address":"경상남도 진주시 문산읍 월아산로1048번길 36","tel":"","lat":35.1644845980257,"lng":128.168607518625,"geocoded_by":"kakao"},{"name":"상아어린이집 옥상놀이시설","category":"어린이놀이시설","type":"어린이놀이시설","address":"경상남도 진주시 돗골로106번길 10(상평동)","tel":"","lat":35.1775325940307,"lng":128.1134607358,"geocoded_by":"kakao"},{"name":"상아어린이집 실외놀이시설","category":"어린이놀이시설","type":"어린이놀이시설","address":"경상남도 진주시 돗골로106번길 10(상평동)","tel":"","lat":35.1775325940307,"lng":128.1134607358,"geocoded_by":"kakao"},{"name":"서진초등학교병설유치원 어린이놀이시설","category":"어린이놀이시설","type":"어린이놀이시설","address":"경상남도 진주시 새평거로 85 (평거동)","tel":"","lat":35.1690196298269,"lng":128.056654954973,"geocoded_by":"kakao"},{"name":"진주유치원 어린이놀이시설","category":"어린이놀이시설","type":"어린이놀이시설","address":"경상남도 진주시 강남로201번길 12-3 (칠암동)","tel":"","lat":35.1852761266997,"lng":128.091259162209,"geocoded_by":"kakao"},{"name":"봉곡초등학교병설유치원 어린이놀이시설","category":"어린이놀이시설","type":"어린이놀이시설","address":"경상남도 진주시 북장대로36번길 8 (봉곡동)","tel":"","lat":35.1941035070831,"lng":128.075782261593,"geocoded_by":"kakao"},{"name":"글로리아어린이집","category":"어린이놀이시설","type":"어린이놀이시설","address":"경상남도 진주시 진산로358번길 14(장재동)","tel":"","lat":35.2166177524395,"lng":128.101839126484,"geocoded_by":"kakao"},{"name":"초장엠코타운 더 이스턴파크 어린이놀이터1","category":"어린이놀이시설","type":"어린이놀이시설","address":"경상남도 진주시 초북로 77 (초전동, 진주 초장 엠코타운 더 이스턴파크)","tel":"","lat":35.2135471515602,"lng":128.107319062477,"geocoded_by":"kakao"},{"name":"초장엠코타운 더 이스턴파크 어린이놀이터2","category":"어린이놀이시설","type":"어린이놀이시설","address":"경상남도 진주시 초북로 77 (초전동, 진주 초장 엠코타운 더 이스턴파크)","tel":"","lat":35.2135471515602,"lng":128.107319062477,"geocoded_by":"kakao"},{"name":"금산초등학교병설유치원 어린이놀이시설","category":"어린이놀이시설","type":"어린이놀이시설","address":"경상남도 진주시 금산면 금산로 75","tel":"","lat":35.2153027270713,"lng":128.144393305129,"geocoded_by":"kakao"},{"name":"갈전초등학교 어린이놀이시설","category":"어린이놀이시설","type":"어린이놀이시설","address":"경상남도 진주시 사들로 173 (충무공동)","tel":"","lat":35.1832030393879,"lng":128.149062515671,"geocoded_by":"kakao"},{"name":"진주아파트 어린이놀이시설","category":"어린이놀이시설","type":"어린이놀이시설","address":"경상남도 진주시 공단로139번길 3 (상평동, 진주조합주택)","tel":"","lat":35.1756338417267,"lng":128.114439029779,"geocoded_by":"kakao"},{"name":"한국남동발전 빛뜰어린이집 놀이터","category":"어린이놀이시설","type":"어린이놀이시설","address":"경상남도 진주시 사들로123번길 32 (충무공동)","tel":"","lat":35.1803497320974,"lng":128.145569640752,"geocoded_by":"kakao"},{"name":"해모로루비채 4블럭 어린이놀이터2","category":"어린이놀이시설","type":"어린이놀이시설","address":"경상남도 진주시 초북로 55 (초전동, 초전 해모로 루비채 4단지)","tel":"","lat":35.2120909920253,"lng":128.108681047996,"geocoded_by":"kakao"},{"name":"초전해모로루비채2단지 201동 놀이터","category":"어린이놀이시설","type":"어린이놀이시설","address":"경상남도 진주시 초북로 88 (초전동, 초전 해모로 루비채 2단지)","tel":"","lat":35.2149059843274,"lng":128.10683166665,"geocoded_by":"kakao"},{"name":"초전해모로루비채2단지 204동 놀이터","category":"어린이놀이시설","type":"어린이놀이시설","address":"경상남도 진주시 초북로 88 (초전동, 초전 해모로 루비채 2단지)","tel":"","lat":35.2149059843274,"lng":128.10683166665,"geocoded_by":"kakao"},{"name":"해모로루비채 4블럭 어린이놀이터3","category":"어린이놀이시설","type":"어린이놀이시설","address":"경상남도 진주시 초북로 55 (초전동, 초전 해모로 루비채 4단지)","tel":"","lat":35.2120909920253,"lng":128.108681047996,"geocoded_by":"kakao"},{"name":"해모로 루비채 4블럭 물놀이장","category":"어린이놀이시설","type":"어린이놀이시설","address":"경상남도 진주시 초북로 55 (초전동, 초전 해모로 루비채 4단지)","tel":"","lat":35.2120909920253,"lng":128.108681047996,"geocoded_by":"kakao"},{"name":"진주평거엠코타운 유아놀이터5 (104동)","category":"어린이놀이시설","type":"어린이놀이시설","address":"경상남도 진주시 새평거로 30 (평거동, 엠코타운더프라하)","tel":"","lat":35.1656079185314,"lng":128.049864949575,"geocoded_by":"kakao"},{"name":"진주평거엠코타운 놀이터1 (104동~111동사이)","category":"어린이놀이시설","type":"어린이놀이시설","address":"경상남도 진주시 새평거로 30 (평거동, 엠코타운더프라하)","tel":"","lat":35.1656079185314,"lng":128.049864949575,"geocoded_by":"kakao"},{"name":"진주평거엠코타운 놀이터2 (102~108동사이)","category":"어린이놀이시설","type":"어린이놀이시설","address":"경상남도 진주시 새평거로 30 (평거동, 엠코타운더프라하)","tel":"","lat":35.1656079185314,"lng":128.049864949575,"geocoded_by":"kakao"},{"name":"진주평거엠코타운 놀이터3 (109~110동사이)","category":"어린이놀이시설","type":"어린이놀이시설","address":"경상남도 진주시 새평거로 30 (평거동, 엠코타운더프라하)","tel":"","lat":35.1656079185314,"lng":128.049864949575,"geocoded_by":"kakao"},{"name":"진주평거엠코타운 놀이터4 (105~112동사이)","category":"어린이놀이시설","type":"어린이놀이시설","address":"경상남도 진주시 새평거로 30 (평거동, 엠코타운더프라하)","tel":"","lat":35.1656079185314,"lng":128.049864949575,"geocoded_by":"kakao"},{"name":"진주시육아종합지원센터 어린이놀이시설","category":"어린이놀이시설","type":"어린이놀이시설","address":"경상남도 진주시 남강로 1463 (하대동)","tel":"","lat":35.1914763154972,"lng":128.12804772332,"geocoded_by":"kakao"},{"name":"초장1지구 1공원 어린이놀이시설","category":"어린이놀이시설","type":"어린이놀이시설","address":null,"tel":"","lat":35.214216,"lng":128.110982},{"name":"초장1지구 2공원 어린이놀이시설","category":"어린이놀이시설","type":"어린이놀이시설","address":null,"tel":"","lat":35.208658,"lng":128.110544},{"name":"초장1지구 3공원 어린이놀이시설","category":"어린이놀이시설","type":"어린이놀이시설","address":null,"tel":"","lat":35.210503,"lng":128.114485},{"name":"풀밭달공원(구 초장1지구 4공원) 어린이놀이시설","category":"어린이놀이시설","type":"어린이놀이시설","address":null,"tel":"","lat":35.209778,"lng":128.114403},{"name":"진주혁신코오롱하늘채 어린이놀이터3호","category":"어린이놀이시설","type":"어린이놀이시설","address":"경상남도 진주시 사들로 126 (충무공동, 혁신도시엘에이치아파트4단지)","tel":"","lat":35.1797723573044,"lng":128.149061759474,"geocoded_by":"kakao"},{"name":"진주혁신코오롱하늘채 어린이놀이터2호","category":"어린이놀이시설","type":"어린이놀이시설","address":"경상남도 진주시 사들로 126 (충무공동, 혁신도시엘에이치아파트4단지)","tel":"","lat":35.1797723573044,"lng":128.149061759474,"geocoded_by":"kakao"},{"name":"진주혁신코오롱하늘채 어린이놀이터1호","category":"어린이놀이시설","type":"어린이놀이시설","address":"경상남도 진주시 사들로 126 (충무공동, 혁신도시엘에이치아파트4단지)","tel":"","lat":35.1797723573044,"lng":128.149061759474,"geocoded_by":"kakao"},{"name":"진주혁신코오롱하늘채 유아놀이터","category":"어린이놀이시설","type":"어린이놀이시설","address":"경상남도 진주시 사들로 126 (충무공동, 혁신도시엘에이치아파트4단지)","tel":"","lat":35.1797723573044,"lng":128.149061759474,"geocoded_by":"kakao"},{"name":"경남혁신 센텀리버파크 아파트내 산성 조합놀이대","category":"어린이놀이시설","type":"어린이놀이시설","address":"경상남도 진주시 사들로 157 (충무공동, 혁신도시엘에이치아파트1단지)","tel":"","lat":35.1819277773915,"lng":128.147971691465,"geocoded_by":"kakao"},{"name":"현대성우트리펠리스아파트 어린이놀이시설","category":"어린이놀이시설","type":"어린이놀이시설","address":"경상남도 진주시 진주대로879번길 19 (주약동, 현대성우트리팰리스)","tel":"","lat":35.1780213104314,"lng":128.089905044613,"geocoded_by":"kakao"},{"name":"경남혁신 LH5단지 나비놀이터","category":"어린이놀이시설","type":"어린이놀이시설","address":"경상남도 진주시 충의로 67 (충무공동, 혁신도시엘에이치아파트5단지)","tel":"","lat":35.1790594579688,"lng":128.151459978414,"geocoded_by":"kakao"},{"name":"경남혁신 LH5단지 나루놀이터","category":"어린이놀이시설","type":"어린이놀이시설","address":"경상남도 진주시 충의로 67 (충무공동, 혁신도시엘에이치아파트5단지)","tel":"","lat":35.1790594579688,"lng":128.151459978414,"geocoded_by":"kakao"},{"name":"경남혁신 LH5단지 봉수대놀이터","category":"어린이놀이시설","type":"어린이놀이시설","address":"경상남도 진주시 충의로 67 (충무공동, 혁신도시엘에이치아파트5단지)","tel":"","lat":35.1790594579688,"lng":128.151459978414,"geocoded_by":"kakao"},{"name":"진주보듬이나눔이어린이집","category":"어린이놀이시설","type":"어린이놀이시설","address":"경상남도 진주시 영천강로119번길 54 (충무공동)","tel":"","lat":35.1711355297868,"lng":128.135556043349,"geocoded_by":"kakao"},{"name":"충무공동 장난감은행 실내놀이시설","category":"어린이놀이시설","type":"어린이놀이시설","address":"경상남도 진주시 충의로 145 (충무공동)","tel":"","lat":35.174832522467,"lng":128.150307061011,"geocoded_by":"kakao"},{"name":"LH신사옥 어린이놀이시설","category":"어린이놀이시설","type":"어린이놀이시설","address":"경상남도 진주시 충의로 19 (충무공동)","tel":"","lat":35.1781697810343,"lng":128.14576837039,"geocoded_by":"kakao"},{"name":"대나무공원 어린이놀이시설","category":"어린이놀이시설","type":"어린이놀이시설","address":null,"tel":"","lat":35.1749,"lng":128.150337},{"name":"물새공원 어린이놀이시설","category":"어린이놀이시설","type":"어린이놀이시설","address":null,"tel":"","lat":35.1749,"lng":128.150337},{"name":"명화재능 어린이집 2","category":"어린이놀이시설","type":"어린이놀이시설","address":"경상남도 진주시 선학산길17번길 3 (상대동)","tel":"","lat":35.183848222708,"lng":128.108139550529,"geocoded_by":"kakao"},{"name":"서진초등학교 어린이놀이시설","category":"어린이놀이시설","type":"어린이놀이시설","address":"경상남도 진주시 새평거로 85 (평거동)","tel":"","lat":35.1690196298269,"lng":128.056654954973,"geocoded_by":"kakao"},{"name":"장재초등학교 어린이놀이시설","category":"어린이놀이시설","type":"어린이놀이시설","address":"경상남도 진주시 초북로 66 (초전동)","tel":"","lat":35.214786309928,"lng":128.109930594444,"geocoded_by":"kakao"},{"name":"한림풀에버 유아놀이터","category":"어린이놀이시설","type":"어린이놀이시설","address":"경상남도 진주시 소호로 39 (충무공동, 한림 풀에버)","tel":"","lat":35.1704161279272,"lng":128.132319746992,"geocoded_by":"kakao"},{"name":"한림풀에버 놀이터1","category":"어린이놀이시설","type":"어린이놀이시설","address":"경상남도 진주시 소호로 39 (충무공동, 한림 풀에버)","tel":"","lat":35.1704161279272,"lng":128.132319746992,"geocoded_by":"kakao"},{"name":"한림풀에버 놀이터2","category":"어린이놀이시설","type":"어린이놀이시설","address":"경상남도 진주시 소호로 39 (충무공동, 한림 풀에버)","tel":"","lat":35.1704161279272,"lng":128.132319746992,"geocoded_by":"kakao"},{"name":"한림풀에버 놀이터3","category":"어린이놀이시설","type":"어린이놀이시설","address":"경상남도 진주시 소호로 39 (충무공동, 한림 풀에버)","tel":"","lat":35.1704161279272,"lng":128.132319746992,"geocoded_by":"kakao"},{"name":"장사놀이터","category":"어린이놀이시설","type":"어린이놀이시설","address":null,"tel":"","lat":35.2209,"lng":128.1512},{"name":"무지개동산 장난감은행 실내놀이터","category":"어린이놀이시설","type":"어린이놀이시설","address":"경상남도 진주시 내동면 삼계로 430","tel":"","lat":35.1592404443814,"lng":128.032107974148,"geocoded_by":"kakao"},{"name":"조약돌공원 어린이놀이시설","category":"어린이놀이시설","type":"어린이놀이시설","address":null,"tel":"","lat":35.1749,"lng":128.150337},{"name":"이음새공원 어린이놀이시설","category":"어린이놀이시설","type":"어린이놀이시설","address":null,"tel":"","lat":35.1749,"lng":128.150337},{"name":"차타타 진주 평거점","category":"어린이놀이시설","type":"어린이놀이시설","address":"경상남도 진주시 순환로 541 (평거동)","tel":"","lat":35.1722670796957,"lng":128.060486254252,"geocoded_by":"kakao"},{"name":"진주혁신도시 8단지 803동 앞","category":"어린이놀이시설","type":"어린이놀이시설","address":"경상남도 진주시 사들로 35 (충무공동, 혁신도시엘에이치아파트8단지)","tel":"","lat":35.1729388497069,"lng":128.146062470023,"geocoded_by":"kakao"},{"name":"진주혁신도시 8단지 804동 앞","category":"어린이놀이시설","type":"어린이놀이시설","address":"경상남도 진주시 사들로 35 (충무공동, 혁신도시엘에이치아파트8단지)","tel":"","lat":35.1729388497069,"lng":128.146062470023,"geocoded_by":"kakao"},{"name":"진주혁신도시 8단지 807동 앞","category":"어린이놀이시설","type":"어린이놀이시설","address":"경상남도 진주시 사들로 35 (충무공동, 혁신도시엘에이치아파트8단지)","tel":"","lat":35.1729388497069,"lng":128.146062470023,"geocoded_by":"kakao"},{"name":"진주혁신도시 8단지 809동 앞","category":"어린이놀이시설","type":"어린이놀이시설","address":"경상남도 진주시 사들로 35 (충무공동, 혁신도시엘에이치아파트8단지)","tel":"","lat":35.1729388497069,"lng":128.146062470023,"geocoded_by":"kakao"},{"name":"이바돔감자탕진주혁신도시점","category":"어린이놀이시설","type":"어린이놀이시설","address":"경상남도 진주시 사들로 91 (충무공동)","tel":"","lat":35.1758504721412,"lng":128.148699424237,"geocoded_by":"kakao"},{"name":"문산초등학교 어린이놀이시설","category":"어린이놀이시설","type":"어린이놀이시설","address":"경상남도 진주시 문산읍 소문길 11","tel":"","lat":35.1706124015125,"lng":128.16263338105,"geocoded_by":"kakao"},{"name":"예돈가(충무공동점)","category":"어린이놀이시설","type":"어린이놀이시설","address":"경상남도 진주시 사들로123번길 16 (충무공동)","tel":"","lat":35.1795023507146,"lng":128.146805903776,"geocoded_by":"kakao"},{"name":"중소기업진흥공단어린이집","category":"어린이놀이시설","type":"어린이놀이시설","address":"경상남도 진주시 동진로 430 (충무공동)","tel":"","lat":35.1801425933379,"lng":128.138479862056,"geocoded_by":"kakao"},{"name":"무지개초등학교 실외 어린이놀이시설","category":"어린이놀이시설","type":"어린이놀이시설","address":"경상남도 진주시 영천강로119번길 37 (충무공동)","tel":"","lat":35.1714470928645,"lng":128.137277215559,"geocoded_by":"kakao"},{"name":"경상대학교 GNU 어린이집 놀이터","category":"어린이놀이시설","type":"어린이놀이시설","address":"경상남도 진주시 진주대로 501 (가좌동)","tel":"","lat":35.1567141271262,"lng":128.098001405271,"geocoded_by":"kakao"},{"name":"평거엘크루 101동 앞","category":"어린이놀이시설","type":"어린이놀이시설","address":"경상남도 진주시 새평거로 112 (평거동, 진주평거 엘크루)","tel":"","lat":35.1690611906709,"lng":128.059295405438,"geocoded_by":"kakao"},{"name":"평거엘크루 108동 앞","category":"어린이놀이시설","type":"어린이놀이시설","address":"경상남도 진주시 새평거로 112 (평거동, 진주평거 엘크루)","tel":"","lat":35.1690611906709,"lng":128.059295405438,"geocoded_by":"kakao"},{"name":"평거엘크루 109동 앞","category":"어린이놀이시설","type":"어린이놀이시설","address":"경상남도 진주시 새평거로 112 (평거동, 진주평거 엘크루)","tel":"","lat":35.1690611906709,"lng":128.059295405438,"geocoded_by":"kakao"},{"name":"한마음선원 어린이놀이터","category":"어린이놀이시설","type":"어린이놀이시설","address":"경상남도 진주시 미천면 오방로 528-40","tel":"","lat":35.2858759811772,"lng":128.135262146949,"geocoded_by":"kakao"},{"name":"평거4지구 2공원 어린이놀이시설","category":"어린이놀이시설","type":"어린이놀이시설","address":null,"tel":"","lat":35.165335,"lng":128.040843},{"name":"평거4지구 1공원 어린이놀이시설","category":"어린이놀이시설","type":"어린이놀이시설","address":null,"tel":"","lat":35.166767,"lng":128.041909},{"name":"진주혁신도시 LH9단지 주민공동시설 뒤편 놀이터","category":"어린이놀이시설","type":"어린이놀이시설","address":"경상남도 진주시 사들로 13 (충무공동, 혁신도시엘에이치아파트9단지)","tel":"","lat":35.1720716223525,"lng":128.144623230183,"geocoded_by":"kakao"},{"name":"진주혁신도시 LH9단지 905동 뒤 놀이시설","category":"어린이놀이시설","type":"어린이놀이시설","address":"경상남도 진주시 사들로 13 (충무공동, 혁신도시엘에이치아파트9단지)","tel":"","lat":35.1720716223525,"lng":128.144623230183,"geocoded_by":"kakao"},{"name":"진주혁신도시 LH9단지 901동 앞 놀이시설","category":"어린이놀이시설","type":"어린이놀이시설","address":"경상남도 진주시 사들로 13 (충무공동, 혁신도시엘에이치아파트9단지)","tel":"","lat":35.1720716223525,"lng":128.144623230183,"geocoded_by":"kakao"},{"name":"진주혁신도시 LH9단지 보육시설 앞 놀이시설","category":"어린이놀이시설","type":"어린이놀이시설","address":"경상남도 진주시 사들로 13 (충무공동, 혁신도시엘에이치아파트9단지)","tel":"","lat":35.1720716223525,"lng":128.144623230183,"geocoded_by":"kakao"},{"name":"키즈랜드 정글어드벤쳐 놀이시설","category":"어린이놀이시설","type":"어린이놀이시설","address":"경상남도 진주시 판문로 155 (판문동)","tel":"","lat":35.1810096167225,"lng":128.040402949786,"geocoded_by":"kakao"},{"name":"경남 진주 라온프라이빗 미로놀이터","category":"어린이놀이시설","type":"어린이놀이시설","address":"경상남도 진주시 대밭골로 92 (충무공동, 진주혁신도시 라온프라이빗 아파트)","tel":"","lat":35.1807617541627,"lng":128.149389430398,"geocoded_by":"kakao"},{"name":"진주 월경사 어린이놀이시설","category":"어린이놀이시설","type":"어린이놀이시설","address":"경상남도 진주시 망경로224번길 45 (망경동)","tel":"","lat":35.1810713331597,"lng":128.080326493982,"geocoded_by":"kakao"},{"name":"진주혁신도시 라온프라이빗 어린이놀이터 1(204동 옆)","category":"어린이놀이시설","type":"어린이놀이시설","address":"경상남도 진주시 대밭골로 92 (충무공동, 진주혁신도시 라온프라이빗 아파트)","tel":"","lat":35.1807617541627,"lng":128.149389430398,"geocoded_by":"kakao"},{"name":"진주혁신도시 라온프라이빗 어린이놀이터 3(206동 앞)","category":"어린이놀이시설","type":"어린이놀이시설","address":"경상남도 진주시 대밭골로 92 (충무공동, 진주혁신도시 라온프라이빗 아파트)","tel":"","lat":35.1807617541627,"lng":128.149389430398,"geocoded_by":"kakao"},{"name":"항공신도시 우방아이유쉘 아파트","category":"어린이놀이시설","type":"어린이놀이시설","address":"경상남도 진주시 정촌면 삼일로 13 (진주우방아이유쉘)","tel":"","lat":35.1218805412267,"lng":128.098248624739,"geocoded_by":"kakao"},{"name":"건영 아모리움아파트 놀이터(101동 앞)","category":"어린이놀이시설","type":"어린이놀이시설","address":"경상남도 진주시 진양호로225번길 13 (평거동, 건영 아모리움)","tel":"","lat":35.1744533063691,"lng":128.059649766155,"geocoded_by":"kakao"},{"name":"경남 혁신도시 LH 10단지 아파트 어린이놀이터2(1001동 뒤)","category":"어린이놀이시설","type":"어린이놀이시설","address":"경상남도 진주시 에나로228번길 10 (충무공동, 혁신도시엔에이치에프10단지)","tel":"","lat":35.1702027807924,"lng":128.142657074775,"geocoded_by":"kakao"},{"name":"경남 혁신도시 LH 10단지 아파트 유아놀이터(1002동앞)","category":"어린이놀이시설","type":"어린이놀이시설","address":"경상남도 진주시 에나로228번길 10 (충무공동, 혁신도시엔에이치에프10단지)","tel":"","lat":35.1702027807924,"lng":128.142657074775,"geocoded_by":"kakao"},{"name":"경남 혁신도시 LH 10단지 아파트 어린이놀이터1(1002동앞)","category":"어린이놀이시설","type":"어린이놀이시설","address":"경상남도 진주시 에나로228번길 10 (충무공동, 혁신도시엔에이치에프10단지)","tel":"","lat":35.1702027807924,"lng":128.142657074775,"geocoded_by":"kakao"},{"name":"도담직장어린이집_국방기술품질원 내","category":"어린이놀이시설","type":"어린이놀이시설","address":null,"tel":"","lat":35.169201,"lng":128.164238},{"name":"혁신도시LH3단지아파트 내 305동 앞 어린이놀이터1","category":"어린이놀이시설","type":"어린이놀이시설","address":"경상남도 진주시 대밭골로 91 (충무공동, 혁신도시엘에이치아파트3단지)","tel":"","lat":35.1801544397368,"lng":128.151858214523,"geocoded_by":"kakao"},{"name":"혁신도시LH3단지아파트 내 304동 앞 어린이놀이터 2","category":"어린이놀이시설","type":"어린이놀이시설","address":"경상남도 진주시 대밭골로 91 (충무공동, 혁신도시엘에이치아파트3단지)","tel":"","lat":35.1801544397368,"lng":128.151858214523,"geocoded_by":"kakao"},{"name":"혁신도시LH3단지아파트 내 도담아이어린이집 앞 유아놀이터","category":"어린이놀이시설","type":"어린이놀이시설","address":"경상남도 진주시 대밭골로 91 (충무공동, 혁신도시엘에이치아파트3단지)","tel":"","lat":35.1801544397368,"lng":128.151858214523,"geocoded_by":"kakao"},{"name":"천전초등학교 어린이놀이시설","category":"어린이놀이시설","type":"어린이놀이시설","address":"경상남도 진주시 진주대로954번길 24 (칠암동)","tel":"","lat":35.1855114689047,"lng":128.091037688888,"geocoded_by":"kakao"},{"name":"진주대방노블랜드 103동 놀이터","category":"어린이놀이시설","type":"어린이놀이시설","address":"경상남도 진주시 사들로 61 (충무공동, 진주혁신도시 대방노블랜드 더 캐슬 아파트)","tel":"","lat":35.1729505705351,"lng":128.14820320533,"geocoded_by":"kakao"},{"name":"진주대방노블랜드 관리동 놀이터","category":"어린이놀이시설","type":"어린이놀이시설","address":"경상남도 진주시 사들로 61 (충무공동, 진주혁신도시 대방노블랜드 더 캐슬 아파트)","tel":"","lat":35.1729505705351,"lng":128.14820320533,"geocoded_by":"kakao"},{"name":"대방노블랜드 진주혁신1차아파트 유아놀이터","category":"어린이놀이시설","type":"어린이놀이시설","address":"경상남도 진주시 사들로 61 (충무공동, 진주혁신도시 대방노블랜드 더 캐슬 아파트)","tel":"","lat":35.1729505705351,"lng":128.14820320533,"geocoded_by":"kakao"},{"name":"진주초장 5블럭 이지더원 아파트 502동 놀이터","category":"어린이놀이시설","type":"어린이놀이시설","address":"경상남도 진주시 초장로 120 (초전동, 이지더원 아파트)","tel":"","lat":35.2100110910745,"lng":128.110901175086,"geocoded_by":"kakao"},{"name":"진주초장 5블럭 이지더원 아파트 503동 놀이터","category":"어린이놀이시설","type":"어린이놀이시설","address":"경상남도 진주시 초장로 120 (초전동, 이지더원 아파트)","tel":"","lat":35.2100110910745,"lng":128.110901175086,"geocoded_by":"kakao"},{"name":"진주정촌대경파미르아파트 어린이놀이터1(117동 앞)","category":"어린이놀이시설","type":"어린이놀이시설","address":"경상남도 진주시 정촌면 삼일로106번길 8 (진주 정촌 대경파미르 아파트)","tel":"","lat":35.1288118222245,"lng":128.099317870283,"geocoded_by":"kakao"},{"name":"진주정촌대경파미르아파트 어린이놀이터2(104동 뒤)","category":"어린이놀이시설","type":"어린이놀이시설","address":"경상남도 진주시 정촌면 삼일로106번길 8 (진주 정촌 대경파미르 아파트)","tel":"","lat":35.1288118222245,"lng":128.099317870283,"geocoded_by":"kakao"},{"name":"진주정촌대경파미르아파트 유아놀이터(111동 뒤)","category":"어린이놀이시설","type":"어린이놀이시설","address":"경상남도 진주시 정촌면 삼일로106번길 8 (진주 정촌 대경파미르 아파트)","tel":"","lat":35.1288118222245,"lng":128.099317870283,"geocoded_by":"kakao"},{"name":"신진주역세권센트럴웰가아파트 101동 뒤 놀이터","category":"어린이놀이시설","type":"어린이놀이시설","address":"경상남도 진주시 진주역로73번길 33 (가좌동, 센트럴웰가)","tel":"","lat":35.1526869817041,"lng":128.111280001395,"geocoded_by":"kakao"},{"name":"신진주역세권센트럴웰가아파트 103동 뒤 놀이터","category":"어린이놀이시설","type":"어린이놀이시설","address":"경상남도 진주시 진주역로73번길 33 (가좌동, 센트럴웰가)","tel":"","lat":35.1526869817041,"lng":128.111280001395,"geocoded_by":"kakao"},{"name":"신진주역세권센트럴웰가아파트 104동 뒤 놀이터","category":"어린이놀이시설","type":"어린이놀이시설","address":"경상남도 진주시 진주역로73번길 33 (가좌동, 센트럴웰가)","tel":"","lat":35.1526869817041,"lng":128.111280001395,"geocoded_by":"kakao"},{"name":"진주누리유치원 어린이놀이시설","category":"어린이놀이시설","type":"어린이놀이시설","address":"경상남도 진주시 진산로358번길 13 (장재동)","tel":"","lat":35.2180988748203,"lng":128.102509549515,"geocoded_by":"kakao"},{"name":"정촌대경파미르아파트 115동 뒤 어린이놀이터3","category":"어린이놀이시설","type":"어린이놀이시설","address":"경상남도 진주시 정촌면 삼일로106번길 8 (진주 정촌 대경파미르 아파트)","tel":"","lat":35.1288118222245,"lng":128.099317870283,"geocoded_by":"kakao"},{"name":"한보어린이집 놀이시설(망경한보타운 117동 옆)","category":"어린이놀이시설","type":"어린이놀이시설","address":"경상남도 진주시 망경로 234-5 (망경동, 망경한보타운)","tel":"","lat":35.1824122398265,"lng":128.079483118937,"geocoded_by":"kakao"},{"name":"진주초전힐스테이트 106동 앞 어린이놀이터","category":"어린이놀이시설","type":"어린이놀이시설","address":"경상남도 진주시 초북로 95 (초전동, 힐스테이트 초전)","tel":"","lat":35.2128448925696,"lng":128.106310260109,"geocoded_by":"kakao"},{"name":"힐스테이트 초전 108동 앞 어린이놀이터2","category":"어린이놀이시설","type":"어린이놀이시설","address":"경상남도 진주시 초북로 95 (초전동, 힐스테이트 초전)","tel":"","lat":35.2128448925696,"lng":128.106310260109,"geocoded_by":"kakao"},{"name":"힐스테이트 초전 101동 뒤 어린이놀이터3","category":"어린이놀이시설","type":"어린이놀이시설","address":"경상남도 진주시 초북로 95 (초전동, 힐스테이트 초전)","tel":"","lat":35.2128448925696,"lng":128.106310260109,"geocoded_by":"kakao"},{"name":"진주 우방아이유쉘 아파트 어린이놀이터(101, 105동 사이)","category":"어린이놀이시설","type":"어린이놀이시설","address":"경상남도 진주시 정촌면 삼일로 13 (진주 우방아이유쉘)","tel":"","lat":35.1218805412267,"lng":128.098248624739,"geocoded_by":"kakao"},{"name":"중흥S클래스더프라임 어린이놀이터1 (102동 앞)","category":"어린이놀이시설","type":"어린이놀이시설","address":"경상남도 진주시 소호로19번길 11 (충무공동, 진주혁신도시 중흥에스-클래스 더프라임)","tel":"","lat":35.1697191864921,"lng":128.133443716956,"geocoded_by":"kakao"},{"name":"중흥S클래스더프라임 어린이놀이터2 (109동 앞)","category":"어린이놀이시설","type":"어린이놀이시설","address":"경상남도 진주시 소호로19번길 11 (충무공동, 진주혁신도시 중흥에스-클래스 더프라임)","tel":"","lat":35.1697191864921,"lng":128.133443716956,"geocoded_by":"kakao"},{"name":"중흥S클래스더프라임 어린이놀이터3 (104동 앞)","category":"어린이놀이시설","type":"어린이놀이시설","address":"경상남도 진주시 소호로19번길 11 (충무공동, 진주혁신도시 중흥에스-클래스 더프라임)","tel":"","lat":35.1697191864921,"lng":128.133443716956,"geocoded_by":"kakao"},{"name":"중흥S클래스더프라임 유아놀이터 (113동 앞)","category":"어린이놀이시설","type":"어린이놀이시설","address":"경상남도 진주시 소호로19번길 11 (충무공동, 진주혁신도시 중흥에스-클래스 더프라임)","tel":"","lat":35.1697191864921,"lng":128.133443716956,"geocoded_by":"kakao"},{"name":"중흥S클래스더프라임 놀이공간1 (106동 뒤)","category":"어린이놀이시설","type":"어린이놀이시설","address":"경상남도 진주시 소호로19번길 11 (충무공동, 진주혁신도시 중흥에스-클래스 더프라임)","tel":"","lat":35.1697191864921,"lng":128.133443716956,"geocoded_by":"kakao"},{"name":"중흥S클래스더프라임 놀이공간2 (106동 뒤)","category":"어린이놀이시설","type":"어린이놀이시설","address":"경상남도 진주시 소호로19번길 11 (충무공동, 진주혁신도시 중흥에스-클래스 더프라임)","tel":"","lat":35.1697191864921,"lng":128.133443716956,"geocoded_by":"kakao"},{"name":"휴앤인 엘리시움 주상복합아파트 어린이놀이터(103동 지하주차장 옆 지상층)","category":"어린이놀이시설","type":"어린이놀이시설","address":"경상남도 진주시 에나로 100 (충무공동, 휴앤인엘리시움)","tel":"","lat":35.177203719205,"lng":128.14036891031,"geocoded_by":"kakao"},{"name":"휴앤인 엘리시움 주상복합아파트 유아놀이터(101동, 102동 사이 4층 옥상정원내)","category":"어린이놀이시설","type":"어린이놀이시설","address":"경상남도 진주시 에나로 100 (충무공동, 휴앤인엘리시움)","tel":"","lat":35.177203719205,"lng":128.14036891031,"geocoded_by":"kakao"},{"name":"중흥S클래스더프라임 어린이물놀이터 (107동 앞)","category":"어린이놀이시설","type":"어린이놀이시설","address":"경상남도 진주시 소호로19번길 11 (충무공동, 진주혁신도시 중흥에스-클래스 더프라임)","tel":"","lat":35.1697191864921,"lng":128.133443716956,"geocoded_by":"kakao"},{"name":"예하초등학교병설유치원 어린이놀이시설","category":"어린이놀이시설","type":"어린이놀이시설","address":"경상남도 진주시 정촌면 삼일로 50","tel":"","lat":35.1248746939182,"lng":128.098983790338,"geocoded_by":"kakao"},{"name":"진주평거우방아이유쉘스카이팰리스 내 어린이놀이터","category":"어린이놀이시설","type":"어린이놀이시설","address":"경상남도 진주시 진양호로 221 (평거동, 진주평거우방아이유쉘스카이팰리스)","tel":"","lat":35.1738634691526,"lng":128.060177677554,"geocoded_by":"kakao"},{"name":"경상남도교육청 학생안전체험원 어린이놀이시설","category":"어린이놀이시설","type":"어린이놀이시설","address":"경상남도 진주시 문산읍 동부로588번길 20","tel":"","lat":35.1669242243393,"lng":128.167093067154,"geocoded_by":"kakao"},{"name":"매직월드(플레이짐 대형)","category":"어린이놀이시설","type":"어린이놀이시설","address":"경상남도 진주시 금산면 송백로 202","tel":"","lat":35.1890062291953,"lng":128.138994895971,"geocoded_by":"kakao"},{"name":"매직월드(플레이짐 소형)","category":"어린이놀이시설","type":"어린이놀이시설","address":"경상남도 진주시 금산면 송백로 202","tel":"","lat":35.1890062291953,"lng":128.138994895971,"geocoded_by":"kakao"},{"name":"스카이시티프라디움 어린이놀이터1(잔디중앙광장)","category":"어린이놀이시설","type":"어린이놀이시설","address":"경상남도 진주시 개양로 100 (가좌동, SKY 시티프라디움)","tel":"","lat":35.1550746273709,"lng":128.11652386753,"geocoded_by":"kakao"},{"name":"스카이시티프라디움 어린이놀이터2(잔디중앙광장)","category":"어린이놀이시설","type":"어린이놀이시설","address":"경상남도 진주시 개양로 100 (가좌동, SKY 시티프라디움)","tel":"","lat":35.1550746273709,"lng":128.11652386753,"geocoded_by":"kakao"},{"name":"스카이시티프라디움 유아놀이터(어린이집 앞)","category":"어린이놀이시설","type":"어린이놀이시설","address":"경상남도 진주시 개양로 100 (가좌동, SKY 시티프라디움)","tel":"","lat":35.1550746273709,"lng":128.11652386753,"geocoded_by":"kakao"},{"name":"소리바람공원 어린이놀이시설","category":"어린이놀이시설","type":"어린이놀이시설","address":null,"tel":"","lat":35.1561,"lng":128.1033},{"name":"숲향공원 어린이놀이시설","category":"어린이놀이시설","type":"어린이놀이시설","address":null,"tel":"","lat":35.1561,"lng":128.1033},{"name":"희망공원 어린이놀이시설","category":"어린이놀이시설","type":"어린이놀이시설","address":null,"tel":"","lat":35.1561,"lng":128.1033},{"name":"스카이시티프라디움 유아놀이터2(어린이집 앞)","category":"어린이놀이시설","type":"어린이놀이시설","address":"경상남도 진주시 개양로 100 (가좌동, SKY 시티프라디움)","tel":"","lat":35.1550746273709,"lng":128.11652386753,"geocoded_by":"kakao"},{"name":"충무공초등학교 병설유치원 어린이놀이시설","category":"어린이놀이시설","type":"어린이놀이시설","address":"경상남도 진주시 사들로 70 (충무공동)","tel":"","lat":35.173480862089,"lng":128.150001964568,"geocoded_by":"kakao"},{"name":"포레나 신진주 103동 옆 놀이시설(언덕놀이마당)","category":"어린이놀이시설","type":"어린이놀이시설","address":"경상남도 진주시 진주역로96번길 15 (가좌동)","tel":"","lat":35.1510855828308,"lng":128.114935116516,"geocoded_by":"kakao"},{"name":"포레나 신진주 103동 옆 놀이시설(유아놀이마당)","category":"어린이놀이시설","type":"어린이놀이시설","address":"경상남도 진주시 진주역로96번길 15 (가좌동)","tel":"","lat":35.1510855828308,"lng":128.114935116516,"geocoded_by":"kakao"},{"name":"포레나 신진주 101동 옆 놀이시설(운동놀이마당)","category":"어린이놀이시설","type":"어린이놀이시설","address":"경상남도 진주시 진주역로96번길 15 (가좌동)","tel":"","lat":35.1510855828308,"lng":128.114935116516,"geocoded_by":"kakao"},{"name":"포레나 신진주 필로티A 놀이시설(101동 1, 2열)","category":"어린이놀이시설","type":"어린이놀이시설","address":"경상남도 진주시 진주역로96번길 15 (가좌동)","tel":"","lat":35.1510855828308,"lng":128.114935116516,"geocoded_by":"kakao"},{"name":"포레나 신진주 필로티B 놀이시설(101동 3, 4열)","category":"어린이놀이시설","type":"어린이놀이시설","address":"경상남도 진주시 진주역로96번길 15 (가좌동)","tel":"","lat":35.1510855828308,"lng":128.114935116516,"geocoded_by":"kakao"},{"name":"포레나 신진주 필로티C 놀이시설(102동1,2열)","category":"어린이놀이시설","type":"어린이놀이시설","address":"경상남도 진주시 진주역로96번길 15 (가좌동)","tel":"","lat":35.1510855828308,"lng":128.114935116516,"geocoded_by":"kakao"},{"name":"포레나 신진주 필로티D 놀이시설(102동 3, 4열)","category":"어린이놀이시설","type":"어린이놀이시설","address":"경상남도 진주시 진주역로96번길 15 (가좌동)","tel":"","lat":35.1510855828308,"lng":128.114935116516,"geocoded_by":"kakao"},{"name":"포레나 신진주 필로티E 놀이시설(103동 1, 2열)","category":"어린이놀이시설","type":"어린이놀이시설","address":"경상남도 진주시 진주역로96번길 15 (가좌동)","tel":"","lat":35.1510855828308,"lng":128.114935116516,"geocoded_by":"kakao"},{"name":"포레나 신진주 필로티F 놀이시설(103동 3, 4열)","category":"어린이놀이시설","type":"어린이놀이시설","address":"경상남도 진주시 진주역로96번길 15 (가좌동)","tel":"","lat":35.1510855828308,"lng":128.114935116516,"geocoded_by":"kakao"},{"name":"생고기 제작소 정글짐 놀이시설","category":"어린이놀이시설","type":"어린이놀이시설","address":"경상남도 진주시 창렬로 88 (상봉동)","tel":"","lat":35.1962583010298,"lng":128.068783941566,"geocoded_by":"kakao"},{"name":"진주성결교회 정글짐 놀이시설","category":"어린이놀이시설","type":"어린이놀이시설","address":"경상남도 진주시 도동천로 39 (상대동)","tel":"","lat":35.1785669647053,"lng":128.105299439279,"geocoded_by":"kakao"},{"name":"정촌올리움아파트 놀이터1(104동앞)","category":"어린이놀이시설","type":"어린이놀이시설","address":"경상남도 진주시 정촌면 삼일로 12 (진주정촌 올리움)","tel":"","lat":35.123115238707,"lng":128.097751799013,"geocoded_by":"kakao"},{"name":"정촌올리움아파트 놀이터2(104동 뒤)","category":"어린이놀이시설","type":"어린이놀이시설","address":"경상남도 진주시 정촌면 삼일로 12 (진주정촌 올리움)","tel":"","lat":35.123115238707,"lng":128.097751799013,"geocoded_by":"kakao"},{"name":"정촌올리움아파트 놀이터3(106동 앞)","category":"어린이놀이시설","type":"어린이놀이시설","address":"경상남도 진주시 정촌면 삼일로 12 (진주정촌 올리움)","tel":"","lat":35.123115238707,"lng":128.097751799013,"geocoded_by":"kakao"},{"name":"정촌올리움아파트 유아놀이터(어린이집뒤)","category":"어린이놀이시설","type":"어린이놀이시설","address":"경상남도 진주시 정촌면 삼일로 12 (진주정촌 올리움)","tel":"","lat":35.123115238707,"lng":128.097751799013,"geocoded_by":"kakao"},{"name":"진주포레스트부영아파트 어린이놀이터 (102동 앞)","category":"어린이놀이시설","type":"어린이놀이시설","address":"경상남도 진주시 영천강로 60 (충무공동, 진주 포레스트 부영)","tel":"","lat":35.1692435583717,"lng":128.136955220525,"geocoded_by":"kakao"},{"name":"진주포레스트부영아파트 유아놀이터(108동 앞)","category":"어린이놀이시설","type":"어린이놀이시설","address":"경상남도 진주시 영천강로 60 (충무공동, 진주 포레스트 부영)","tel":"","lat":35.1692435583717,"lng":128.136955220525,"geocoded_by":"kakao"},{"name":"진주포레스트부영아파트 물놀이터(109동 앞)","category":"어린이놀이시설","type":"어린이놀이시설","address":"경상남도 진주시 영천강로 60 (충무공동, 진주 포레스트 부영)","tel":"","lat":35.1692435583717,"lng":128.136955220525,"geocoded_by":"kakao"},{"name":"무지개초등학교 실내 어린이놀이시설(1층)","category":"어린이놀이시설","type":"어린이놀이시설","address":"경상남도 진주시 영천강로119번길 37 (충무공동)","tel":"","lat":35.1714470928645,"lng":128.137277215559,"geocoded_by":"kakao"},{"name":"무지개초등학교 실내 어린이놀이시설(2층)","category":"어린이놀이시설","type":"어린이놀이시설","address":"경상남도 진주시 영천강로119번길 37 (충무공동)","tel":"","lat":35.1714470928645,"lng":128.137277215559,"geocoded_by":"kakao"},{"name":"금호지 생태공원 어린이놀이시설","category":"어린이놀이시설","type":"어린이놀이시설","address":null,"tel":"","lat":35.209184,"lng":128.157136},{"name":"금호지 생태공원 어린이모험놀이시설","category":"어린이놀이시설","type":"어린이놀이시설","address":"경상남도 진주시 금산면 용아리","tel":"","lat":35.2039384952661,"lng":128.16898111915,"geocoded_by":"kakao"},{"name":"신진주역세권 시티프라디움2차 아파트 어린이놀이터(어린이집 앞)","category":"어린이놀이시설","type":"어린이놀이시설","address":"경상남도 진주시 진주역로 114 (가좌동, 시티프라디움)","tel":"","lat":35.1516821203121,"lng":128.115800426616,"geocoded_by":"kakao"},{"name":"진주혁신도시중흥S-클래스더퍼스트 607동 앞 어린이놀이터2","category":"어린이놀이시설","type":"어린이놀이시설","address":"경상남도 진주시 충의로 146 (충무공동, 혁신도시중흥에스-클래스더퍼스트)","tel":"","lat":35.1755182353016,"lng":128.149698822376,"geocoded_by":"kakao"},{"name":"진주혁신도시중흥S-클래스더퍼스트 609동 앞 어린이놀이터3","category":"어린이놀이시설","type":"어린이놀이시설","address":"경상남도 진주시 충의로 146 (충무공동, 혁신도시중흥에스-클래스더퍼스트)","tel":"","lat":35.1755182353016,"lng":128.149698822376,"geocoded_by":"kakao"},{"name":"진주혁신도시중흥S-클래스더퍼스트 608동 앞 유아놀이터","category":"어린이놀이시설","type":"어린이놀이시설","address":"경상남도 진주시 충의로 146 (충무공동, 혁신도시중흥에스-클래스더퍼스트)","tel":"","lat":35.1755182353016,"lng":128.149698822376,"geocoded_by":"kakao"},{"name":"중흥S클래스더퍼스트 커뮤니티센터 키즈룸","category":"어린이놀이시설","type":"어린이놀이시설","address":"경상남도 진주시 충의로 146 (충무공동, 혁신도시중흥에스-클래스더퍼스트)","tel":"","lat":35.1755182353016,"lng":128.149698822376,"geocoded_by":"kakao"},{"name":"중흥S클래스센트럴시티C2 206동 옆 마운딩놀이터","category":"어린이놀이시설","type":"어린이놀이시설","address":"경상남도 진주시 에나로 190 (충무공동, 혁신도시중흥에스-클래스센트럴시티2단지)","tel":"","lat":35.1741060002852,"lng":128.143719919383,"geocoded_by":"kakao"},{"name":"중흥S클래스센트럴시티C2 208동 앞 어린이놀이터 1","category":"어린이놀이시설","type":"어린이놀이시설","address":"경상남도 진주시 에나로 190 (충무공동, 혁신도시중흥에스-클래스센트럴시티2단지)","tel":"","lat":35.1741060002852,"lng":128.143719919383,"geocoded_by":"kakao"},{"name":"중흥S클래스센트럴시티C2 201동 앞 어린이놀이터 3","category":"어린이놀이시설","type":"어린이놀이시설","address":"경상남도 진주시 에나로 190 (충무공동, 혁신도시중흥에스-클래스센트럴시티2단지)","tel":"","lat":35.1741060002852,"lng":128.143719919383,"geocoded_by":"kakao"},{"name":"중흥S클래스센트럴시티C2 205동 앞 어린이놀이터 4","category":"어린이놀이시설","type":"어린이놀이시설","address":"경상남도 진주시 에나로 190 (충무공동, 혁신도시중흥에스-클래스센트럴시티2단지)","tel":"","lat":35.1741060002852,"lng":128.143719919383,"geocoded_by":"kakao"},{"name":"중흥S클래스센트럴시티C3 302동 앞 어린이놀이터","category":"어린이놀이시설","type":"어린이놀이시설","address":"경상남도 진주시 에나로175번길 12 (충무공동, 혁신도시중흥에스-클래스센트럴시티3단지)","tel":"","lat":35.1737857732993,"lng":128.144883369787,"geocoded_by":"kakao"},{"name":"중흥S클래스센트럴시티C4 어린이집 옆 어린이놀이터 1","category":"어린이놀이시설","type":"어린이놀이시설","address":"경상남도 진주시 에나로175번길 11 (충무공동, 혁신도시중흥에스-클래스센트럴시티4단지)","tel":"","lat":35.1748531843444,"lng":128.145683409867,"geocoded_by":"kakao"},{"name":"중흥S클래스센트럴시티C4 어린이집 앞 어린이놀이터 2","category":"어린이놀이시설","type":"어린이놀이시설","address":"경상남도 진주시 에나로175번길 11 (충무공동, 혁신도시중흥에스-클래스센트럴시티4단지)","tel":"","lat":35.1748531843444,"lng":128.145683409867,"geocoded_by":"kakao"},