[
  {
    "name": "김해고용복지플러스센터",
    "category": "관공서",
    "type": "관공서",
    "address": "경상남도 김해시 호계로 441 (부원동)",
    "tel": "055-330-6400",
    "lat": 35.229951,
    "lng": 128.884461
  },
  {
    "name": "김해세무서",
    "category": "관공서",
    "type": "관공서",
    "address": "경상남도 김해시 호계로 440",
    "tel": "055-320-6200",
    "lat": 35.230417,
    "lng": 128.885007
  },
  {
    "name": "김해출장소",
    "category": "관공서",
    "type": "관공서",
    "address": "경상남도 김해시 가락로 58 (부원동 830-1) 부원동우체국 5층",
    "tel": "055-344-7835",
    "lat": 35.231703,
    "lng": 128.882191
  },
  {
    "name": "김해우체국",
    "category": "관공서",
    "type": "관공서",
    "address": "경상남도 김해시 전하로176번길 83 (전하동)",
    "tel": "055-320-9090",
    "lat": 35.224032,
    "lng": 128.874497
  },
  {
    "name": "김해진영우체국",
    "category": "관공서",
    "type": "관공서",
    "address": "경상남도 김해시 진영읍 여래로20번길 21 (진영리)",
    "tel": "055-342-2000",
    "lat": 35.304496,
    "lng": 128.732358
  },
  {
    "name": "김해관동우체국",
    "category": "관공서",
    "type": "관공서",
    "address": "경상남도 김해시 계동로 23",
    "tel": "055-314-0781",
    "lat": 35.178577,
    "lng": 128.795669
  },
  {
    "name": "김해장유우체국",
    "category": "관공서",
    "type": "관공서",
    "address": "경상남도 김해시 장유로 283",
    "tel": "055-314-2000",
    "lat": 35.200504,
    "lng": 128.813588
  },
  {
    "name": "김해한림우체국",
    "category": "관공서",
    "type": "관공서",
    "address": "경상남도 김해시 한림면 한림로 370",
    "tel": "055-342-7004",
    "lat": 35.320384,
    "lng": 128.802824
  },
  {
    "name": "김해삼안동우체국",
    "category": "관공서",
    "type": "관공서",
    "address": "경상남도 김해시 삼안로77번길 17 (안동)",
    "tel": "055-334-6711",
    "lat": 35.236452,
    "lng": 128.915318
  },
  {
    "name": "김해삼방동우체국",
    "category": "관공서",
    "type": "관공서",
    "address": "경상남도 김해시 삼안로291번길 57 (삼방동)",
    "tel": "055-321-2005",
    "lat": 35.246892,
    "lng": 128.907825
  },
  {
    "name": "김해활천동우체국",
    "category": "관공서",
    "type": "관공서",
    "address": "경상남도 김해시 인제로39번길 44 (삼정동)",
    "tel": "055-333-3635",
    "lat": 35.2318,
    "lng": 128.900233
  },
  {
    "name": "김해연지우체국",
    "category": "관공서",
    "type": "관공서",
    "address": "경상남도 김해시 내외중앙로 120 (내동)",
    "tel": "055-326-1201",
    "lat": 35.240394,
    "lng": 128.86836
  },
  {
    "name": "김해부원동우체국",
    "category": "관공서",
    "type": "관공서",
    "address": "경상남도 김해시 가락로 58 (부원동)",
    "tel": "055-333-0100",
    "lat": 35.231703,
    "lng": 128.882191
  },
  {
    "name": "김해외동우체국",
    "category": "관공서",
    "type": "관공서",
    "address": "경상남도 김해시 함박로 31 (외동)",
    "tel": "055-328-2116",
    "lat": 35.233397,
    "lng": 128.857761
  },
  {
    "name": "김해구산동우체국",
    "category": "관공서",
    "type": "관공서",
    "address": "경상남도 김해시 구산로39번길 33 (구산동)",
    "tel": "055-339-5901",
    "lat": 35.251227,
    "lng": 128.870462
  },
  {
    "name": "김해삼계동우체국",
    "category": "관공서",
    "type": "관공서",
    "address": "경상남도 김해시 해반천로 168번길 6 (삼계동)",
    "tel": "055-332-8450",
    "lat": 35.262978,
    "lng": 128.867898
  },
  {
    "name": "김해삼문우체국",
    "category": "관공서",
    "type": "관공서",
    "address": "경상남도 김해시 능동로 35",
    "tel": "055-312-8300",
    "lat": 35.196889,
    "lng": 128.79721
  },
  {
    "name": "김해율하우체국",
    "category": "관공서",
    "type": "관공서",
    "address": "경상남도 김해시 율하1로 73",
    "tel": "055-329-2753",
    "lat": 35.175041,
    "lng": 128.812779
  },
  {
    "name": "김해대동우체국",
    "category": "관공서",
    "type": "관공서",
    "address": "경상남도 김해시 대동면 대동로 615",
    "tel": "055-335-6000",
    "lat": 35.242359,
    "lng": 128.981153
  },
  {
    "name": "김해상동우체국",
    "category": "관공서",
    "type": "관공서",
    "address": "경상남도 김해시 상동면 상동로 557",
    "tel": "055-323-6600",
    "lat": 35.308102,
    "lng": 128.930721
  },
  {
    "name": "김해진례우체국",
    "category": "관공서",
    "type": "관공서",
    "address": "경상남도 김해시 진례면 송현로 11",
    "tel": "055-345-6601",
    "lat": 35.248986,
    "lng": 128.749607
  },
  {
    "name": "김해주촌우체국",
    "category": "관공서",
    "type": "관공서",
    "address": "경상남도 김해시 주촌면 서부로1638번길 4",
    "tel": "055-329-1001",
    "lat": 35.236254,
    "lng": 128.831128
  },
  {
    "name": "김해생림우체국",
    "category": "관공서",
    "type": "관공서",
    "address": "경상남도 김해시 생림면 마사로 91",
    "tel": "055-335-9000",
    "lat": 35.352095,
    "lng": 128.85046
  },
  {
    "name": "김해수로우편취급국",
    "category": "관공서",
    "type": "관공서",
    "address": "경상남도 김해시 김해대로2371번길 24-15 (부원동, 성림헤렌하우스)",
    "tel": "055-325-2444",
    "lat": 35.229208,
    "lng": 128.886597
  },
  {
    "name": "김해남산우편취급국",
    "category": "관공서",
    "type": "관공서",
    "address": "경상남도 김해시 김해대로 2419 (부원동)",
    "tel": "055-329-2222",
    "lat": 35.227528,
    "lng": 128.891376
  },
  {
    "name": "김해동광우편취급국",
    "category": "관공서",
    "type": "관공서",
    "address": "경상남도 김해시 호계로 502 (동상동)",
    "tel": "055-333-8338",
    "lat": 35.235337,
    "lng": 128.884598
  },
  {
    "name": "김해어방우편취급국",
    "category": "관공서",
    "type": "관공서",
    "address": "경상남도 김해시 분성로 536 (어방동)",
    "tel": "055-334-6604",
    "lat": 35.23526,
    "lng": 128.90452
  },
  {
    "name": "김해인제대학교우편취급국",
    "category": "관공서",
    "type": "관공서",
    "address": "경상남도 김해시 인제로 197 (어방동)",
    "tel": "055-333-6501",
    "lat": 35.251336,
    "lng": 128.901067
  },
  {
    "name": "김해시청",
    "category": "관공서",
    "type": "관공서",
    "address": "경상남도 김해시 김해대로 2401",
    "tel": "1577-9400",
    "lat": 35.228598,
    "lng": 128.889282
  },
  {
    "name": "진영읍행정복지센터",
    "category": "관공서",
    "type": "관공서",
    "address": "경상남도 김해시 진영읍 여래로20번길 11",
    "tel": "055-359-0191",
    "lat": 35.304328,
    "lng": 128.733303
  },
  {
    "name": "대동면행정복지센터",
    "category": "관공서",
    "type": "관공서",
    "address": "경상남도 김해시 대동면 대동로 610",
    "tel": "055-359-1481",
    "lat": 35.242275,
    "lng": 128.980256
  },
  {
    "name": "상동면행정복지센터",
    "category": "관공서",
    "type": "관공서",
    "address": "경상남도 김해시 상동면 상동로 554",
    "tel": "055-359-1441",
    "lat": 35.307709,
    "lng": 128.930415
  },
  {
    "name": "생림면행정복지센터",
    "category": "관공서",
    "type": "관공서",
    "address": "경상남도 김해시 생림면 봉림로 40",
    "tel": "055-359-1401",
    "lat": 35.328144,
    "lng": 128.849209
  },
  {
    "name": "주촌면행정복지센터",
    "category": "관공서",
    "type": "관공서",
    "address": "경상남도 김해시 주촌면 서부로1638번길 12",
    "tel": "055-359-0771",
    "lat": 35.235769,
    "lng": 128.830657
  },
  {
    "name": "진례면행정복지센터",
    "category": "관공서",
    "type": "관공서",
    "address": "경상남도 김해시 진례면 진례로 241",
    "tel": "055-359-1011",
    "lat": 35.249019,
    "lng": 128.747722
  },
  {
    "name": "한림면행정복지센터",
    "category": "관공서",
    "type": "관공서",
    "address": "경상남도 김해시 한림면 한림로 369",
    "tel": "055-359-1051",
    "lat": 35.32058,
    "lng": 128.801837
  },
  {
    "name": "내외동행정복지센터",
    "category": "관공서",
    "type": "관공서",
    "address": "경상남도 김해시 내외로 67",
    "tel": "055-359-1601",
    "lat": 35.235178,
    "lng": 128.864617
  },
  {
    "name": "동상동행정복지센터",
    "category": "관공서",
    "type": "관공서",
    "address": "경상남도 김해시 호계로517번길 8",
    "tel": "055-359-1511",
    "lat": 35.236851,
    "lng": 128.88346
  },
  {
    "name": "부원동행정복지센터",
    "category": "관공서",
    "type": "관공서",
    "address": "경상남도 김해시 김해대로2371번길 24-16",
    "tel": "055-359-1571",
    "lat": 35.228704,
    "lng": 128.886576
  },
  {
    "name": "북부동행정복지센터",
    "category": "관공서",
    "type": "관공서",
    "address": "경상남도 김해시 해반천로 160",
    "tel": "055-359-1671",
    "lat": 35.262369,
    "lng": 128.86755
  },
  {
    "name": "불암동행정복지센터",
    "category": "관공서",
    "type": "관공서",
    "address": "경상남도 김해시 식만로 388",
    "tel": "055-359-7541",
    "lat": 35.221941,
    "lng": 128.926619
  },
  {
    "name": "삼안동행정복지센터",
    "category": "관공서",
    "type": "관공서",
    "address": "경상남도 김해시 활천로255번길 12",
    "tel": "055-359-7501",
    "lat": 35.243881,
    "lng": 128.9075
  },
  {
    "name": "장유1동행정복지센터",
    "category": "관공서",
    "type": "관공서",
    "address": "경상남도 김해시 금관대로 579(무계동)",
    "tel": "055-359-7571",
    "lat": 35.201241,
    "lng": 128.812735
  },
  {
    "name": "장유2동행정복지센터",
    "category": "관공서",
    "type": "관공서",
    "address": "경상남도 김해시 능동로 43",
    "tel": "055-359-7861",
    "lat": 35.197162,
    "lng": 128.797694
  },
  {
    "name": "장유3동행정복지센터",
    "category": "관공서",
    "type": "관공서",
    "address": "경상남도 김해시 관동로 25",
    "tel": "055-359-8921",
    "lat": 35.177657,
    "lng": 128.806061
  },
  {
    "name": "칠산서부동행정복지센터",
    "category": "관공서",
    "type": "관공서",
    "address": "경상남도 김해시 전하로99(흥동)",
    "tel": "055-359-1831",
    "lat": 35.220891,
    "lng": 128.858839
  },
  {
    "name": "활천동행정복지센터",
    "category": "관공서",
    "type": "관공서",
    "address": "경상남도 김해시 인제로11번길 51",
    "tel": "055-359-1861",
    "lat": 35.22889,
    "lng": 128.899859
  },
  {
    "name": "회현동행정복지센터",
    "category": "관공서",
    "type": "관공서",
    "address": "경상남도 김해시 가락로63번길 33",
    "tel": "055-359-1541",
    "lat": 35.231553,
    "lng": 128.878295
  },
  {
    "name": "농업기술센터",
    "category": "관공서",
    "type": "관공서",
    "address": "경상남도 김해시 전하로198번길 102",
    "tel": "055-350-4011",
    "lat": 35.214045,
    "lng": 128.870597
  },
  {
    "name": "장유도서관",
    "category": "관공서",
    "type": "관공서",
    "address": "경상남도 김해시 대청로176번길 7",
    "tel": "055-330-7451",
    "lat": 35.191362,
    "lng": 128.796967
  },
  {
    "name": "진영한빛도서관",
    "category": "관공서",
    "type": "관공서",
    "address": "경상남도 김해시 진영읍 김해대로 440",
    "tel": "055-330-4811",
    "lat": 35.304677,
    "lng": 128.736996
  },
  {
    "name": "칠암도서관",
    "category": "관공서",
    "type": "관공서",
    "address": "경상남도 김해시 활천로285번길 14",
    "tel": "055-330-4581",
    "lat": 35.244555,
    "lng": 128.9105
  },
  {
    "name": "화정글샘도서관",
    "category": "관공서",
    "type": "관공서",
    "address": "경상남도 김해시 삼계중앙로13번길 19",
    "tel": "055-330-2991",
    "lat": 35.262141,
    "lng": 128.866282
  },
  {
    "name": "김해기적의도서관",
    "category": "관공서",
    "type": "관공서",
    "address": "경상남도 김해시 율하1로 55",
    "tel": "055-330-4651",
    "lat": 35.175685,
    "lng": 128.810386
  },
  {
    "name": "김해율하도서관",
    "category": "관공서",
    "type": "관공서",
    "address": "경상남도 김해시 율하2로 210",
    "tel": "055-340-7161",
    "lat": 35.172527,
    "lng": 128.821005
  },
  {
    "name": "김해시보건소",
    "category": "관공서",
    "type": "관공서",
    "address": "경남 김해시 분성로 227",
    "tel": "055-330-4451",
    "lat": 35.232251,
    "lng": 128.870732
  },
  {
    "name": "보건소",
    "category": "관공서",
    "type": "관공서",
    "address": "경상남도 김해시 능동로 149",
    "tel": "055-330-7971",
    "lat": 35.202285,
    "lng": 128.807208
  },
  {
    "name": "하루종일",
    "category": "어린이놀이시설",
    "type": "어린이놀이시설",
    "address": "경남 김해시 율하임수길 5",
    "tel": "",
    "lat": 35.167829,
    "lng": 128.830928
  },
  {
    "name": "꿀잼키즈룸 김해장유점",
    "category": "어린이놀이시설",
    "type": "어린이놀이시설",
    "address": "경남 김해시 장유로334번길 56",
    "tel": "",
    "lat": 35.193756,
    "lng": 128.811898
  },
  {
    "name": "장유더파크자이 102동앞 어린이놀이터1",
    "category": "어린이놀이시설",
    "type": "어린이놀이시설",
    "address": "경남 김해시 장유로334번길 3",
    "tel": "",
    "lat": 35.196335,
    "lng": 128.816496
  },
  {
    "name": "장유더파크자이 106동앞 어린이놀이터2",
    "category": "어린이놀이시설",
    "type": "어린이놀이시설",
    "address": "경남 김해시 장유로334번길 3",
    "tel": "",
    "lat": 35.196335,
    "lng": 128.816496
  },
  {
    "name": "장유더파크자이 101동앞 유아놀이터",
    "category": "어린이놀이시설",
    "type": "어린이놀이시설",
    "address": "경남 김해시 장유로334번길 2",
    "tel": "",
    "lat": 35.196867,
    "lng": 128.816112
  },
  {
    "name": "친환경에너지공원",
    "category": "어린이놀이시설",
    "type": "어린이놀이시설",
    "address": "경남 김해시 부곡로 33",
    "tel": "",
    "lat": 35.207669,
    "lng": 128.796059
  },
  {
    "name": "김해 대동첨단산업단지 근린공원3 어린이놀이터",
    "category": "어린이놀이시설",
    "type": "어린이놀이시설",
    "address": "경남 김해시 대동면 조눌리 191-5",
    "tel": "",
    "lat": 0.0,
    "lng": 0.0
  },
  {
    "name": "김해대동첨단산업단지 근린공원1호 놀이시설",
    "category": "어린이놀이시설",
    "type": "어린이놀이시설",
    "address": "월촌리 429-4",
    "tel": "",
    "lat": 0.0,
    "lng": 0.0
  },
  {
    "name": "김해대동첨단산업단지 근린공원4호 놀이시설",
    "category": "어린이놀이시설",
    "type": "어린이놀이시설",
    "address": "조눌리 136-10",
    "tel": "",
    "lat": 0.0,
    "lng": 0.0
  },
  {
    "name": "김해대동첨단산업단지 어린이공원 놀이시설",
    "category": "어린이놀이시설",
    "type": "어린이놀이시설",
    "address": "조눌리 184-23",
    "tel": "",
    "lat": 0.0,
    "lng": 0.0
  },
  {
    "name": "율하상상정원어린이집 야외놀이시설",
    "category": "어린이놀이시설",
    "type": "어린이놀이시설",
    "address": "경남 김해시 관동로27번길 5-19",
    "tel": "",
    "lat": 35.178019,
    "lng": 128.806101
  },
  {
    "name": "김해장유역한라비발디센트로 어린이집앞 유아놀이터",
    "category": "어린이놀이시설",
    "type": "어린이놀이시설",
    "address": "687",
    "tel": "",
    "lat": 0.0,
    "lng": 0.0
  },
  {
    "name": "김해장유역한라비발디센트로 101동앞 어린이놀이터1",
    "category": "어린이놀이시설",
    "type": "어린이놀이시설",
    "address": "684",
    "tel": "",
    "lat": 0.0,
    "lng": 0.0
  },
  {
    "name": "김해장유역한라비발디센트로-물놀이터",
    "category": "어린이놀이시설",
    "type": "어린이놀이시설",
    "address": "경남 김해시 금관대로 642",
    "tel": "",
    "lat": 35.209643,
    "lng": 128.827348
  },
  {
    "name": "꽃동산유치원 어린이놀이시설2",
    "category": "어린이놀이시설",
    "type": "어린이놀이시설",
    "address": "경남 김해시 평전로201번길 10-12",
    "tel": "",
    "lat": 35.246158,
    "lng": 128.863986
  },
  {
    "name": "김해푸르지오 하이앤드2차 204동앞 어린이놀이터1",
    "category": "어린이놀이시설",
    "type": "어린이놀이시설",
    "address": "경남 김해시 김해대로 2583",
    "tel": "",
    "lat": 35.22896,
    "lng": 128.909344
  },
  {
    "name": "김해푸르지오 하이앤드2차 207동앞 어린이놀이터2",
    "category": "어린이놀이시설",
    "type": "어린이놀이시설",
    "address": "경남 김해시 김해대로 2583",
    "tel": "",
    "lat": 35.22896,
    "lng": 128.909344
  },
  {
    "name": "김해푸르지오 하이엔드2차 201동 202동사이 유아놀이터",
    "category": "어린이놀이시설",
    "type": "어린이놀이시설",
    "address": "경남 김해시 가락대로 929-1",
    "tel": "",
    "lat": 35.156329,
    "lng": 128.87224
  },
  {
    "name": "김해푸르지오하이엔드1단지 내 어린이놀이시설",
    "category": "어린이놀이시설",
    "type": "어린이놀이시설",
    "address": "경남 김해시 안동길 31",
    "tel": "",
    "lat": 35.237976,
    "lng": 128.913335
  },
  {
    "name": "엘피스빌리지아파트 어린이놀이터",
    "category": "어린이놀이시설",
    "type": "어린이놀이시설",
    "address": "경남 김해시 분성로376번길 21-10",
    "tel": "",
    "lat": 35.232243,
    "lng": 128.88805
  },
  {
    "name": "똥쟁이키즈룸 김해율하점",
    "category": "어린이놀이시설",
    "type": "어린이놀이시설",
    "address": "경남 김해시 율하6로 62",
    "tel": "",
    "lat": 35.172392,
    "lng": 128.823467
  },
  {
    "name": "안동1지구 일반놀이터",
    "category": "어린이놀이시설",
    "type": "어린이놀이시설",
    "address": "경상남도 김해시 삼방동 116-5",
    "tel": "",
    "lat": 35.257,
    "lng": 128.9056
  },
  {
    "name": "신호천 문화공원 놀이터2",
    "category": "어린이놀이시설",
    "type": "어린이놀이시설",
    "address": "경상남도 김해시 삼방동 115-12",
    "tel": "",
    "lat": 0.0,
    "lng": 0.0
  },
  {
    "name": "신어천문화공간 물놀이터",
    "category": "어린이놀이시설",
    "type": "어린이놀이시설",
    "address": "경상남도 김해시 삼방동 116-5",
    "tel": "",
    "lat": 35.240912,
    "lng": 128.910281
  },
  {
    "name": "김해 내덕지구 1블럭 중흥S클래서 더 퍼스트 어린이물놀이터1",
    "category": "어린이놀이시설",
    "type": "어린이놀이시설",
    "address": "경남 김해시 외덕로 125",
    "tel": "",
    "lat": 35.21192,
    "lng": 128.81661
  },
  {
    "name": "김해 내덕지구 1블럭 중흥S클래서 더 퍼스트 어린이놀이터2",
    "category": "어린이놀이시설",
    "type": "어린이놀이시설",
    "address": "경남 김해시 외덕로 125",
    "tel": "",
    "lat": 35.211727,
    "lng": 128.815644
  },
  {
    "name": "김해 내덕지구 1블럭 중흥S클래서 더 퍼스트 어린이놀이터3",
    "category": "어린이놀이시설",
    "type": "어린이놀이시설",
    "address": "경남 김해시 외덕로 125",
    "tel": "",
    "lat": 35.211727,
    "lng": 128.815644
  },
  {
    "name": "김해 내덕지구 1블럭 중흥S클래서 더 퍼스트 유아놀이터",
    "category": "어린이놀이시설",
    "type": "어린이놀이시설",
    "address": "경남 김해시 외덕로 125",
    "tel": "",
    "lat": 35.211727,
    "lng": 128.815644
  },
  {
    "name": "김해 내덕지구 1블럭 중흥S클래서 더 퍼스트 숲속놀이마당",
    "category": "어린이놀이시설",
    "type": "어린이놀이시설",
    "address": "경남 김해시 외덕로 125",
    "tel": "",
    "lat": 35.211727,
    "lng": 128.815644
  },
  {
    "name": "완수고기 진영점 실내놀이시설",
    "category": "어린이놀이시설",
    "type": "어린이놀이시설",
    "address": "경남 김해시 진영읍 여래로 30-3",
    "tel": "",
    "lat": 35.303629,
    "lng": 128.733624
  },
  {
    "name": "캘리클럽 유니버스 플루토 김해점",
    "category": "어린이놀이시설",
    "type": "어린이놀이시설",
    "address": "경남 김해시 장유로 469",
    "tel": "",
    "lat": 35.185062,
    "lng": 128.829596
  },
  {
    "name": "누리마을감자탕 진영점 실내놀이시설",
    "category": "어린이놀이시설",
    "type": "어린이놀이시설",
    "address": "경남 김해시 진영읍 여래로20번길 50-26",
    "tel": "",
    "lat": 35.305999,
    "lng": 128.72956
  },
  {
    "name": "율하 이엘 지역주택조합아파트 신축공사 어린이놀이터3(111동 앞)",
    "category": "어린이놀이시설",
    "type": "어린이놀이시설",
    "address": "경남 김해시 신문동 669",
    "tel": "",
    "lat": 35.184154,
    "lng": 128.822193
  },
  {
    "name": "율하 이엘 지역주택조합아파트 신축공사 어린이놀이터4(107동 앞)",
    "category": "어린이놀이시설",
    "type": "어린이놀이시설",
    "address": "경남 김해시 신문동 669",
    "tel": "",
    "lat": 35.184639,
    "lng": 128.821723
  },
  {
    "name": "인제공원",
    "category": "어린이놀이시설",
    "type": "어린이놀이시설",
    "address": "경남 김해시 활천로255번길 61-21",
    "tel": "",
    "lat": 35.247555,
    "lng": 128.905058
  },
  {
    "name": "쌍용 더 플래티넘 삼계 어린이놀이터",
    "category": "어린이놀이시설",
    "type": "어린이놀이시설",
    "address": "경상남도 김해시 생림대로 63",
    "tel": "",
    "lat": 35.275467,
    "lng": 128.862114
  },
  {
    "name": "김해율하더스카이시티제니스&프라우아파트 어린이놀이터1",
    "category": "어린이놀이시설",
    "type": "어린이놀이시설",
    "address": "경남 김해시 장유로 500",
    "tel": "",
    "lat": 35.182583,
    "lng": 128.822112
  },
  {
    "name": "김해율하더스카이시티제니스&프라우아파트 어린이놀이터2",
    "category": "어린이놀이시설",
    "type": "어린이놀이시설",
    "address": "경남 김해시 장유로 500",
    "tel": "",
    "lat": 35.182667,
    "lng": 128.823075
  },
  {
    "name": "김해율하더스카이시티제니스&프라우아파트 어린이놀이터5",
    "category": "어린이놀이시설",
    "type": "어린이놀이시설",
    "address": "경남 김해시 장유로 500",
    "tel": "",
    "lat": 35.183683,
    "lng": 128.821501
  },
  {
    "name": "김해율하더스카이시티제니스&프라우아파트 유아놀이터",
    "category": "어린이놀이시설",
    "type": "어린이놀이시설",
    "address": "경남 김해시 장유로 500",
    "tel": "",
    "lat": 35.183306,
    "lng": 128.822718
  },
  {
    "name": "김해율하 더스카이시티 어린이놀이터6",
    "category": "어린이놀이시설",
    "type": "어린이놀이시설",
    "address": "경남 김해시 장유로 500",
    "tel": "",
    "lat": 35.182381,
    "lng": 128.823184
  },
  {
    "name": "유아교육원 김해체험분원 건너는기구놀이터",
    "category": "어린이놀이시설",
    "type": "어린이놀이시설",
    "address": "경남 김해시 진례면 서부로860번길 5",
    "tel": "",
    "lat": 35.228013,
    "lng": 128.763498
  },
  {
    "name": "근린공원 어린이놀이터",
    "category": "어린이놀이시설",
    "type": "어린이놀이시설",
    "address": "경남 김해시 장유로 500",
    "tel": "",
    "lat": 35.185483,
    "lng": 128.821707
  },
  {
    "name": "김해 구산 푸르지오 어린이놀이터1",
    "category": "어린이놀이시설",
    "type": "어린이놀이시설",
    "address": "경상남도 김해시 가락로356번길 25",
    "tel": "",
    "lat": 35.257219,
    "lng": 128.872527
  },
  {
    "name": "김해 구산 푸르지오 어린이놀이터2",
    "category": "어린이놀이시설",
    "type": "어린이놀이시설",
    "address": "경남 김해시 가락로356번길 25",
    "tel": "",
    "lat": 35.257132,
    "lng": 128.872563
  },
  {
    "name": "김해 구산 푸르지오 유아놀이터",
    "category": "어린이놀이시설",
    "type": "어린이놀이시설",
    "address": "경남 김해시 가락로356번길 25",
    "tel": "",
    "lat": 35.257106,
    "lng": 128.872586
  },
  {
    "name": "청년감자탕순대국 김해내외점",
    "category": "어린이놀이시설",
    "type": "어린이놀이시설",
    "address": "경남 김해시 내외중앙로 64",
    "tel": "",
    "lat": 35.235582,
    "lng": 128.867208
  },
  {
    "name": "김해율산초등학교병설유치원 실외 어린이놀이시설",
    "category": "어린이놀이시설",
    "type": "어린이놀이시설",
    "address": "경남 김해시 율하5로 55",
    "tel": "",
    "lat": 35.164837,
    "lng": 128.828928
  },
  {
    "name": "김해화포천습지 클라이밍월",
    "category": "어린이놀이시설",
    "type": "어린이놀이시설",
    "address": "경남 김해시 한림면 한림로 183-300",
    "tel": "",
    "lat": 35.311015,
    "lng": 128.788734
  },
  {
    "name": "에꼬르앙팡어린이집",
    "category": "어린이놀이시설",
    "type": "어린이놀이시설",
    "address": "경상남도 김해시 계동로 47 (관동동)",
    "tel": "",
    "lat": 35.180621,
    "lng": 128.795373
  },
  {
    "name": "도담어린이집",
    "category": "어린이놀이시설",
    "type": "어린이놀이시설",
    "address": "경상남도 김해시 분성로 106-19 (외동)",
    "tel": "",
    "lat": 35.229998,
    "lng": 128.858629
  },
  {
    "name": "새장유어린이집",
    "category": "어린이놀이시설",
    "type": "어린이놀이시설",
    "address": "경상남도 김해시 장유로116번길 56 (부곡동)",
    "tel": "",
    "lat": 35.210078,
    "lng": 128.796537
  },
  {
    "name": "황토참좋은어린이집 놀이터",
    "category": "어린이놀이시설",
    "type": "어린이놀이시설",
    "address": "경상남도 김해시 삼안로132번길 15-10 (삼방동)",
    "tel": "",
    "lat": 35.257,
    "lng": 128.9056
  },
  {
    "name": "숲속화인어린이집",
    "category": "어린이놀이시설",
    "type": "어린이놀이시설",
    "address": "경상남도 김해시 삼안로 250 (삼방동)",
    "tel": "",
    "lat": 35.2503,
    "lng": 128.910464
  },
  {
    "name": "아이사랑어린이집",
    "category": "어린이놀이시설",
    "type": "어린이놀이시설",
    "address": "경상남도 김해시 삼안로310번길 9 (삼방동)",
    "tel": "",
    "lat": 35.252731,
    "lng": 128.904756
  },
  {
    "name": "율하상상정원어린이집",
    "category": "어린이놀이시설",
    "type": "어린이놀이시설",
    "address": "경상남도 김해시 관동로27번길 5-17 (관동동)",
    "tel": "",
    "lat": 35.177854,
    "lng": 128.805671
  },
  {
    "name": "장유다솜어린이집",
    "category": "어린이놀이시설",
    "type": "어린이놀이시설",
    "address": "경상남도 김해시 삼문로59번길 72 (삼문동)",
    "tel": "",
    "lat": 35.193892,
    "lng": 128.808162
  },
  {
    "name": "정어린이집",
    "category": "어린이놀이시설",
    "type": "어린이놀이시설",
    "address": "경상남도 김해시 금관대로910번길 53-42 (풍유동)",
    "tel": "",
    "lat": 35.213023,
    "lng": 128.849071
  },
  {
    "name": "나무와아이들유치원 놀이터",
    "category": "어린이놀이시설",
    "type": "어린이놀이시설",
    "address": "경상남도 김해시 진영읍 하계로 412",
    "tel": "",
    "lat": 35.297693,
    "lng": 128.737344
  },
  {
    "name": "진영리라어린이집",
    "category": "어린이놀이시설",
    "type": "어린이놀이시설",
    "address": "경상남도 김해시 진영읍 진영산복로 88-19",
    "tel": "",
    "lat": 35.300773,
    "lng": 128.727001
  },
  {
    "name": "참벗어린이집",
    "category": "어린이놀이시설",
    "type": "어린이놀이시설",
    "address": "경상남도 김해시 진영읍 하계로 338-20",
    "tel": "",
    "lat": 35.291216,
    "lng": 128.736217
  },
  {
    "name": "청록어린이집",
    "category": "어린이놀이시설",
    "type": "어린이놀이시설",
    "address": "경상남도 김해시 활천로74번길 22 (삼정동)",
    "tel": "",
    "lat": 35.234298,
    "lng": 128.89543
  },
  {
    "name": "피노키오어린이집",
    "category": "어린이놀이시설",
    "type": "어린이놀이시설",
    "address": "경상남도 김해시 호계로472번길 33 (부원동)",
    "tel": "",
    "lat": 35.231387,
    "lng": 128.886684
  },
  {
    "name": "봉황공원",
    "category": "어린이놀이시설",
    "type": "어린이놀이시설",
    "address": "경상남도 김해시 가락로15번길 37 (봉황동)",
    "tel": "",
    "lat": 35.227402,
    "lng": 128.878215
  },
  {
    "name": "주천공원",
    "category": "어린이놀이시설",
    "type": "어린이놀이시설",
    "address": null,
    "tel": "",
    "lat": 35.227182,
    "lng": 128.651873
  },
  {
    "name": "진등공원",
    "category": "어린이놀이시설",
    "type": "어린이놀이시설",
    "address": null,
    "tel": "",
    "lat": 35.227208,
    "lng": 128.651909
  },
  {
    "name": "아름공원",
    "category": "어린이놀이시설",
    "type": "어린이놀이시설",
    "address": null,
    "tel": "",
    "lat": 35.227211,
    "lng": 128.651914
  },
  {
    "name": "수홍공원",
    "category": "어린이놀이시설",
    "type": "어린이놀이시설",
    "address": "진영리 1557",
    "tel": "",
    "lat": 0.0,
    "lng": 0.0
  },
  {
    "name": "남산바위공원",
    "category": "어린이놀이시설",
    "type": "어린이놀이시설",
    "address": null,
    "tel": "",
    "lat": 0.0,
    "lng": 0.0
  },
  {
    "name": "생림공원",
    "category": "어린이놀이시설",
    "type": "어린이놀이시설",
    "address": "경남 김해시 생림면 봉림로 39",
    "tel": "",
    "lat": 35.328212,
    "lng": 128.847814
  },
  {
    "name": "갑오마을 7단지 부영아파트 702동 어린이놀이터",
    "category": "어린이놀이시설",
    "type": "어린이놀이시설",
    "address": "경상남도 김해시 계동로 76-22 (대청동，부영아파트7단지)",
    "tel": "",
    "lat": 35.182356,
    "lng": 128.796503
  },
  {
    "name": "월산마을13단지 푸르지오 아파트 기린 놀이터",
    "category": "어린이놀이시설",
    "type": "어린이놀이시설",
    "address": "경상남도 김해시 월산로 82-15 (부곡동, 월산마을13단지장유1차푸르지오아파트)",
    "tel": "",
    "lat": 35.203967,
    "lng": 128.804881
  },
  {
    "name": "신리공원(7호 어린이공원)",
    "category": "어린이놀이시설",
    "type": "어린이놀이시설",
    "address": "경남 김해시 율하2로 209",
    "tel": "",
    "lat": 35.172577,
    "lng": 128.819766
  },
  {
    "name": "용산초등학교 어린이놀이시설(병설유치원 겸용)",
    "category": "어린이놀이시설",
    "type": "어린이놀이시설",
    "address": "경상남도 김해시 상동면 여차로 610",
    "tel": "",
    "lat": 35.35472,
    "lng": 128.902437
  },
  {
    "name": "죽림공원(1호 어린이공원)",
    "category": "어린이놀이시설",
    "type": "어린이놀이시설",
    "address": null,
    "tel": "",
    "lat": 0.0,
    "lng": 0.0
  },
  {
    "name": "화촌공원(2호 어린이공원)",
    "category": "어린이놀이시설",
    "type": "어린이놀이시설",
    "address": null,
    "tel": "",
    "lat": 0.0,
    "lng": 0.0
  },
  {
    "name": "고인돌공원(4호 어린이공원)",
    "category": "어린이놀이시설",
    "type": "어린이놀이시설",
    "address": null,
    "tel": "",
    "lat": 0.0,
    "lng": 0.0
  },
  {
    "name": "학교가는길(신리)",
    "category": "어린이놀이시설",
    "type": "어린이놀이시설",
    "address": null,
    "tel": "",
    "lat": 0.0,
    "lng": 0.0
  },
  {
    "name": "정자배기공원(5호 어린이공원)",
    "category": "어린이놀이시설",
    "type": "어린이놀이시설",
    "address": null,
    "tel": "",
    "lat": 0.0,
    "lng": 0.0
  },
  {
    "name": "수남공원(6호 어린이공원)",
    "category": "어린이놀이시설",
    "type": "어린이놀이시설",
    "address": null,
    "tel": "",
    "lat": 0.0,
    "lng": 0.0
  },
  {
    "name": "아람나무유치원 놀이터",
    "category": "어린이놀이시설",
    "type": "어린이놀이시설",
    "address": "경상남도 김해시 율하2로153번길 19 (율하동)",
    "tel": "",
    "lat": 35.169917,
    "lng": 128.818241
  },
  {
    "name": "포스코 THE# 아파트 놀이터",
    "category": "어린이놀이시설",
    "type": "어린이놀이시설",
    "address": "경상남도 김해시 장유로288번길 15 (무계동, 장유더샵아파트)",
    "tel": "",
    "lat": 35.199337,
    "lng": 128.814152
  },
  {
    "name": "계동초등학교병설유치원 어린이놀이시설",
    "category": "어린이놀이시설",
    "type": "어린이놀이시설",
    "address": "경상남도 김해시 계동로 96 (대청동)",
    "tel": "",
    "lat": 35.184914,
    "lng": 128.795172
  },
  {
    "name": "도드리공원",
    "category": "어린이놀이시설",
    "type": "어린이놀이시설",
    "address": null,
    "tel": "",
    "lat": 0.0,
    "lng": 0.0
  },
  {
    "name": "다전어린이집 놀이터",
    "category": "어린이놀이시설",
    "type": "어린이놀이시설",
    "address": "경상남도 김해시 분성로390번길 1 (동상동)",
    "tel": "",
    "lat": 35.236826,
    "lng": 128.883463
  },
  {
    "name": "동상어린이집 놀이시설",
    "category": "어린이놀이시설",
    "type": "어린이놀이시설",
    "address": "경상남도 김해시 가야로475번길 6-5 (동상동)",
    "tel": "",
    "lat": 35.239437,
    "lng": 128.887564
  },
  {
    "name": "김해합성초등학교 어린이놀이시설(병설유치원 겸용)",
    "category": "어린이놀이시설",
    "type": "어린이놀이시설",
    "address": "경상남도 김해시 가락로 111-12 (서상동)",
    "tel": "",
    "lat": 35.237151,
    "lng": 128.879988
  },
  {
    "name": "진영어린이집 놀이터",
    "category": "어린이놀이시설",
    "type": "어린이놀이시설",
    "address": "경상남도 김해시 진영읍 여래로19번길 10-3",
    "tel": "",
    "lat": 35.304462,
    "lng": 128.736239
  },
  {
    "name": "진영 휴먼시아 아파트(1단지) 어린이놀이터1 (103동 앞)",
    "category": "어린이놀이시설",
    "type": "어린이놀이시설",
    "address": "경상남도 김해시 진영읍 김해대로 462 (진영휴먼시아아파트)",
    "tel": "",
    "lat": 35.304818,
    "lng": 128.739418
  },
  {
    "name": "진영 휴먼시아 아파트(1단지) 어린이놀이터2 (104동-관리사무소앞)",
    "category": "어린이놀이시설",
    "type": "어린이놀이시설",
    "address": "경상남도 김해시 진영읍 김해대로 462 (진영휴먼시아아파트)",
    "tel": "",
    "lat": 35.304818,
    "lng": 128.739418
  },
  {
    "name": "진영 휴먼시아 아파트(1단지) 어린이놀이터3 (109동 앞)",
    "category": "어린이놀이시설",
    "type": "어린이놀이시설",
    "address": "경상남도 김해시 진영읍 김해대로 462 (진영휴먼시아아파트)",
    "tel": "",
    "lat": 35.304818,
    "lng": 128.739418
  },
  {
    "name": "천사어린이집 놀이터",
    "category": "어린이놀이시설",
    "type": "어린이놀이시설",
    "address": "경상남도 김해시 진영읍 진영로26번길 19",
    "tel": "",
    "lat": 35.303404,
    "lng": 128.717762
  },
  {
    "name": "능동체육공원",
    "category": "어린이놀이시설",
    "type": "어린이놀이시설",
    "address": null,
    "tel": "",
    "lat": 0.0,
    "lng": 0.0
  },
  {
    "name": "국공립진례어린이집 놀이터",
    "category": "어린이놀이시설",
    "type": "어린이놀이시설",
    "address": "경상남도 김해시 진례면 송현로 77-20",
    "tel": "",
    "lat": 35.24939,
    "lng": 128.757181
  },
  {
    "name": "금관어린이집 놀이터",
    "category": "어린이놀이시설",
    "type": "어린이놀이시설",
    "address": "경상남도 김해시 삼계로 138 (삼계동)",
    "tel": "",
    "lat": 35.263348,
    "lng": 128.876846
  },
  {
    "name": "e-편한세상아파트 어린이놀이터1(율하리 1405)",
    "category": "어린이놀이시설",
    "type": "어린이놀이시설",
    "address": "경상남도 김해시 율하2로 198 (율하동, 율현마을율하이편한세상)",
    "tel": "",
    "lat": 35.170987,
    "lng": 128.820549
  },
  {
    "name": "e-편한세상아파트 어린이놀이터2(율하리 1405)",
    "category": "어린이놀이시설",
    "type": "어린이놀이시설",
    "address": "경상남도 김해시 율하2로 198 (율하동, 율현마을율하이편한세상)",
    "tel": "",
    "lat": 35.170987,
    "lng": 128.820549
  },
  {
    "name": "한림어린이집",
    "category": "어린이놀이시설",
    "type": "어린이놀이시설",
    "address": "경상남도 김해시 한림면 한림로442번길 29-1",
    "tel": "",
    "lat": 35.324418,
    "lng": 128.802501
  },
  {
    "name": "자연숲속나라 어린이집 내 실외놀이터",
    "category": "어린이놀이시설",
    "type": "어린이놀이시설",
    "address": "경상남도 김해시 대청로 58-19 (관동동)",
    "tel": "",
    "lat": 35.180636,
    "lng": 128.800565
  },
  {
    "name": "서부어린이집 놀이터",
    "category": "어린이놀이시설",
    "type": "어린이놀이시설",
    "address": "경상남도 김해시 전하로208번길 7-13, 서부어린이집 (전하동)",
    "tel": "",
    "lat": 35.222727,
    "lng": 128.870751
  },
  {
    "name": "율천공원",
    "category": "어린이놀이시설",
    "type": "어린이놀이시설",
    "address": null,
    "tel": "",
    "lat": 35.191511,
    "lng": 128.803214
  },
  {
    "name": "e-편한세상아파트 유아놀이터(율하리 1405)",
    "category": "어린이놀이시설",
    "type": "어린이놀이시설",
    "address": "경상남도 김해시 율하2로 198 (율하동, 율현마을율하이편한세상)",
    "tel": "",
    "lat": 35.170987,
    "lng": 128.820549
  },
  {
    "name": "경운초등학교병설유치원 어린이놀이시설",
    "category": "어린이놀이시설",
    "type": "어린이놀이시설",
    "address": "경상남도 김해시 우암로73번길 8 (내동)",
    "tel": "",
    "lat": 35.238405,
    "lng": 128.860635
  },
  {
    "name": "김해삼성어린이집",
    "category": "어린이놀이시설",
    "type": "어린이놀이시설",
    "address": "경상남도 김해시 인제로11번길 4 (어방동)",
    "tel": "",
    "lat": 35.2378,
    "lng": 128.9033
  },
  {
    "name": "어방어린이집",
    "category": "어린이놀이시설",
    "type": "어린이놀이시설",
    "address": "경상남도 김해시 활천로208번길 3 (어방동)",
    "tel": "",
    "lat": 35.242245,
    "lng": 128.902096
  },
  {
    "name": "예은어린이집",
    "category": "어린이놀이시설",
    "type": "어린이놀이시설",
    "address": "경상남도 김해시 전하로 287-12  (외동)",
    "tel": "",
    "lat": 35.228745,
    "lng": 128.870383
  },
  {
    "name": "인당어린이집",
    "category": "어린이놀이시설",
    "type": "어린이놀이시설",
    "address": "경상남도 김해시 분성로 227  (외동)",
    "tel": "",
    "lat": 35.232227,
    "lng": 128.870644
  },
  {
    "name": "즐거운영재어린이집",
    "category": "어린이놀이시설",
    "type": "어린이놀이시설",
    "address": "경상남도 김해시 금관대로1341번길 6-20  (내동)",
    "tel": "",
    "lat": 35.24386,
    "lng": 128.86475
  },
  {
    "name": "김해큰세상어린이집",
    "category": "어린이놀이시설",
    "type": "어린이놀이시설",
    "address": "경상남도 김해시 활천로208번길 27-1 (어방동)",
    "tel": "",
    "lat": 35.239874,
    "lng": 128.901434
  },
  {
    "name": "대동어린이집",
    "category": "어린이놀이시설",
    "type": "어린이놀이시설",
    "address": "경상남도 김해시 대동면 동남로41번길 13-11",
    "tel": "",
    "lat": 35.235904,
    "lng": 128.993866
  },
  {
    "name": "동상2공원 어린이놀이터",
    "category": "어린이놀이시설",
    "type": "어린이놀이시설",
    "address": null,
    "tel": "",
    "lat": 35.227205,
    "lng": 128.651901
  },
  {
    "name": "동상3공원 어린이놀이터",
    "category": "어린이놀이시설",
    "type": "어린이놀이시설",
    "address": null,
    "tel": "",
    "lat": 0.0,
    "lng": 0.0
  },
  {
    "name": "봉우공원 어린이놀이터",
    "category": "어린이놀이시설",
    "type": "어린이놀이시설",
    "address": "경남 김해시 호계로555번길 2-24",
    "tel": "",
    "lat": 35.227182,
    "lng": 128.651886
  },
  {
    "name": "진례초등학교 어린이놀이시설(병설유치원 겸용)",
    "category": "어린이놀이시설",
    "type": "어린이놀이시설",
    "address": "경상남도 김해시 진례면 송현로 74-12",
    "tel": "",
    "lat": 35.247798,
    "lng": 128.755668
  },
  {
    "name": "다전공원 어린이놀이터",
    "category": "어린이놀이시설",
    "type": "어린이놀이시설",
    "address": "경상남도 김해시 김해대로2371번길 24-26 (부원동)",
    "tel": "",
    "lat": 35.229012,
    "lng": 128.887155
  },
  {
    "name": "연지공원 어린이놀이터",
    "category": "어린이놀이시설",
    "type": "어린이놀이시설",
    "address": null,
    "tel": "",
    "lat": 35.153,
    "lng": 129.0631
  },
  {
    "name": "소바우공원 어린이놀이터",
    "category": "어린이놀이시설",
    "type": "어린이놀이시설",
    "address": "경상남도 김해시 우암로 106 (내동, 건영아파트)",
    "tel": "",
    "lat": 35.23915,
    "lng": 128.865439
  },
  {
    "name": "해반공원 어린이놀이터",
    "category": "어린이놀이시설",
    "type": "어린이놀이시설",
    "address": "경상남도 김해시 내외중앙로102번길 26 (내동)",
    "tel": "",
    "lat": 35.239028,
    "lng": 128.870633
  },
  {
    "name": "한글문화공원 어린이놀이터",
    "category": "어린이놀이시설",
    "type": "어린이놀이시설",
    "address": "경상남도 김해시 분성로 225 (외동)",
    "tel": "",
    "lat": 35.231794,
    "lng": 128.870556
  },
  {
    "name": "은하공원 어린이놀이터",
    "category": "어린이놀이시설",
    "type": "어린이놀이시설",
    "address": null,
    "tel": "",
    "lat": 35.227216,
    "lng": 128.651895
  },
  {
    "name": "내동공원 어린이놀이터",
    "category": "어린이놀이시설",
    "type": "어린이놀이시설",
    "address": "경상남도 김해시 금관대로1289번길 22 (내동)",
    "tel": "",
    "lat": 35.241015,
    "lng": 128.859416
  },
  {
    "name": "우암공원 어린이놀이터",
    "category": "어린이놀이시설",
    "type": "어린이놀이시설",
    "address": null,
    "tel": "",
    "lat": 35.227195,
    "lng": 128.651884
  },
  {
    "name": "송이공원",
    "category": "어린이놀이시설",
    "type": "어린이놀이시설",
    "address": "경상남도 김해시 구산동 311",
    "tel": "",
    "lat": 0.0,
    "lng": 0.0
  },
  {
    "name": "지성공원",
    "category": "어린이놀이시설",
    "type": "어린이놀이시설",
    "address": "경상남도 김해시 외동 674-1",
    "tel": "",
    "lat": 0.0,
    "lng": 0.0
  },
  {
    "name": "파랑공원",
    "category": "어린이놀이시설",
    "type": "어린이놀이시설",
    "address": null,
    "tel": "",
    "lat": 35.233599,
    "lng": 128.858567
  },
  {
    "name": "거인공원",
    "category": "어린이놀이시설",
    "type": "어린이놀이시설",
    "address": "경상남도 김해시 외동 1228",
    "tel": "",
    "lat": 35.227198,
    "lng": 128.651891
  },
  {
    "name": "애기등공원",
    "category": "어린이놀이시설",
    "type": "어린이놀이시설",
    "address": "경상남도 김해시 내동 1115-1",
    "tel": "",
    "lat": 35.239859,
    "lng": 128.86529
  },
  {
    "name": "가야공원",
    "category": "어린이놀이시설",
    "type": "어린이놀이시설",
    "address": "경상남도 김해시 내동 1146-3",
    "tel": "",
    "lat": 35.227209,
    "lng": 128.6519
  },
  {
    "name": "한주공원",
    "category": "어린이놀이시설",
    "type": "어린이놀이시설",
    "address": "경상남도 김해시 우암로 36 (외동, 뜨란채아파트)",
    "tel": "",
    "lat": 35.233871,
    "lng": 128.861982
  },
  {
    "name": "서광공원",
    "category": "어린이놀이시설",
    "type": "어린이놀이시설",
    "address": "경상남도 김해시 외동 1260-4",
    "tel": "",
    "lat": 0.0,
    "lng": 0.0
  },
  {
    "name": "봉명공원",
    "category": "어린이놀이시설",
    "type": "어린이놀이시설",
    "address": "경남 김해시 함박로 88",
    "tel": "",
    "lat": 35.232263,
    "lng": 128.863608
  },
  {
    "name": "흥부공원",
    "category": "어린이놀이시설",
    "type": "어린이놀이시설",
    "address": "경남 김해시 함박로 116",
    "tel": "",
    "lat": 35.231887,
    "lng": 128.866585
  },
  {
    "name": "새동네공원",
    "category": "어린이놀이시설",
    "type": "어린이놀이시설",
    "address": "경상남도 김해시 구산동 281",
    "tel": "",
    "lat": 0.0,
    "lng": 0.0
  },
  {
    "name": "구산제5공원",
    "category": "어린이놀이시설",
    "type": "어린이놀이시설",
    "address": "경상남도 김해시 가락로294번길 7 (구산동, 주공아파트)",
    "tel": "",
    "lat": 35.252158,
    "lng": 128.872825
  },
  {
    "name": "구산제3공원",
    "category": "어린이놀이시설",
    "type": "어린이놀이시설",
    "address": "경상남도 김해시 가락로294번길 18 (구산동, 구산주공3단지아파트)",
    "tel": "",
    "lat": 35.250771,
    "lng": 128.874104
  },
  {
    "name": "구산제2공원",
    "category": "어린이놀이시설",
    "type": "어린이놀이시설",
    "address": null,
    "tel": "",
    "lat": 35.252819,
    "lng": 128.873224
  },
  {
    "name": "활천공원",
    "category": "어린이놀이시설",
    "type": "어린이놀이시설",
    "address": null,
    "tel": "",
    "lat": 0.0,
    "lng": 0.0
  },
  {
    "name": "삼정공원",
    "category": "어린이놀이시설",
    "type": "어린이놀이시설",
    "address": null,
    "tel": "",
    "lat": 35.227183,
    "lng": 128.651889
  },
  {
    "name": "덕숭공원",
    "category": "어린이놀이시설",
    "type": "어린이놀이시설",
    "address": null,
    "tel": "",
    "lat": 35.227183,
    "lng": 128.651883
  },
  {
    "name": "나래공원",
    "category": "어린이놀이시설",
    "type": "어린이놀이시설",
    "address": "경상남도 김해시 화목동 589-3",
    "tel": "",
    "lat": 0.0,
    "lng": 0.0
  },
  {
    "name": "바람개비공원",
    "category": "어린이놀이시설",
    "type": "어린이놀이시설",
    "address": null,
    "tel": "",
    "lat": 0.0,
    "lng": 0.0
  },
  {
    "name": "꽃샘공원",
    "category": "어린이놀이시설",
    "type": "어린이놀이시설",
    "address": "경상남도 김해시 화목동 309-5",
    "tel": "",
    "lat": 0.0,
    "lng": 0.0
  },
  {
    "name": "꼬꼬마공원",
    "category": "어린이놀이시설",
    "type": "어린이놀이시설",
    "address": "경상남도 김해시 화목동 356-2",
    "tel": "",
    "lat": 0.0,
    "lng": 0.0
  },
  {
    "name": "동심공원",
    "category": "어린이놀이시설",
    "type": "어린이놀이시설",
    "address": "경상남도 김해시 화목동 585-6",
    "tel": "",
    "lat": 0.0,
    "lng": 0.0
  },
  {
    "name": "우리마당공원",
    "category": "어린이놀이시설",
    "type": "어린이놀이시설",
    "address": "경상남도 김해시 흥동 913-2",
    "tel": "",
    "lat": 0.0,
    "lng": 0.0
  },
  {
    "name": "아이공원",
    "category": "어린이놀이시설",
    "type": "어린이놀이시설",
    "address": null,
    "tel": "",
    "lat": 35.227182,
    "lng": 128.651887
  },
  {
    "name": "애기나리공원",
    "category": "어린이놀이시설",
    "type": "어린이놀이시설",
    "address": null,
    "tel": "",
    "lat": 0.0,
    "lng": 0.0
  },
  {
    "name": "문화공원",
    "category": "어린이놀이시설",
    "type": "어린이놀이시설",
    "address": null,
    "tel": "",
    "lat": 35.22722,
    "lng": 128.651954
  },
  {
    "name": "신어1공원",
    "category": "어린이놀이시설",
    "type": "어린이놀이시설",
    "address": null,
    "tel": "",
    "lat": 35.249569,
    "lng": 128.904908
  },
  {
    "name": "신어2공원",
    "category": "어린이놀이시설",
    "type": "어린이놀이시설",
    "address": null,
    "tel": "",
    "lat": 35.227183,
    "lng": 128.651882
  },
  {
    "name": "하늬공원",
    "category": "어린이놀이시설",
    "type": "어린이놀이시설",
    "address": null,
    "tel": "",
    "lat": 35.227179,
    "lng": 128.651884
  },
  {
    "name": "율곡마을세영리첼아파트-1",
    "category": "어린이놀이시설",
    "type": "어린이놀이시설",
    "address": "경상남도 김해시 덕정로 187(세영리첼)",
    "tel": "",
    "lat": 35.1761,
    "lng": 128.804242
  },
  {
    "name": "율곡마을세영리첼아파트-2",
    "category": "어린이놀이시설",
    "type": "어린이놀이시설",
    "address": "경상남도 김해시 덕정로 187(세영리첼)",
    "tel": "",
    "lat": 35.1761,
    "lng": 128.804242
  },
  {
    "name": "장방A공원",
    "category": "어린이놀이시설",
    "type": "어린이놀이시설",
    "address": null,
    "tel": "",
    "lat": 35.227182,
    "lng": 128.651883
  },
  {
    "name": "장방B공원",
    "category": "어린이놀이시설",
    "type": "어린이놀이시설",
    "address": null,
    "tel": "",
    "lat": 35.227174,
    "lng": 128.65189
  },
  {
    "name": "금병공원",
    "category": "어린이놀이시설",
    "type": "어린이놀이시설",
    "address": null,
    "tel": "",
    "lat": 35.227197,
    "lng": 128.651885
  },
  {
    "name": "서어지공원",
    "category": "어린이놀이시설",
    "type": "어린이놀이시설",
    "address": "경상남도 김해시 진영읍 김해대로365번길 6-24",
    "tel": "",
    "lat": 35.30779,
    "lng": 128.731092
  },
  {
    "name": "한진그룹사원아파트 놀이터",
    "category": "어린이놀이시설",
    "type": "어린이놀이시설",
    "address": "경상남도 김해시 평전로 219 (내동, 한진사원아파트)",
    "tel": "",
    "lat": 35.246545,
    "lng": 128.866269
  },
  {
    "name": "지내공원",
    "category": "어린이놀이시설",
    "type": "어린이놀이시설",
    "address": "경상남도 김해시 지내동 311-15",
    "tel": "",
    "lat": 35.231976,
    "lng": 128.920391
  },
  {
    "name": "소리공원",
    "category": "어린이놀이시설",
    "type": "어린이놀이시설",
    "address": null,
    "tel": "",
    "lat": 35.198828,
    "lng": 128.79895
  },
  {
    "name": "하늘나리공원",
    "category": "어린이놀이시설",
    "type": "어린이놀이시설",
    "address": null,
    "tel": "",
    "lat": 0.0,
    "lng": 0.0
  },
  {
    "name": "수우공원",
    "category": "어린이놀이시설",
    "type": "어린이놀이시설",
    "address": null,
    "tel": "",
    "lat": 0.0,
    "lng": 0.0
  },
  {
    "name": "구실공원",
    "category": "어린이놀이시설",
    "type": "어린이놀이시설",
    "address": null,
    "tel": "",
    "lat": 35.227173,
    "lng": 128.651889
  },
  {
    "name": "새싹공원",
    "category": "어린이놀이시설",
    "type": "어린이놀이시설",
    "address": null,
    "tel": "",
    "lat": 0.0,
    "lng": 0.0
  },
  {
    "name": "무지개공원",
    "category": "어린이놀이시설",
    "type": "어린이놀이시설",
    "address": null,
    "tel": "",
    "lat": 0.0,
    "lng": 0.0
  },
  {
    "name": "신명공원",
    "category": "어린이놀이시설",
    "type": "어린이놀이시설",
    "address": "경상남도 김해시 월산로 112-55 (부곡동, 월산마을5단지두산위브아파트)",
    "tel": "",
    "lat": 35.207091,
    "lng": 128.803678
  },
  {
    "name": "장구공원",
    "category": "어린이놀이시설",
    "type": "어린이놀이시설",
    "address": null,
    "tel": "",
    "lat": 35.203432,
    "lng": 128.802491
  },
  {
    "name": "아람치공원",
    "category": "어린이놀이시설",
    "type": "어린이놀이시설",
    "address": null,
    "tel": "",
    "lat": 0.0,
    "lng": 0.0
  },
  {
    "name": "반달공원",
    "category": "어린이놀이시설",
    "type": "어린이놀이시설",
    "address": null,
    "tel": "",
    "lat": 35.199958,
    "lng": 128.808426
  },
  {
    "name": "돌마루공원",
    "category": "어린이놀이시설",
    "type": "어린이놀이시설",
    "address": null,
    "tel": "",
    "lat": 35.202767,
    "lng": 128.812895
  },
  {
    "name": "숲정이공원",
    "category": "어린이놀이시설",
    "type": "어린이놀이시설",
    "address": null,
    "tel": "",
    "lat": 0.0,
    "lng": 0.0
  },
  {
    "name": "맞담공원",
    "category": "어린이놀이시설",
    "type": "어린이놀이시설",
    "address": null,
    "tel": "",
    "lat": 0.0,
    "lng": 0.0
  },
  {
    "name": "도담공원",
    "category": "어린이놀이시설",
    "type": "어린이놀이시설",
    "address": null,
    "tel": "",
    "lat": 35.227178,
    "lng": 128.651889
  },
  {
    "name": "어방 2주공 아파트",
    "category": "어린이놀이시설",
    "type": "어린이놀이시설",
    "address": "경상남도 김해시 활천로166번길 28 (어방동, 어방2주공아파트)",
    "tel": "",
    "lat": 35.238363,
    "lng": 128.901462
  },
  {
    "name": "광남백조1동아파트",
    "category": "어린이놀이시설",
    "type": "어린이놀이시설",
    "address": "경상남도 김해시 가야의길 98-18 (봉황동, 봉황백조아파트)",
    "tel": "",
    "lat": 35.234259,
    "lng": 128.873854
  },
  {
    "name": "대근그린파크맨션어린이놀이터-2",
    "category": "어린이놀이시설",
    "type": "어린이놀이시설",
    "address": "경상남도 김해시 진영읍 진남로 3 (대근아파트)",
    "tel": "",
    "lat": 35.303296,
    "lng": 128.710295
  },
  {
    "name": "유신 장미 아파트 어린이 놀이터",
    "category": "어린이놀이시설",
    "type": "어린이놀이시설",
    "address": "경상남도 김해시 가락로 301 (구산동, 유신주택)",
    "tel": "",
    "lat": 35.251902,
    "lng": 128.871715
  },
  {
    "name": "진영 삼성타워아파트 어린이놀이터",
    "category": "어린이놀이시설",
    "type": "어린이놀이시설",
    "address": "경상남도 김해시 진영읍 진영로 98-5 (삼성타워)",
    "tel": "",
    "lat": 35.303087,
    "lng": 128.72346
  },
  {
    "name": "연지마을 현대 1차 아파트 어린이놀이터",
    "category": "어린이놀이시설",
    "type": "어린이놀이시설",
    "address": "경상남도 김해시 구지로 55 (내동, 연지마을현대아파트)",
    "tel": "",
    "lat": 35.240577,
    "lng": 128.869368
  },
  {
    "name": "동일아파트 어린이놀이터",
    "category": "어린이놀이시설",
    "type": "어린이놀이시설",
    "address": "경상남도 김해시 함박로 162 (외동, 동일아파트)",
    "tel": "",
    "lat": 35.233517,
    "lng": 128.870943
  },
  {
    "name": "김해대우그린아파트(103동)",
    "category": "어린이놀이시설",
    "type": "어린이놀이시설",
    "address": "경상남도 김해시 내외중앙로 121 (내동, 대우아파트)",
    "tel": "",
    "lat": 35.241374,
    "lng": 128.86735
  },
  {
    "name": "김해대우그린아파트(107동)",
    "category": "어린이놀이시설",
    "type": "어린이놀이시설",
    "address": "경상남도 김해시 내외중앙로 121 (내동, 대우아파트)",
    "tel": "",
    "lat": 35.241374,
    "lng": 128.86735
  },
  {
    "name": "뜨란채아파트 어린이놀이터-1 (302동 옆)",
    "category": "어린이놀이시설",
    "type": "어린이놀이시설",
    "address": "경상남도 김해시 우암로 36 (외동, 뜨란채아파트)",
    "tel": "",
    "lat": 35.233871,
    "lng": 128.861982
  },
  {
    "name": "청원 한마을 아파트 어린이놀이터",
    "category": "어린이놀이시설",
    "type": "어린이놀이시설",
    "address": "경상남도 김해시 한림면 한림로342번길 24 (청원한마을아파트)",
    "tel": "",
    "lat": 35.320508,
    "lng": 128.804438
  },
  {
    "name": "진례동원아파트 어린이놀이터",
    "category": "어린이놀이시설",
    "type": "어린이놀이시설",
    "address": "경상남도 김해시 진례면 송현로 56 (진례동원아파트)",
    "tel": "",
    "lat": 35.248011,
    "lng": 128.754146
  },
  {
    "name": "구산5주공아파트 어린이놀이터-2",
    "category": "어린이놀이시설",
    "type": "어린이놀이시설",
    "address": "경상남도 김해시 가락로294번길 17-1 (구산동, 김해구산5주공아파트)",
    "tel": "",
    "lat": 35.252116,
    "lng": 128.873973
  },
  {
    "name": "일동한신아파트-2(105동 아래층 놀이터)",
    "category": "어린이놀이시설",
    "type": "어린이놀이시설",
    "address": "경상남도 김해시 분성로 14 (외동, 일동한신아파트)",
    "tel": "",
    "lat": 35.231413,
    "lng": 128.848803
  },
  {
    "name": "장유 대동2단지 어린이놀이터-1 (101동앞)",
    "category": "어린이놀이시설",
    "type": "어린이놀이시설",
    "address": "경상남도 김해시 월산로 82-62 (부곡동, 석봉마을대동아파트)",
    "tel": "",
    "lat": 35.204339,
    "lng": 128.807314
  },
  {
    "name": "협성팔레스타운 어린이놀이터(105동 앞)",
    "category": "어린이놀이시설",
    "type": "어린이놀이시설",
    "address": "경상남도 김해시 진영읍 김해대로244번길 10 (협성팔레스아파트)",
    "tel": "",
    "lat": 35.30592,
    "lng": 128.716401
  },
  {
    "name": "월산마을9단지 부영아파트 어린이놀이터-1",
    "category": "어린이놀이시설",
    "type": "어린이놀이시설",
    "address": "경상남도 김해시 월산로 112-56 (부곡동, 월산마을부영아파트)",
    "tel": "",
    "lat": 35.206469,
    "lng": 128.805004
  },
  {
    "name": "월산마을9단지 부영아파트 어린이놀이터-2",
    "category": "어린이놀이시설",
    "type": "어린이놀이시설",
    "address": "경상남도 김해시 월산로 112-56 (부곡동, 월산마을부영아파트)",
    "tel": "",
    "lat": 35.206469,
    "lng": 128.805004
  },
  {
    "name": "갑오마을6단지 부영아파트 2동 놀이시설",
    "category": "어린이놀이시설",
    "type": "어린이놀이시설",
    "address": "경상남도 김해시 계동로 76-56  (대청동, 부영아파트6단지)",
    "tel": "",
    "lat": 35.183117,
    "lng": 128.798408
  },
  {
    "name": "젤미마을 2단지 주공임대아파트 유아놀이터",
    "category": "어린이놀이시설",
    "type": "어린이놀이시설",
    "address": "경상남도 김해시 능동로 76  (삼문동, 젤미마을주공아파트)",
    "tel": "",
    "lat": 35.197405,
    "lng": 128.801389
  },
  {
    "name": "젤미마을 2단지 주공임대아파트 어린이놀이터2",
    "category": "어린이놀이시설",
    "type": "어린이놀이시설",
    "address": "경상남도 김해시 능동로 76  (삼문동, 젤미마을주공아파트)",
    "tel": "",
    "lat": 35.197405,
    "lng": 128.801389
  },
  {
    "name": "월산마을3단지 부영아파트(장유 부영12차) 어린이놀이터(304동)",
    "category": "어린이놀이시설",
    "type": "어린이놀이시설",
    "address": "경상남도 김해시 월산로 142 (부곡동, 월산마을부영아파트)",
    "tel": "",
    "lat": 35.207755,
    "lng": 128.800924
  },
  {
    "name": "월산마을3단지 부영아파트(장유 부영12차) 어린이놀이터(307동)",
    "category": "어린이놀이시설",
    "type": "어린이놀이시설",
    "address": "경상남도 김해시 월산로 142 (부곡동, 월산마을부영아파트)",
    "tel": "",
    "lat": 35.207755,
    "lng": 128.800924
  },
  {
    "name": "젤미주공 6단지 아파트 놀이터-2",
    "category": "어린이놀이시설",
    "type": "어린이놀이시설",
    "address": "경상남도 김해시 번화1로84번길 29  (삼문동, 젤미마을주공아파트)",
    "tel": "",
    "lat": 35.196359,
    "lng": 128.802
  },
  {
    "name": "석봉마을 8단지 부영아파트 관리동 놀이시설",
    "category": "어린이놀이시설",
    "type": "어린이놀이시설",
    "address": "경상남도 김해시 월산로 13-14 (부곡동, 석봉마을8단지부영아파트14차)",
    "tel": "",
    "lat": 35.200142,
    "lng": 128.810323
  },
  {
    "name": "월산마을13단지 푸르지오 아파트 용 놀이터",
    "category": "어린이놀이시설",
    "type": "어린이놀이시설",
    "address": "경상남도 김해시 월산로 82-15 (부곡동, 월산마을13단지장유1차푸르지오아파트)",
    "tel": "",
    "lat": 35.203967,
    "lng": 128.804881
  },
  {
    "name": "젤미마을10단지 한림리츠빌-1",
    "category": "어린이놀이시설",
    "type": "어린이놀이시설",
    "address": "경상남도 김해시 번화1로 168  (삼문동, 한림리츠빌)",
    "tel": "",
    "lat": 35.199327,
    "lng": 128.793745
  },
  {
    "name": "월산마을11단지 주공임대아파트 유아놀이터",
    "category": "어린이놀이시설",
    "type": "어린이놀이시설",
    "address": "경상남도 김해시 월산로 103 (부곡동, 월산마을주공11단지아파트)",
    "tel": "",
    "lat": 35.204052,
    "lng": 128.802053
  },
  {
    "name": "대동피렌체앙코르아파트",
    "category": "어린이놀이시설",
    "type": "어린이놀이시설",
    "address": "경상남도 김해시 번화1로 104 (삼문동，젤미마을3단지대동피렌체앙코르아파트)",
    "tel": "",
    "lat": 35.196736,
    "lng": 128.799385
  },
  {
    "name": "김해 분성마을 3단지 동원로얄 듀크 어린이놀이터 301동 놀이시설",
    "category": "어린이놀이시설",
    "type": "어린이놀이시설",
    "address": "경상남도 김해시 가야로 60 (삼계동, 분성마을동원로얄듀크아파트)",
    "tel": "",
    "lat": 35.269271,
    "lng": 128.866254
  },
  {
    "name": "팔판마을 대우푸르지오 6단지 (609동)",
    "category": "어린이놀이시설",
    "type": "어린이놀이시설",
    "address": "경상남도 김해시 팔판로 27  (관동동, 팔판마을6단지푸르지오아파트)",
    "tel": "",
    "lat": 35.176969,
    "lng": 128.7922
  },
  {
    "name": "김해진영코아루APT 406동 놀이시설",
    "category": "어린이놀이시설",
    "type": "어린이놀이시설",
    "address": "경상남도 김해시 진영읍 김해대로361번길 34 (김해진영코아루아파트)",
    "tel": "",
    "lat": 35.309069,
    "lng": 128.731298
  },
  {
    "name": "김해진영코아루APT 410동 놀이시설",
    "category": "어린이놀이시설",
    "type": "어린이놀이시설",
    "address": "경상남도 김해시 진영읍 김해대로361번길 34 (김해진영코아루아파트)",
    "tel": "",
    "lat": 35.310897,
    "lng": 128.732258
  },
  {
    "name": "경원마을 동아아파트 303동 놀이시설",
    "category": "어린이놀이시설",
    "type": "어린이놀이시설",
    "address": "경상남도 김해시 내외로 55 (내동, 동아아파트)",
    "tel": "",
    "lat": 35.236304,
    "lng": 128.863595
  },
  {
    "name": "석봉마을10단지 대동아파트 1002동 놀이시설",
    "category": "어린이놀이시설",
    "type": "어린이놀이시설",
    "address": "경상남도 김해시 금관대로599번길 11 (무계동, 대동아파트)",
    "tel": "",
    "lat": 35.202739,
    "lng": 128.813314
  },
  {
    "name": "갑오마을2단지 주공아파트-1",
    "category": "어린이놀이시설",
    "type": "어린이놀이시설",
    "address": "경상남도 김해시 계동로102번길 9  (대청동, 갑오마을주공2단지)",
    "tel": "",
    "lat": 35.186453,
    "lng": 128.794701
  },
  {
    "name": "석봉마을4단지 부영아파트 408동옆",
    "category": "어린이놀이시설",
    "type": "어린이놀이시설",
    "address": "경상남도 김해시 능동로 117 (부곡동, 석봉마을4단지부영아파트)",
    "tel": "",
    "lat": 35.201124,
    "lng": 128.803254
  },
  {
    "name": "석봉마을2단지 대동피렌체아파트",
    "category": "어린이놀이시설",
    "type": "어린이놀이시설",
    "address": "경상남도 김해시 월산로 74 (부곡동, 석봉마을대동피렌체2단지아파트)",
    "tel": "",
    "lat": 35.203192,
    "lng": 128.805704
  },
  {
    "name": "중흥에스-클래스 진영2단지 어린이놀이터-1 206동",
    "category": "어린이놀이시설",
    "type": "어린이놀이시설",
    "address": "경상남도 김해시 진영읍 장등로19번길 18 (중흥에스클래스2단지아파트)",
    "tel": "",
    "lat": 35.309395,
    "lng": 128.733034
  },
  {
    "name": "중흥에스-클래스 진영2단지 어린이놀이터-2 211동",
    "category": "어린이놀이시설",
    "type": "어린이놀이시설",
    "address": "경상남도 김해시 진영읍 장등로19번길 18 (중흥에스클래스2단지아파트)",
    "tel": "",
    "lat": 35.309395,
    "lng": 128.733034
  },
  {
    "name": "시호2구놀이터",
    "category": "어린이놀이시설",
    "type": "어린이놀이시설",
    "address": "경상남도 김해시 한림면 시산리 568-9",
    "tel": "",
    "lat": 35.338927,
    "lng": 128.782819
  },
  {
    "name": "삼문초등학교 어린이놀이시설",
    "category": "어린이놀이시설",
    "type": "어린이놀이시설",
    "address": "경상남도 김해시 번화2로 104 (삼문동)",
    "tel": "",
    "lat": 35.198351,
    "lng": 128.802975
  },
  {
    "name": "김해시청 어린이집 놀이터",
    "category": "어린이놀이시설",
    "type": "어린이놀이시설",
    "address": "경상남도 김해시 김해대로2371번길 24-19 (부원동)",
    "tel": "",
    "lat": 35.229308,
    "lng": 128.886768
  },
  {
    "name": "주촌어린이집 놀이터",
    "category": "어린이놀이시설",
    "type": "어린이놀이시설",
    "address": "경상남도 김해시 주촌면 서부로1541번길 11",
    "tel": "",
    "lat": 35.241836,
    "lng": 128.807922
  },
  {
    "name": "양지마을동원아파트(2차)-205동 놀이시설",
    "category": "어린이놀이시설",
    "type": "어린이놀이시설",
    "address": "경상남도 김해시 분성로727번길 21 (지내동, 지내동2차양지마을동원아파트)",
    "tel": "",
    "lat": 35.232498,
    "lng": 128.922803
  },
  {
    "name": "팔판마을3단지 e그린타운-2",
    "category": "어린이놀이시설",
    "type": "어린이놀이시설",
    "address": "경상남도 김해시 덕정로 68 (관동동, 팔판마을부영이그린타운3차아파트)",
    "tel": "",
    "lat": 35.178975,
    "lng": 128.792744
  },
  {
    "name": "도솔어린이집 놀이터",
    "category": "어린이놀이시설",
    "type": "어린이놀이시설",
    "address": "경상남도 김해시 활천로202번길 16 (어방동)",
    "tel": "",
    "lat": 35.240918,
    "lng": 128.900996
  },
  {
    "name": "알로기공원",
    "category": "어린이놀이시설",
    "type": "어린이놀이시설",
    "address": null,
    "tel": "",
    "lat": 35.194,
    "lng": 128.0807
  },
  {
    "name": "경운초등학교 어린이놀이시설",
    "category": "어린이놀이시설",
    "type": "어린이놀이시설",
    "address": "경상남도 김해시 우암로73번길 8 (내동)",
    "tel": "",
    "lat": 35.238405,
    "lng": 128.860635
  },
  {
    "name": "불암동 이주단지공원",
    "category": "어린이놀이시설",
    "type": "어린이놀이시설",
    "address": null,
    "tel": "",
    "lat": 0.0,
    "lng": 0.0
  },
  {
    "name": "숲속해바라기유치원 어린이놀이시설",
    "category": "어린이놀이시설",
    "type": "어린이놀이시설",
    "address": "경상남도 김해시 율하로 270-69 (율하동)",
    "tel": "",
    "lat": 35.169454,
    "lng": 128.80537
  },
  {
    "name": "양문유치원 어린이놀이시설",
    "category": "어린이놀이시설",
    "type": "어린이놀이시설",
    "address": "경상남도 김해시 삼계중앙로13번길 47-24 (삼계동)",
    "tel": "",
    "lat": 35.263656,
    "lng": 128.865796
  },
  {
    "name": "자연해나어린이집 놀이터",
    "category": "어린이놀이시설",
    "type": "어린이놀이시설",
    "address": "경상남도 김해시 대청로 64-16 (관동동)",
    "tel": "",
    "lat": 35.181406,
    "lng": 128.800242
  },
  {
    "name": "관동어린이집 놀이터",
    "category": "어린이놀이시설",
    "type": "어린이놀이시설",
    "address": "경상남도 김해시 관동로27번길 111 (관동동)",
    "tel": "",
    "lat": 35.178794,
    "lng": 128.816573
  },
  {
    "name": "본산공원(3호근린) 놀이시설",
    "category": "어린이놀이시설",
    "type": "어린이놀이시설",
    "address": null,
    "tel": "",
    "lat": 0.0,
    "lng": 0.0
  },
  {
    "name": "김해유치원 어린이놀이시설",
    "category": "어린이놀이시설",
    "type": "어린이놀이시설",
    "address": "경상남도 김해시 인제로284번길 51 (삼방동)",
    "tel": "",
    "lat": 35.254098,
    "lng": 128.908007
  },
  {
    "name": "계동초등학교 어린이 놀이시설",
    "category": "어린이놀이시설",
    "type": "어린이놀이시설",
    "address": "경상남도 김해시 계동로 96 (대청동)",
    "tel": "",
    "lat": 35.184914,
    "lng": 128.795172
  },
  {
    "name": "구봉초등학교 어린이놀이시설(병설유치원 겸용)",
    "category": "어린이놀이시설",
    "type": "어린이놀이시설",
    "address": "경상남도 김해시 구지로 99-26 (구산동)",
    "tel": "",
    "lat": 35.240776,
    "lng": 128.873318
  },
  {
    "name": "구산초등학교 어린이놀이시설",
    "category": "어린이놀이시설",
    "type": "어린이놀이시설",
    "address": "경상남도 김해시 가락로 310-36 (구산동)",
    "tel": "",
    "lat": 35.253392,
    "lng": 128.874255
  },
  {
    "name": "구산초등학교병설유치원 어린이놀이시설",
    "category": "어린이놀이시설",
    "type": "어린이놀이시설",
    "address": "경상남도 김해시 가락로 310-36 (구산동)",
    "tel": "",
    "lat": 35.253392,
    "lng": 128.874255
  },
  {
    "name": "금동초등학교 어린이놀이시설",
    "category": "어린이놀이시설",
    "type": "어린이놀이시설",
    "address": "경상남도 김해시 상동면 상동로 551-13",
    "tel": "",
    "lat": 35.30915,
    "lng": 128.930175
  },
  {
    "name": "금산초등학교 어린이 놀이시설",
    "category": "어린이놀이시설",
    "type": "어린이놀이시설",
    "address": "경상남도 김해시 진영읍 하계로 3",
    "tel": "",
    "lat": 35.292291,
    "lng": 128.708345
  },
  {
    "name": "김해구지초등학교 어린이놀이시설",
    "category": "어린이놀이시설",
    "type": "어린이놀이시설",
    "address": "경상남도 김해시 구산로5번길 45 (구산동)",
    "tel": "",
    "lat": 35.252824,
    "lng": 128.868987
  },
  {
    "name": "김해구지초등학교병설유치원 어린이놀이시설",
    "category": "어린이놀이시설",
    "type": "어린이놀이시설",
    "address": "경상남도 김해시 구산로5번길 45 (구산동)",
    "tel": "",
    "lat": 35.252824,
    "lng": 128.868987
  },
  {
    "name": "김해내동초등학교병설유치원 어린이놀이시설",
    "category": "어린이놀이시설",
    "type": "어린이놀이시설",
    "address": "경상남도 김해시 평전로 151 (내동)",
    "tel": "",
    "lat": 35.242754,
    "lng": 128.85924
  },
  {
    "name": "김해봉황초등학교 어린이놀이시설",
    "category": "어린이놀이시설",
    "type": "어린이놀이시설",
    "address": "경상남도 김해시 전하로198번길 5 (전하동)",
    "tel": "",
    "lat": 35.222202,
    "lng": 128.869847
  },
  {
    "name": "김해삼성초등학교병설유치원 어린이놀이시설(1)",
    "category": "어린이놀이시설",
    "type": "어린이놀이시설",
    "address": "경상남도 김해시 인제로51번길 42 (삼정동)",
    "tel": "",
    "lat": 35.233768,
    "lng": 128.899935
  },
  {
    "name": "김해신안초등학교 어린이놀이시설",
    "category": "어린이놀이시설",
    "type": "어린이놀이시설",
    "address": "경상남도 김해시 팔판로 8 (관동동)",
    "tel": "",
    "lat": 35.179204,
    "lng": 128.790195
  },
  {
    "name": "김해신안초등학교병설유치원 어린이놀이시설",
    "category": "어린이놀이시설",
    "type": "어린이놀이시설",
    "address": "경상남도 김해시 팔판로 8 (관동동)",
    "tel": "",
    "lat": 35.179204,
    "lng": 128.790195
  },
  {
    "name": "김해신명초등학교 어린이놀이시설",
    "category": "어린이놀이시설",
    "type": "어린이놀이시설",
    "address": "경상남도 김해시 가야로 31 (삼계동)",
    "tel": "",
    "lat": 35.270682,
    "lng": 128.863583
  },
  {
    "name": "김해봉황초등학교병설유치원 어린이놀이시설",
    "category": "어린이놀이시설",
    "type": "어린이놀이시설",
    "address": "경상남도 김해시 전하로198번길 5 (전하동)",
    "tel": "",
    "lat": 35.222202,
    "lng": 128.869847
  },
  {
    "name": "김해외동초등학교 어린이놀이시설",
    "category": "어린이놀이시설",
    "type": "어린이놀이시설",
    "address": "경상남도 김해시 금관대로1190번길 55-7 (외동)",
    "tel": "",
    "lat": 35.232897,
    "lng": 128.858196
  },
  {
    "name": "김해동광초등학교병설유치원 어린이놀이시설",
    "category": "어린이놀이시설",
    "type": "어린이놀이시설",
    "address": "경상남도 김해시 호계로500번길 15-15 (동상동)",
    "tel": "",
    "lat": 35.236935,
    "lng": 128.886725
  },
  {
    "name": "김해동광초등학교 어린이 놀이시설",
    "category": "어린이놀이시설",
    "type": "어린이놀이시설",
    "address": "경상남도 김해시 호계로500번길 15-15 (동상동)",
    "tel": "",
    "lat": 35.236935,
    "lng": 128.886725
  },
  {
    "name": "삼문초등학교병설유치원 어린이놀이시설",
    "category": "어린이놀이시설",
    "type": "어린이놀이시설",
    "address": "경상남도 김해시 번화2로 104 (삼문동)",
    "tel": "",
    "lat": 35.198351,
    "lng": 128.802975
  },
  {
    "name": "김해활천초등학교 어린이놀이시설",
    "category": "어린이놀이시설",
    "type": "어린이놀이시설",
    "address": "경상남도 김해시 삼안로24번길 7 (지내동)",
    "tel": "",
    "lat": 35.232187,
    "lng": 128.918524
  },
  {
    "name": "대동초등학교 어린이놀이시설",
    "category": "어린이놀이시설",
    "type": "어린이놀이시설",
    "address": "경상남도 김해시 대동면 대동로 613",
    "tel": "",
    "lat": 35.243301,
    "lng": 128.980599
  },
  {
    "name": "대동초등학교병설유치원 어린이놀이시설",
    "category": "어린이놀이시설",
    "type": "어린이놀이시설",
    "address": "경상남도 김해시 대동면 대동로 613",
    "tel": "",
    "lat": 35.243301,
    "lng": 128.980599
  },
  {
    "name": "대진초등학교병설유치원 어린이놀이시설",
    "category": "어린이놀이시설",
    "type": "어린이놀이시설",
    "address": "경상남도 김해시 진례면 고모로327번길 19",
    "tel": "",
    "lat": 35.257663,
    "lng": 128.764153
  },
  {
    "name": "덕정초등학교 어린이놀이시설",
    "category": "어린이놀이시설",
    "type": "어린이놀이시설",
    "address": "경상남도 김해시 대청로 31 (관동동)",
    "tel": "",
    "lat": 35.178151,
    "lng": 128.798998
  },
  {
    "name": "봉명초등학교 어린이놀이시설",
    "category": "어린이놀이시설",
    "type": "어린이놀이시설",
    "address": "경상남도 김해시 함박로 74 (외동)",
    "tel": "",
    "lat": 35.23219,
    "lng": 128.862528
  },
  {
    "name": "대청초등학교 어린이놀이시설",
    "category": "어린이놀이시설",
    "type": "어린이놀이시설",
    "address": "경상남도 김해시 반룡로 53 (대청동)",
    "tel": "",
    "lat": 35.189046,
    "lng": 128.803279
  },
  {
    "name": "김해활천초등학교병설유치원 어린이놀이시설",
    "category": "어린이놀이시설",
    "type": "어린이놀이시설",
    "address": "경상남도 김해시 삼안로24번길 7 (지내동)",
    "tel": "",
    "lat": 35.232294,
    "lng": 128.918727
  },
  {
    "name": "대중초등학교병설유치원 어린이놀이시설",
    "category": "어린이놀이시설",
    "type": "어린이놀이시설",
    "address": "경상남도 김해시 대동면 대동로 287",
    "tel": "",
    "lat": 35.23671,
    "lng": 128.949013
  },
  {
    "name": "대감초등학교병설유치원 어린이놀이시설",
    "category": "어린이놀이시설",
    "type": "어린이놀이시설",
    "address": "경상남도 김해시 대동면 대동로 993",
    "tel": "",
    "lat": 35.273906,
    "lng": 128.981869
  },
  {
    "name": "능동초등학교 어린이놀이시설",
    "category": "어린이놀이시설",
    "type": "어린이놀이시설",
    "address": "경상남도 김해시 번화1로123번길 20 (삼문동)",
    "tel": "",
    "lat": 35.198179,
    "lng": 128.795771
  },
  {
    "name": "능동초등학교병설유치원 어린이놀이시설",
    "category": "어린이놀이시설",
    "type": "어린이놀이시설",
    "address": "경상남도 김해시 번화1로123번길 20(삼문동, 능동초등학교)",
    "tel": "",
    "lat": 35.198179,
    "lng": 128.795771
  },
  {
    "name": "삼계초등학교 어린이놀이시설",
    "category": "어린이놀이시설",
    "type": "어린이놀이시설",
    "address": "경상남도 김해시 가야로38번길 30 (삼계동)",
    "tel": "",
    "lat": 35.267527,
    "lng": 128.864203
  },
  {
    "name": "대감초등학교 어린이놀이시설",
    "category": "어린이놀이시설",
    "type": "어린이놀이시설",
    "address": "경상남도 김해시 대동면 대동로 993",
    "tel": "",
    "lat": 35.273906,
    "lng": 128.981869
  },
  {
    "name": "분성초등학교 어린이놀이시설",
    "category": "어린이놀이시설",
    "type": "어린이놀이시설",
    "address": "경상남도 김해시 가야로147번길 15 (삼계동)",
    "tel": "",
    "lat": 35.265348,
    "lng": 128.873061
  },
  {
    "name": "삼계초등학교병설유치원 어린이놀이시설",
    "category": "어린이놀이시설",
    "type": "어린이놀이시설",
    "address": "경상남도 김해시 가야로38번길 30 (삼계동)",
    "tel": "",
    "lat": 35.267527,
    "lng": 128.864203
  },
  {
    "name": "삼방초등학교병설유치원 어린이놀이시설",
    "category": "어린이놀이시설",
    "type": "어린이놀이시설",
    "address": "경상남도 김해시 삼안로235번길 20 (삼방동)",
    "tel": "",
    "lat": 35.249168,
    "lng": 128.907975
  },
  {
    "name": "이북초등학교병설유치원 어린이놀이시설",
    "category": "어린이놀이시설",
    "type": "어린이놀이시설",
    "address": "경상남도 김해시 한림면 한림로 98",
    "tel": "",
    "lat": 35.301918,
    "lng": 128.809153
  },
  {
    "name": "수남초등학교 어린이놀이시설",
    "category": "어린이놀이시설",
    "type": "어린이놀이시설",
    "address": "경상남도 김해시 율하2로 183 (율하동)",
    "tel": "",
    "lat": 35.170722,
    "lng": 128.818846
  },
  {
    "name": "월산초등학교 어린이 놀이시설",
    "category": "어린이놀이시설",
    "type": "어린이놀이시설",
    "address": "경상남도 김해시 능동로 123 (부곡동)",
    "tel": "",
    "lat": 35.201263,
    "lng": 128.805295
  },
  {
    "name": "우암초등학교 어린이놀이시설(병설유치원 겸용)",
    "category": "어린이놀이시설",
    "type": "어린이놀이시설",
    "address": "경상남도 김해시 우암로 165 (내동)",
    "tel": "",
    "lat": 35.243285,
    "lng": 128.867301
  },
  {
    "name": "생림초등학교병설유치원 어린이놀이시설",
    "category": "어린이놀이시설",
    "type": "어린이놀이시설",
    "address": "경상남도 김해시 생림면 봉림로 80-10",
    "tel": "",
    "lat": 35.332363,
    "lng": 128.847918
  },
  {
    "name": "영운초등학교 어린이놀이시설",
    "category": "어린이놀이시설",
    "type": "어린이놀이시설",
    "address": "경상남도 김해시 인제로284번길 47 (삼방동)",
    "tel": "",
    "lat": 35.254788,
    "lng": 128.906993
  },
  {
    "name": "이작초등학교 어린이놀이시설",
    "category": "어린이놀이시설",
    "type": "어린이놀이시설",
    "address": "경상남도 김해시 생림면 마사로241번길 12",
    "tel": "",
    "lat": 35.361552,
    "lng": 128.837618
  },
  {
    "name": "율하초등학교병설유치원 어린이놀이시설",
    "category": "어린이놀이시설",
    "type": "어린이놀이시설",
    "address": "경상남도 김해시 율하2로58번길 7 (율하동)",
    "tel": "",
    "lat": 35.171575,
    "lng": 128.808244
  },
  {
    "name": "생림초등학교 어린이놀이시설",
    "category": "어린이놀이시설",
    "type": "어린이놀이시설",
    "address": "경상남도 김해시 생림면 봉림로 80-10",
    "tel": "",
    "lat": 35.332363,
    "lng": 128.847918
  },
  {
    "name": "신어초등학교 어린이놀이시설",
    "category": "어린이놀이시설",
    "type": "어린이놀이시설",
    "address": "경상남도 김해시 활천로 303 (삼방동)",
    "tel": "",
    "lat": 35.244066,
    "lng": 128.912384
  },
  {
    "name": "어방초등학교병설유치원 어린이놀이시설",
    "category": "어린이놀이시설",
    "type": "어린이놀이시설",
    "address": "경상남도 김해시 활천로 159 (어방동)",
    "tel": "",
    "lat": 35.240071,
    "lng": 128.898346
  },
  {
    "name": "월산초등학교병설유치원 어린이놀이시설",
    "category": "어린이놀이시설",
    "type": "어린이놀이시설",
    "address": "경상남도 김해시 능동로 123 (부곡동)",
    "tel": "",
    "lat": 35.201263,
    "lng": 128.805295
  },
  {
    "name": "석봉초등학교 어린이놀이시설(병설유치원 겸용)",
    "category": "어린이놀이시설",
    "type": "어린이놀이시설",
    "address": "경상남도 김해시 월산로 27 (부곡동)",
    "tel": "",
    "lat": 35.200105,
    "lng": 128.809263
  },
  {
    "name": "이작초등학교병설유치원 어린이놀이시설",
    "category": "어린이놀이시설",
    "type": "어린이놀이시설",
    "address": "경상남도 김해시 생림면 마사로241번길 12",
    "tel": "",
    "lat": 35.361552,
    "lng": 128.837618
  },
  {
    "name": "주석초등학교병설유치원  어린이놀이시설",
    "category": "어린이놀이시설",
    "type": "어린이놀이시설",
    "address": "경상남도 김해시 월산로 81-36 (부곡동)",
    "tel": "",
    "lat": 35.202721,
    "lng": 128.802343
  },
  {
    "name": "한림초등학교 어린이놀이시설",
    "category": "어린이놀이시설",
    "type": "어린이놀이시설",
    "address": "경상남도 김해시 한림면 한림로371번길 47",
    "tel": "",
    "lat": 35.324022,
    "lng": 128.79866
  },
  {
    "name": "칠산초등학교 어린이놀이시설",
    "category": "어린이놀이시설",
    "type": "어린이놀이시설",
    "address": "경상남도 김해시 칠산로413번길 16-2 (화목동)",
    "tel": "",
    "lat": 35.210137,
    "lng": 128.85192
  },
  {
    "name": "진영대흥초등학교 어린이놀이시설",
    "category": "어린이놀이시설",
    "type": "어린이놀이시설",
    "address": "경상남도 김해시 진영읍 진영로120번길 2-4",
    "tel": "",
    "lat": 35.303873,
    "lng": 128.72568
  },
  {
    "name": "진영금병초등학교병설유치원 어린이놀이시설",
    "category": "어린이놀이시설",
    "type": "어린이놀이시설",
    "address": "경상남도 김해시 진영읍 장등로 37",
    "tel": "",
    "lat": 35.30989,
    "lng": 128.734692
  },
  {
    "name": "진영대흥초등학교병설유치원 어린이놀이시설",
    "category": "어린이놀이시설",
    "type": "어린이놀이시설",
    "address": "경상남도 김해시 진영읍 진영로120번길 2-4",
    "tel": "",
    "lat": 35.303873,
    "lng": 128.72568
  },
  {
    "name": "장유초등학교 어린이놀이시설",
    "category": "어린이놀이시설",
    "type": "어린이놀이시설",
    "address": "경상남도 김해시 능동로 190 (무계동)",
    "tel": "",
    "lat": 35.205079,
    "lng": 128.811775
  },
  {
    "name": "진영대창초등학교 어린이놀이시설",
    "category": "어린이놀이시설",
    "type": "어린이놀이시설",
    "address": "경상남도 김해시 진영읍 진영로 236",
    "tel": "",
    "lat": 35.301332,
    "lng": 128.739004
  },
  {
    "name": "임호초등학교 어린이놀이시설",
    "category": "어린이놀이시설",
    "type": "어린이놀이시설",
    "address": "경남 김해시 함박로 163",
    "tel": "",
    "lat": 35.233968,
    "lng": 128.869656
  },
  {
    "name": "진영금병초등학교 어린이놀이시설",
    "category": "어린이놀이시설",
    "type": "어린이놀이시설",
    "address": "경상남도 김해시 진영읍 장등로 37",
    "tel": "",
    "lat": 35.30989,
    "lng": 128.734692
  },
  {
    "name": "주석초등학교 어린이놀이시설",
    "category": "어린이놀이시설",
    "type": "어린이놀이시설",
    "address": "경상남도 김해시 월산로 81-36 (부곡동)",
    "tel": "",
    "lat": 35.202721,
    "lng": 128.802343
  },
  {
    "name": "장유초등학교병설유치원 어린이놀이시설",
    "category": "어린이놀이시설",
    "type": "어린이놀이시설",
    "address": "경상남도 김해시 능동로 190 (무계동)",
    "tel": "",
    "lat": 35.205079,
    "lng": 128.811775
  },
  {
    "name": "반룡산공원(춘화곡지구)",
    "category": "어린이놀이시설",
    "type": "어린이놀이시설",
    "address": null,
    "tel": "",
    "lat": 35.227173,
    "lng": 128.651886
  },
  {
    "name": "김해가야초등학교병설유치원 어린이놀이시설",
    "category": "어린이놀이시설",
    "type": "어린이놀이시설",
    "address": "경상남도 김해시 분성로3번길 45 (외동)",
    "tel": "",
    "lat": 35.236651,
    "lng": 128.851533
  },
  {
    "name": "수남초등학교병설유치원 어린이놀이시설",
    "category": "어린이놀이시설",
    "type": "어린이놀이시설",
    "address": "경상남도 김해시 율하2로 183 (율하동)",
    "tel": "",
    "lat": 0.0,
    "lng": 0.0
  },
  {
    "name": "무지개유치원",
    "category": "어린이놀이시설",
    "type": "어린이놀이시설",
    "address": "경상남도 김해시 가야로157번길 32-12 (삼계동)",
    "tel": "",
    "lat": 35.263232,
    "lng": 128.874953
  },
  {
    "name": "맘에든유치원",
    "category": "어린이놀이시설",
    "type": "어린이놀이시설",
    "address": "경상남도 김해시 전하로124번길 26-16 (흥동)",
    "tel": "",
    "lat": 35.2157,
    "lng": 128.8584
  },
  {
    "name": "율하초등학교 어린이놀이시설",
    "category": "어린이놀이시설",
    "type": "어린이놀이시설",
    "address": "경상남도 김해시 율하2로58번길 7 (율하동)",
    "tel": "",
    "lat": 35.171679,
    "lng": 128.807847
  },
  {
    "name": "대중초등학교 어린이놀이시설",
    "category": "어린이놀이시설",
    "type": "어린이놀이시설",
    "address": "경상남도 김해시 대동면 대동로 287",
    "tel": "",
    "lat": 35.23671,
    "lng": 128.949013
  },
  {
    "name": "대진초등학교 어린이놀이시설",
    "category": "어린이놀이시설",
    "type": "어린이놀이시설",
    "address": "경상남도 김해시 진례면 고모로327번길 19",
    "tel": "",
    "lat": 35.257663,
    "lng": 128.764153
  },
  {
    "name": "양지유치원",
    "category": "어린이놀이시설",
    "type": "어린이놀이시설",
    "address": "경상남도 김해시 분성로3번길 245 (내동)",
    "tel": "",
    "lat": 35.248676,
    "lng": 128.865132
  },
  {
    "name": "유영유치원",
    "category": "어린이놀이시설",
    "type": "어린이놀이시설",
    "address": "경상남도 김해시 함박로45번길 17-19 (외동)",
    "tel": "",
    "lat": 35.233647,
    "lng": 128.858178
  },
  {
    "name": "현대유치원 어린이놀이시설",
    "category": "어린이놀이시설",
    "type": "어린이놀이시설",
    "address": "경상남도 김해시 금관대로1209번길 20 (외동)",
    "tel": "",
    "lat": 35.235036,
    "lng": 128.852922
  },
  {
    "name": "가야유치원",
    "category": "어린이놀이시설",
    "type": "어린이놀이시설",
    "address": "경상남도 김해시 활천로 195-8 (어방동)",
    "tel": "",
    "lat": 35.242649,
    "lng": 128.900128
  },
  {
    "name": "매화숲유치원",
    "category": "어린이놀이시설",
    "type": "어린이놀이시설",
    "address": "경상남도 김해시 함박로101번길 19-1 (외동)",
    "tel": "",
    "lat": 35.233418,
    "lng": 128.86319
  },
  {
    "name": "꽃동산유치원",
    "category": "어린이놀이시설",
    "type": "어린이놀이시설",
    "address": "경상남도 김해시 평전로201번길 10-12 (내동)",
    "tel": "",
    "lat": 35.246158,
    "lng": 128.863986
  },
  {
    "name": "수인사유치원",
    "category": "어린이놀이시설",
    "type": "어린이놀이시설",
    "address": "경상남도 김해시 분성로3번길 181-33 (내동)",
    "tel": "",
    "lat": 35.245854,
    "lng": 128.860204
  },
  {
    "name": "아이뜰유치원 어린이놀이시설",
    "category": "어린이놀이시설",
    "type": "어린이놀이시설",
    "address": "경상남도 김해시 평전로71번길 10-23 (외동)",
    "tel": "",
    "lat": 35.238753,
    "lng": 128.85506
  },
  {
    "name": "빛누리유치원",
    "category": "어린이놀이시설",
    "type": "어린이놀이시설",
    "address": "경상남도 김해시 분성로3번길 169 (내동)",
    "tel": "",
    "lat": 35.243761,
    "lng": 128.859397
  },
  {
    "name": "영림유치원 제1놀이터",
    "category": "어린이놀이시설",
    "type": "어린이놀이시설",
    "address": "경상남도 김해시 분성로 14-2 (외동)",
    "tel": "",
    "lat": 35.232118,
    "lng": 128.849495
  },
  {
    "name": "삼방초등학교 어린이놀이시설",
    "category": "어린이놀이시설",
    "type": "어린이놀이시설",
    "address": "경상남도 김해시 삼안로235번길 20 (삼방동)",
    "tel": "",
    "lat": 35.249168,
    "lng": 128.907975
  },
  {
    "name": "이화예능유치원",
    "category": "어린이놀이시설",
    "type": "어린이놀이시설",
    "address": "경상남도 김해시 금관대로1265번길 10 (내동)",
    "tel": "",
    "lat": 35.23874,
    "lng": 128.858216
  },
  {
    "name": "은성유치원 어린이놀이시설",
    "category": "어린이놀이시설",
    "type": "어린이놀이시설",
    "address": "경상남도 김해시 함박로 122-1 (외동)",
    "tel": "",
    "lat": 35.231525,
    "lng": 128.866459
  },
  {
    "name": "전원유치원 어린이놀이시설",
    "category": "어린이놀이시설",
    "type": "어린이놀이시설",
    "address": "경상남도 김해시 삼안로112번길 20 (안동)",
    "tel": "",
    "lat": 35.23992,
    "lng": 128.918457
  },
  {
    "name": "석화꽃무지풀무지유치원",
    "category": "어린이놀이시설",
    "type": "어린이놀이시설",
    "address": "경상남도 김해시 대청로104번길 46 (대청동)",
    "tel": "",
    "lat": 35.18666,
    "lng": 128.802879
  },
  {
    "name": "장유동백어린이집",
    "category": "어린이놀이시설",
    "type": "어린이놀이시설",
    "address": "경상남도 김해시 율하로346번길 18 (율하동)",
    "tel": "",
    "lat": 0.0,
    "lng": 0.0
  },
  {
    "name": "화정초등학교 어린이놀이시설(병설유치원 겸용)",
    "category": "어린이놀이시설",
    "type": "어린이놀이시설",
    "address": "경상남도 김해시 삼계중앙로5번길 24 (삼계동)",
    "tel": "",
    "lat": 35.263116,
    "lng": 128.865766
  },
  {
    "name": "글로벌창의유치원",
    "category": "어린이놀이시설",
    "type": "어린이놀이시설",
    "address": "경상남도 김해시 구지로 204 (동상동)",
    "tel": "",
    "lat": 35.238148,
    "lng": 128.885639
  },
  {
    "name": "글로벌키즈하우스어린이집",
    "category": "어린이놀이시설",
    "type": "어린이놀이시설",
    "address": "경상남도 김해시 구지로 206 (동상동)",
    "tel": "",
    "lat": 35.238171,
    "lng": 128.886007
  },
  {
    "name": "소금과빛어린이집 놀이터",
    "category": "어린이놀이시설",
    "type": "어린이놀이시설",
    "address": "경상남도 김해시 율하로 154-21 (관동동)",
    "tel": "",
    "lat": 35.174985,
    "lng": 128.796293
  },
  {
    "name": "김해유체어린이집 놀이터",
    "category": "어린이놀이시설",
    "type": "어린이놀이시설",
    "address": "경상남도 김해시 분성로194번길 25 (외동)",
    "tel": "",
    "lat": 35.228284,
    "lng": 128.868939
  },
  {
    "name": "노정화예능어린이집",
    "category": "어린이놀이시설",
    "type": "어린이놀이시설",
    "address": "경상남도 김해시 활천로 116-9 (삼정동)",
    "tel": "",
    "lat": 35.236439,
    "lng": 128.89618
  },
  {
    "name": "어방초등학교 어린이놀이시설",
    "category": "어린이놀이시설",
    "type": "어린이놀이시설",
    "address": "경상남도 김해시 활천로 159 (어방동)",
    "tel": "",
    "lat": 35.240071,
    "lng": 128.898346
  },
  {
    "name": "청아유치원",
    "category": "어린이놀이시설",
    "type": "어린이놀이시설",
    "address": "경상남도 김해시 진영읍 하계로 40",
    "tel": "",
    "lat": 35.289036,
    "lng": 128.710235
  },
  {
    "name": "진영대창초등학교병설유치원 어린이놀이시설",
    "category": "어린이놀이시설",
    "type": "어린이놀이시설",
    "address": "경상남도 김해시 진영읍 진영로 236",
    "tel": "",
    "lat": 35.301332,
    "lng": 128.739004
  },
  {
    "name": "국제유치원",
    "category": "어린이놀이시설",
    "type": "어린이놀이시설",
    "address": "경상남도 김해시 함박로 92 (외동)",
    "tel": "",
    "lat": 35.232138,
    "lng": 128.863991
  },
  {
    "name": "아이숲유치원",
    "category": "어린이놀이시설",
    "type": "어린이놀이시설",
    "address": "경상남도 김해시 월산로 111-79 (부곡동)",
    "tel": "",
    "lat": 35.202998,
    "lng": 128.801825
  },
  {
    "name": "금동초등학교병설유치원 어린이놀이시설",
    "category": "어린이놀이시설",
    "type": "어린이놀이시설",
    "address": "경상남도 김해시 상동면 상동로 551-13",
    "tel": "",
    "lat": 35.30915,
    "lng": 128.930175
  },
  {
    "name": "김해부곡초등학교 어린이놀이시설",
    "category": "어린이놀이시설",
    "type": "어린이놀이시설",
    "address": "경상남도 김해시 월산로 139 (부곡동)",
    "tel": "",
    "lat": 35.206812,
    "lng": 128.799576
  },
  {
    "name": "김해부곡초등학교병설유치원 어린이놀이시설",
    "category": "어린이놀이시설",
    "type": "어린이놀이시설",
    "address": "경상남도 김해시 월산로 139 (부곡동)",
    "tel": "",
    "lat": 35.206812,
    "lng": 128.799576
  },
  {
    "name": "팔판마을3단지 e그린타운-3",
    "category": "어린이놀이시설",
    "type": "어린이놀이시설",
    "address": "경상남도 김해시 덕정로 68 (관동동, 팔판마을부영이그린타운3차아파트)",
    "tel": "",
    "lat": 35.178975,
    "lng": 128.792744
  },
  {
    "name": "팔판마을3단지  e그린타운-4",
    "category": "어린이놀이시설",
    "type": "어린이놀이시설",
    "address": "경상남도 김해시 덕정로 68 (관동동, 팔판마을부영이그린타운3차아파트)",
    "tel": "",
    "lat": 35.178975,
    "lng": 128.792744
  },
  {
    "name": "김해내외동아2차아파트 놀이터",
    "category": "어린이놀이시설",
    "type": "어린이놀이시설",
    "address": "경상남도 김해시 경원로55번길 9 (내동, 김해내외2차동아아파트)",
    "tel": "",
    "lat": 35.238148,
    "lng": 128.865542
  },
  {
    "name": "대동한마음아파트306동어린이놀이터",
    "category": "어린이놀이시설",
    "type": "어린이놀이시설",
    "address": "경상남도 김해시 함박로101번길 19 (외동, 대동한마음타운)",
    "tel": "",
    "lat": 35.234002,
    "lng": 128.864122
  },
  {
    "name": "대동한마음아파트309동어린이놀이터",
    "category": "어린이놀이시설",
    "type": "어린이놀이시설",
    "address": "경상남도 김해시 함박로101번길 19 (외동, 대동한마음타운)",
    "tel": "",
    "lat": 35.234002,
    "lng": 128.864122
  },
  {
    "name": "김해대우그린아파트(관리사무소앞)",
    "category": "어린이놀이시설",
    "type": "어린이놀이시설",
    "address": "경상남도 김해시 내외중앙로 123 (내동)",
    "tel": "",
    "lat": 35.241003,
    "lng": 128.868071
  },
  {
    "name": "한국아파트(1차)-214동 놀이시설",
    "category": "어린이놀이시설",
    "type": "어린이놀이시설",
    "address": "경상남도 김해시 함박로 122 (외동, 한국1차아파트)",
    "tel": "",
    "lat": 35.231304,
    "lng": 128.86731
  },
  {
    "name": "한일아파트-2",
    "category": "어린이놀이시설",
    "type": "어린이놀이시설",
    "address": "경상남도 김해시 삼안로111번길 12 (안동, 한일아파트)",
    "tel": "",
    "lat": 35.239113,
    "lng": 128.916086
  },
  {
    "name": "한일아파트-3",
    "category": "어린이놀이시설",
    "type": "어린이놀이시설",
    "address": "경상남도 김해시 삼안로111번길 12 (안동, 한일아파트)",
    "tel": "",
    "lat": 35.239123,
    "lng": 128.916036
  },
  {
    "name": "외동동성아파트",
    "category": "어린이놀이시설",
    "type": "어린이놀이시설",
    "address": "경상남도 김해시 평전로 33 (외동, 동성아파트)",
    "tel": "",
    "lat": 35.235431,
    "lng": 128.851717
  },
  {
    "name": "광남백조아파트어린이놀이터",
    "category": "어린이놀이시설",
    "type": "어린이놀이시설",
    "address": "경상남도 김해시 가락로 223 (구산동, 광남백조아파트)",
    "tel": "",
    "lat": 35.245225,
    "lng": 128.873868
  },
  {
    "name": "한솔빌리지아파트",
    "category": "어린이놀이시설",
    "type": "어린이놀이시설",
    "address": "경상남도 김해시 분성로 94-21 (외동, 김해한솔빌리지)",
    "tel": "",
    "lat": 35.229628,
    "lng": 128.858152
  },
  {
    "name": "팔판마을4단지 대우푸르지오 406동옆 놀이시설",
    "category": "어린이놀이시설",
    "type": "어린이놀이시설",
    "address": "경상남도 김해시 팔판로 93 (관동동, 팔판마을4단지푸르지오아파트)",
    "tel": "",
    "lat": 35.177021,
    "lng": 128.797752
  },
  {
    "name": "진영 휴먼시아 아파트(1단지) 어린이놀이터4 (103동-어린이집앞)",
    "category": "어린이놀이시설",
    "type": "어린이놀이시설",
    "address": "경상남도 김해시 진영읍 김해대로 462 (진영휴먼시아아파트)",
    "tel": "",
    "lat": 35.304818,
    "lng": 128.739418
  },
  {
    "name": "김해북부두산위브아파트2 (107동 놀이터)",
    "category": "어린이놀이시설",
    "type": "어린이놀이시설",
    "address": "경상남도 김해시 김해대로 1784-27 (삼계동, 김해북부두산위브아파트)",
    "tel": "",
    "lat": 35.265872,
    "lng": 128.86128
  },
  {
    "name": "모아미래도5단지 어린이놀이터-1",
    "category": "어린이놀이시설",
    "type": "어린이놀이시설",
    "address": "경상남도 김해시 율하2로 87 (율하동)",
    "tel": "",
    "lat": 0.0,
    "lng": 0.0
  },
  {
    "name": "모아미래도5단지 어린이놀이터-2",
    "category": "어린이놀이시설",
    "type": "어린이놀이시설",
    "address": "경상남도 김해시 율하2로 87 (율하동)",
    "tel": "",
    "lat": 0.0,
    "lng": 0.0
  },
  {
    "name": "김해가야초등학교 어린이놀이시설",
    "category": "어린이놀이시설",
    "type": "어린이놀이시설",
    "address": "경상남도 김해시 분성로3번길 45 (외동)",
    "tel": "",
    "lat": 35.236651,
    "lng": 128.851533
  },
  {
    "name": "장유유치원 어린이놀이시설",
    "category": "어린이놀이시설",
    "type": "어린이놀이시설",
    "address": "경상남도 김해시 수가로 271 (응달동)",
    "tel": "",
    "lat": 35.177851,
    "lng": 128.837399
  },
  {
    "name": "한일아파트-1",
    "category": "어린이놀이시설",
    "type": "어린이놀이시설",
    "address": "경상남도 김해시 삼안로111번길 12 (안동, 한일아파트)",
    "tel": "",
    "lat": 35.239123,
    "lng": 128.916036
  },
  {
    "name": "광남백조맨션(2동)(봉황백조2동)",
    "category": "어린이놀이시설",
    "type": "어린이놀이시설",
    "address": "경상남도 김해시 가야의길 92-18 (봉황동, 봉황백조아파트)",
    "tel": "",
    "lat": 35.233571,
    "lng": 128.873598
  },
  {
    "name": "한림초등학교병설유치원 어린이놀이시설",
    "category": "어린이놀이시설",
    "type": "어린이놀이시설",
    "address": "경상남도 김해시 한림면 한림로371번길 47",
    "tel": "",
    "lat": 35.324022,
    "lng": 128.79866
  },
  {
    "name": "골든루트 어린이공원",
    "category": "어린이놀이시설",
    "type": "어린이놀이시설",
    "address": null,
    "tel": "",
    "lat": 35.2143,
    "lng": 128.8329
  },
  {
    "name": "거북공원",
    "category": "어린이놀이시설",
    "type": "어린이놀이시설",
    "address": "경상남도 김해시 내외로 67 (내동)",
    "tel": "",
    "lat": 35.235208,
    "lng": 128.864573
  },
  {
    "name": "안명초등학교 어린이놀이시설",
    "category": "어린이놀이시설",
    "type": "어린이놀이시설",
    "address": "경상남도 김해시 한림면 안하로 28",
    "tel": "",
    "lat": 35.304576,
    "lng": 128.828645
  },
  {
    "name": "한일유앤아이2차아파트",
    "category": "어린이놀이시설",
    "type": "어린이놀이시설",
    "address": "경상남도 김해시 삼안로111번길 5 (안동, 한일유앤아이아파트)",
    "tel": "",
    "lat": 35.238163,
    "lng": 128.916336
  },
  {
    "name": "김해삼성초등학교병설유치원 어린이놀이시설(2)",
    "category": "어린이놀이시설",
    "type": "어린이놀이시설",
    "address": "경상남도 김해시 인제로51번길 42 (삼정동)",
    "tel": "",
    "lat": 35.233768,
    "lng": 128.899935
  },
  {
    "name": "또바기공원",
    "category": "어린이놀이시설",
    "type": "어린이놀이시설",
    "address": null,
    "tel": "",
    "lat": 35.19592,
    "lng": 128.808401
  },
  {
    "name": "관동초등학교 어린이놀이터",
    "category": "어린이놀이시설",
    "type": "어린이놀이시설",
    "address": "경상남도 김해시 율하3로 110 (관동동)",
    "tel": "",
    "lat": 35.177785,
    "lng": 128.816989
  },
  {
    "name": "백조아파트(서인백조골든타워)",
    "category": "어린이놀이시설",
    "type": "어린이놀이시설",
    "address": "경상남도 김해시 진례면 송현로 53",
    "tel": "",
    "lat": 35.248843,
    "lng": 128.754441
  },
  {
    "name": "진영죽곡세일아파트",
    "category": "어린이놀이시설",
    "type": "어린이놀이시설",
    "address": "경상남도 김해시 진영읍 서부로 190 (진영세일아파트)",
    "tel": "",
    "lat": 35.281644,
    "lng": 128.76833
  },
  {
    "name": "김해삼성초등학교 어린이놀이시설",
    "category": "어린이놀이시설",
    "type": "어린이놀이시설",
    "address": "경상남도 김해시 인제로51번길 42 (삼정동)",
    "tel": "",
    "lat": 35.233768,
    "lng": 128.899935
  },
  {
    "name": "갑오마을3단지 대동아파트(갑오대동아파트)",
    "category": "어린이놀이시설",
    "type": "어린이놀이시설",
    "address": "경상남도 김해시 계동로102번길 17-27 (대청동, 대동아파트)",
    "tel": "",
    "lat": 35.187161,
    "lng": 128.79629
  },
  {
    "name": "언더우드 어린이집",
    "category": "어린이놀이시설",
    "type": "어린이놀이시설",
    "address": "경상남도 김해시 진영읍 본산로125번길 10",
    "tel": "",
    "lat": 35.315809,
    "lng": 128.740595
  },
  {
    "name": "율현마을 동원로얄듀크 1003동 놀이터",
    "category": "어린이놀이시설",
    "type": "어린이놀이시설",
    "address": "경상남도 김해시 율하2로 125  (율하동, 율현마을 동원로얄듀크아파트 1차)",
    "tel": "",
    "lat": 35.169973,
    "lng": 128.815521
  },
  {
    "name": "율현마을 동원로얄듀크 1010동 놀이터",
    "category": "어린이놀이시설",
    "type": "어린이놀이시설",
    "address": "경상남도 김해시 율하2로 125  (율하동, 율현마을 동원로얄듀크아파트 1차)",
    "tel": "",
    "lat": 35.169832,
    "lng": 128.815564
  },
  {
    "name": "율현마을 동원로얄듀크 유아놀이터",
    "category": "어린이놀이시설",
    "type": "어린이놀이시설",
    "address": "경상남도 김해시 율하2로 125  (율하동, 율현마을 동원로얄듀크아파트 1차)",
    "tel": "",
    "lat": 35.169902,
    "lng": 128.815629
  },
  {
    "name": "명문버클리어린이집놀이터",
    "category": "어린이놀이시설",
    "type": "어린이놀이시설",
    "address": "경상남도 김해시 삼안로77번길 14-3 (안동)",
    "tel": "",
    "lat": 35.236993,
    "lng": 128.915752
  },
  {
    "name": "이진캐스빌2차아파트(옥상)",
    "category": "어린이놀이시설",
    "type": "어린이놀이시설",
    "address": "경상남도 김해시 분성로 26 (외동, 이진캐스빌2차아파트)",
    "tel": "",
    "lat": 35.232147,
    "lng": 128.850625
  },
  {
    "name": "이진캐스빌2차아파트(지상)",
    "category": "어린이놀이시설",
    "type": "어린이놀이시설",
    "address": "경상남도 김해시 분성로 26 (외동, 이진캐스빌2차아파트)",
    "tel": "",
    "lat": 35.232147,
    "lng": 128.850625
  },
  {
    "name": "양우내안애 101동 놀이터",
    "category": "어린이놀이시설",
    "type": "어린이놀이시설",
    "address": "경상남도 김해시 김해대로 1868 (삼계동, 양우내안애아파트)",
    "tel": "",
    "lat": 35.258446,
    "lng": 128.863897
  },
  {
    "name": "한림풀에버아파트 701동~702동옆 놀이시설",
    "category": "어린이놀이시설",
    "type": "어린이놀이시설",
    "address": "경상남도 김해시 율하3로 100 (관동동)",
    "tel": "",
    "lat": 35.177115,
    "lng": 128.819984
  },
  {
    "name": "한림풀에버아파트 710동~711동옆 놀이시설",
    "category": "어린이놀이시설",
    "type": "어린이놀이시설",
    "address": "경상남도 김해시 율하3로 100 (관동동)",
    "tel": "",
    "lat": 35.17694,
    "lng": 128.819686
  },
  {
    "name": "한림풀에버아파트 711동옆 놀이시설",
    "category": "어린이놀이시설",
    "type": "어린이놀이시설",
    "address": "경상남도 김해시 율하3로 100 (관동동)",
    "tel": "",
    "lat": 35.177323,
    "lng": 128.819362
  },
  {
    "name": "한림풀에버아파트 711동~712동옆 놀이시설",
    "category": "어린이놀이시설",
    "type": "어린이놀이시설",
    "address": "경상남도 김해시 율하3로 100 (관동동)",
    "tel": "",
    "lat": 35.177502,
    "lng": 128.819729
  },
  {
    "name": "한림풀에버아파트 715동옆 놀이시설",
    "category": "어린이놀이시설",
    "type": "어린이놀이시설",
    "address": "경상남도 김해시 율하3로 100 (관동동)",
    "tel": "",
    "lat": 35.177256,
    "lng": 128.819901
  },
  {
    "name": "이진캐스빌아파트 (1단지 104동)",
    "category": "어린이놀이시설",
    "type": "어린이놀이시설",
    "address": "경상남도 김해시 김해대로1902번길 88 (구산동, 구산 이진캐스빌1단지아파트)",
    "tel": "",
    "lat": 35.249111,
    "lng": 128.866474
  },
  {
    "name": "이진캐스빌아파트(1단지 107동~108동)",
    "category": "어린이놀이시설",
    "type": "어린이놀이시설",
    "address": "경상남도 김해시 김해대로1902번길 88 (구산동, 구산 이진캐스빌1단지아파트)",
    "tel": "",
    "lat": 35.249111,
    "lng": 128.866474
  },
  {
    "name": "이진캐스빌아파트(1단지 108동)",
    "category": "어린이놀이시설",
    "type": "어린이놀이시설",
    "address": "경상남도 김해시 김해대로1902번길 88 (구산동, 구산 이진캐스빌1단지아파트)",
    "tel": "",
    "lat": 35.249111,
    "lng": 128.866474
  },
  {
    "name": "이진캐스빌아파트(2단지 204동~205동)",
    "category": "어린이놀이시설",
    "type": "어린이놀이시설",
    "address": "경상남도 김해시 김해대로1902번길 62 (구산동, 구산 이진캐스빌2단지아파트)",
    "tel": "",
    "lat": 35.251797,
    "lng": 128.866315
  },
  {
    "name": "이진캐스빌아파트(2단지 208동~209동)",
    "category": "어린이놀이시설",
    "type": "어린이놀이시설",
    "address": "경상남도 김해시 김해대로1902번길 62 (구산동, 구산 이진캐스빌2단지아파트)",
    "tel": "",
    "lat": 35.251797,
    "lng": 128.866315
  },
  {
    "name": "이진캐스빌아파트(2단지 210동)",
    "category": "어린이놀이시설",
    "type": "어린이놀이시설",
    "address": "경상남도 김해시 김해대로1902번길 62 (구산동, 구산 이진캐스빌2단지아파트)",
    "tel": "",
    "lat": 35.251797,
    "lng": 128.866315
  },
  {
    "name": "삼계아이파크 103동 앞 놀이터",
    "category": "어린이놀이시설",
    "type": "어린이놀이시설",
    "address": "경상남도 김해시 김해대로 1870 (삼계동, 삼계아이파크)",
    "tel": "",
    "lat": 35.258913,
    "lng": 128.86456
  },
  {
    "name": "삼계아이파크 105동 앞 놀이터",
    "category": "어린이놀이시설",
    "type": "어린이놀이시설",
    "address": "경상남도 김해시 김해대로 1870 (삼계동, 삼계아이파크)",
    "tel": "",
    "lat": 35.258913,
    "lng": 128.86456
  },
  {
    "name": "구산아이파크 203동 앞 놀이터",
    "category": "어린이놀이시설",
    "type": "어린이놀이시설",
    "address": "경상남도 김해시 김해대로 1902 (구산동, 구산아이파크)",
    "tel": "",
    "lat": 35.256798,
    "lng": 128.865206
  },
  {
    "name": "김해 율하2차 모아미래도 아파트 어린이놀이터1",
    "category": "어린이놀이시설",
    "type": "어린이놀이시설",
    "address": "경상남도 김해시 율하1로 90 (율하동, 모아미래도2차아파트)",
    "tel": "",
    "lat": 35.17353,
    "lng": 128.813049
  },
  {
    "name": "김해 율하2차 모아미래도 아파트 어린이놀이터2",
    "category": "어린이놀이시설",
    "type": "어린이놀이시설",
    "address": "경상남도 김해시 율하1로 90 (율하동, 모아미래도2차아파트)",
    "tel": "",
    "lat": 35.17353,
    "lng": 128.813049
  },
  {
    "name": "누리마을감자탕 김해 외동점 실내놀이터",
    "category": "어린이놀이시설",
    "type": "어린이놀이시설",
    "address": "경상남도 김해시 내외중앙로 48 (외동)",
    "tel": "",
    "lat": 35.234153,
    "lng": 128.866936
  },
  {
    "name": "안명초등학교병설유치원 어린이놀이시설",
    "category": "어린이놀이시설",
    "type": "어린이놀이시설",
    "address": "경상남도 김해시 한림면 안하로 28",
    "tel": "",
    "lat": 35.304576,
    "lng": 128.828645
  },
  {
    "name": "e-편한세상아파트 실내놀이터(율하리 1405)",
    "category": "어린이놀이시설",
    "type": "어린이놀이시설",
    "address": "경상남도 김해시 율하2로 198 (율하동, 율현마을율하이편한세상)",
    "tel": "",
    "lat": 35.170987,
    "lng": 128.820549
  },
  {
    "name": "링컨어린이집 놀이시설",
    "category": "어린이놀이시설",
    "type": "어린이놀이시설",
    "address": "경상남도 김해시 삼계중앙로13번길 93(삼계동, 김해전국화물)",
    "tel": "",
    "lat": 35.267224,
    "lng": 128.86264
  },
  {
    "name": "김해율하동원로얄듀크2차아파트(죽림마을14단지)",
    "category": "어린이놀이시설",
    "type": "어린이놀이시설",
    "address": "경상남도 김해시 계동로 12(상가동)",
    "tel": "",
    "lat": 35.177584,
    "lng": 128.817986
  },
  {
    "name": "굿모닝어린이집 놀이시설",
    "category": "어린이놀이시설",
    "type": "어린이놀이시설",
    "address": "경상남도 김해시 김해대로 1938-17(구산동)",
    "tel": "",
    "lat": 35.254165,
    "lng": 128.866845
  },
  {
    "name": "e편한세상아파트 보육원앞1놀이터(율현마을2차)",
    "category": "어린이놀이시설",
    "type": "어린이놀이시설",
    "address": "경상남도 김해시 율하1로 130(율하동)",
    "tel": "",
    "lat": 35.171393,
    "lng": 128.816892
  },
  {
    "name": "e편한세상아파트 보육원앞 유아놀이터(율현마을2차)",
    "category": "어린이놀이시설",
    "type": "어린이놀이시설",
    "address": "경상남도 김해시 율하1로 130(율하동)",
    "tel": "",
    "lat": 35.171393,
    "lng": 128.816892
  },
  {
    "name": "e편한세상아파트 8동앞 놀이터3(율현마을2차)",
    "category": "어린이놀이시설",
    "type": "어린이놀이시설",
    "address": "경상남도 김해시 율하1로 130(율하동)",
    "tel": "",
    "lat": 35.171393,
    "lng": 128.816892
  },
  {
    "name": "일동미라주아파트 종달새놀이터",
    "category": "어린이놀이시설",
    "type": "어린이놀이시설",
    "address": "경상남도 김해시 김해대로1902번길 30 (구산동, 일동미라주)",
    "tel": "",
    "lat": 35.254711,
    "lng": 128.865155
  },
  {
    "name": "일동미라주아파트 숲속놀이터",
    "category": "어린이놀이시설",
    "type": "어린이놀이시설",
    "address": "경상남도 김해시 김해대로1902번길 30 (구산동, 일동미라주)",
    "tel": "",
    "lat": 35.254711,
    "lng": 128.865155
  },
  {
    "name": "일동미라주아파트 유아놀이터",
    "category": "어린이놀이시설",
    "type": "어린이놀이시설",
    "address": "경상남도 김해시 김해대로1902번길 30 (구산동, 일동미라주)",
    "tel": "",
    "lat": 35.254711,
    "lng": 128.865155
  },
  {
    "name": "바위공원",
    "category": "어린이놀이시설",
    "type": "어린이놀이시설",
    "address": "경상남도 김해시 내덕로 80(내덕동, 내덕중학교)",
    "tel": "",
    "lat": 35.20606,
    "lng": 128.816912
  },
  {
    "name": "e편한세상아파트 주민복지관 옆 놀이터2(율현마을2차)",
    "category": "어린이놀이시설",
    "type": "어린이놀이시설",
    "address": "경상남도 김해시 율하1로 130(율하동)",
    "tel": "",
    "lat": 35.171393,
    "lng": 128.816892
  },
  {
    "name": "마루애주상복합아파트 내 실외놀이터",
    "category": "어린이놀이시설",
    "type": "어린이놀이시설",
    "address": "경상남도 김해시 진영읍 진영로 273 (마루애아파트)",
    "tel": "",
    "lat": 35.302491,
    "lng": 128.742916
  },
  {
    "name": "구지마을 3단지 푸르지오 어린이놀이터 312동",
    "category": "어린이놀이시설",
    "type": "어린이놀이시설",
    "address": "경상남도 김해시 삼계로 35 (삼계동, 구지마을3단지푸르지오아파트)",
    "tel": "",
    "lat": 35.258699,
    "lng": 128.869128
  },
  {
    "name": "구지마을 3단지 푸르지오 어린이놀이터 307동",
    "category": "어린이놀이시설",
    "type": "어린이놀이시설",
    "address": "경상남도 김해시 삼계로 35 (삼계동, 구지마을3단지푸르지오아파트)",
    "tel": "",
    "lat": 35.258699,
    "lng": 128.869128
  },
  {
    "name": "구지마을 3단지 푸르지오 어린이놀이터 305동",
    "category": "어린이놀이시설",
    "type": "어린이놀이시설",
    "address": "경상남도 김해시 삼계로 35 (삼계동, 구지마을3단지푸르지오아파트)",
    "tel": "",
    "lat": 35.258699,
    "lng": 128.869128
  },
  {
    "name": "금산초등학교병설유치원 어린이놀이시설",
    "category": "어린이놀이시설",
    "type": "어린이놀이시설",
    "address": "경상남도 김해시 진영읍 하계로 3",
    "tel": "",
    "lat": 35.292291,
    "lng": 128.708345
  },
  {
    "name": "부원역 대우푸르지오아파트어린이놀이터1",
    "category": "어린이놀이시설",
    "type": "어린이놀이시설",
    "address": "경상남도 김해시 김해대로 2326 (부원동, 부원역 푸르지오아파트)",
    "tel": "",
    "lat": 35.224773,
    "lng": 128.883032
  },
  {
    "name": "부원역 대우푸르지오아파트어린이놀이터2",
    "category": "어린이놀이시설",
    "type": "어린이놀이시설",
    "address": "경상남도 김해시 김해대로 2326 (부원동, 부원역 푸르지오아파트)",
    "tel": "",
    "lat": 35.224766,
    "lng": 128.882946
  },
  {
    "name": "부원역 대우푸르지오아파트어린이놀이터3",
    "category": "어린이놀이시설",
    "type": "어린이놀이시설",
    "address": "경상남도 김해시 김해대로 2326 (부원동, 부원역 푸르지오아파트)",
    "tel": "",
    "lat": 35.224766,
    "lng": 128.882946
  },
  {
    "name": "부원역세권공원 놀이시설",
    "category": "어린이놀이시설",
    "type": "어린이놀이시설",
    "address": "경상남도 김해시 김해대로 2360 (부원동)",
    "tel": "",
    "lat": 35.226028,
    "lng": 128.885101
  },
  {
    "name": "숲속애어린이집",
    "category": "어린이놀이시설",
    "type": "어린이놀이시설",
    "address": "경상남도 김해시 장유로116번길 61 (부곡동)",
    "tel": "",
    "lat": 35.210061,
    "lng": 128.797447
  },
  {
    "name": "구산2주공아파트2놀이터",
    "category": "어린이놀이시설",
    "type": "어린이놀이시설",
    "address": "경상남도 김해시 가락로 242-20 (구산동, 구산제2주공아파트)",
    "tel": "",
    "lat": 35.246935,
    "lng": 128.876475
  },
  {
    "name": "예그린유치원 어린이놀이시설",
    "category": "어린이놀이시설",
    "type": "어린이놀이시설",
    "address": "경상남도 김해시 덕정로12번길 39-17 (관동동)",
    "tel": "",
    "lat": 35.177659,
    "lng": 128.790171
  },
  {
    "name": "한근두근 실내놀이시설",
    "category": "어린이놀이시설",
    "type": "어린이놀이시설",
    "address": "경상남도 김해시 분성로 518 (어방동)",
    "tel": "",
    "lat": 35.235257,
    "lng": 128.902375
  },
  {
    "name": "주촌수변공원 놀이시설",
    "category": "어린이놀이시설",
    "type": "어린이놀이시설",
    "address": "경상남도 김해시 주촌면 서부로1541번길 8",
    "tel": "",
    "lat": 35.236129,
    "lng": 128.821869
  },
  {
    "name": "e편한세상아파트 실내놀이시설(율현마을2차)",
    "category": "어린이놀이시설",
    "type": "어린이놀이시설",
    "address": "경상남도 김해시 율하1로 130 (율하동，율현마을 이편한세상)",
    "tel": "",
    "lat": 35.171393,
    "lng": 128.816892
  },
  {
    "name": "본가 김해점 실내놀이시설",
    "category": "어린이놀이시설",
    "type": "어린이놀이시설",
    "address": "경상남도 김해시 인제로 139 (어방동)",
    "tel": "",
    "lat": 35.24095,
    "lng": 128.903738
  },
  {
    "name": "삼계근린공원(분성산생태숲 어린이놀이터)",
    "category": "어린이놀이시설",
    "type": "어린이놀이시설",
    "address": "경상남도 김해시 삼계로 3 (삼계동)",
    "tel": "",
    "lat": 35.257072,
    "lng": 128.866453
  },
  {
    "name": "외식명가오립스 실내놀이시설",
    "category": "어린이놀이시설",
    "type": "어린이놀이시설",
    "address": "경상남도 김해시 김해대로1765번길 8 (삼계동)",
    "tel": "",
    "lat": 35.268761,
    "lng": 128.861481
  },
  {
    "name": "일동한신아파트 관리동뒤",
    "category": "어린이놀이시설",
    "type": "어린이놀이시설",
    "address": "경상남도 김해시 분성로 14 (외동, 일동한신아파트)",
    "tel": "",
    "lat": 35.231413,
    "lng": 128.848803
  },
  {
    "name": "일동한신아파트 124동옆",
    "category": "어린이놀이시설",
    "type": "어린이놀이시설",
    "address": "경상남도 김해시 분성로 14 (외동, 일동한신아파트)",
    "tel": "",
    "lat": 35.231413,
    "lng": 128.848803
  },
  {
    "name": "영림유치원 제2어린이놀이시설",
    "category": "어린이놀이시설",
    "type": "어린이놀이시설",
    "address": "경상남도 김해시 분성로 14-2 (외동)",
    "tel": "",
    "lat": 35.232118,
    "lng": 128.849495
  },
  {
    "name": "중앙어린이집 놀이시설",
    "category": "어린이놀이시설",
    "type": "어린이놀이시설",
    "address": "경상남도 김해시 흥동로 7 (풍유동)",
    "tel": "",
    "lat": 35.223349,
    "lng": 128.849818
  },
  {
    "name": "김해중앙교회 실내놀이시설",
    "category": "어린이놀이시설",
    "type": "어린이놀이시설",
    "address": "경상남도 김해시 흥동로 7 (풍유동)",
    "tel": "",
    "lat": 35.223349,
    "lng": 128.849818
  },
  {
    "name": "팔판마을 대우푸르지오 6단지 (602동)",
    "category": "어린이놀이시설",
    "type": "어린이놀이시설",
    "address": "경상남도 김해시 팔판로 71 (관동동, 팔판마을5단지푸르지오아파트)",
    "tel": "",
    "lat": 35.176947,
    "lng": 128.792135
  },
  {
    "name": "관동초등학교병설유치원 어린이놀이시설",
    "category": "어린이놀이시설",
    "type": "어린이놀이시설",
    "address": "경상남도 김해시 율하3로 110 (관동동)",
    "tel": "",
    "lat": 35.177785,
    "lng": 128.816989
  },
  {
    "name": "김해 기후변화테마공원 놀이시설",
    "category": "어린이놀이시설",
    "type": "어린이놀이시설",
    "address": "경상남도 김해시 대청로176번길 13 (대청동)",
    "tel": "",
    "lat": 35.191582,
    "lng": 128.797572
  },
  {
    "name": "색동어린이집 놀이시설",
    "category": "어린이놀이시설",
    "type": "어린이놀이시설",
    "address": "경상남도 김해시 활천로154번길 16 (어방동)",
    "tel": "",
    "lat": 35.238156,
    "lng": 128.90021
  },
  {
    "name": "경상남도교육청 유아교육원 김해체험분원 어린이놀이시설",
    "category": "어린이놀이시설",
    "type": "어린이놀이시설",
    "address": "경상남도 김해시 진례면 서부로860번길 5",
    "tel": "",
    "lat": 35.228009,
    "lng": 128.764009
  },
  {
    "name": "김해 가야역사테마파크 유아놀이터",
    "category": "어린이놀이시설",
    "type": "어린이놀이시설",
    "address": "경상남도 김해시 가야테마길 161 (어방동)",
    "tel": "",
    "lat": 35.251635,
    "lng": 128.893749
  },
  {
    "name": "김해 가야역사테마파크 어린이놀이터1",
    "category": "어린이놀이시설",
    "type": "어린이놀이시설",
    "address": "경상남도 김해시 가야테마길 161 (어방동)",
    "tel": "",
    "lat": 35.251635,
    "lng": 128.893749
  },
  {
    "name": "김해 가야역사테마파크 어린이놀이터2",
    "category": "어린이놀이시설",
    "type": "어린이놀이시설",
    "address": "경상남도 김해시 가야테마길 161 (어방동)",
    "tel": "",
    "lat": 35.251635,
    "lng": 128.893749
  },
  {
    "name": "사회복지법인 가람어린이집",
    "category": "어린이놀이시설",
    "type": "어린이놀이시설",
    "address": "경상남도 김해시 진영읍 김해대로332번길 62",
    "tel": "",
    "lat": 35.304856,
    "lng": 128.722139
  },
  {
    "name": "이진캐스빌아파트(1단지 실내놀이시설)",
    "category": "어린이놀이시설",
    "type": "어린이놀이시설",
    "address": "경상남도 김해시 김해대로1902번길 88 (구산동, 구산 이진캐스빌1단지아파트)",
    "tel": "",
    "lat": 35.249111,
    "lng": 128.866474
  },
  {
    "name": "김해 중흥에스클래스 3단지 유아놀이터",
    "category": "어린이놀이시설",
    "type": "어린이놀이시설",
    "address": "경상남도 김해시 진영읍 장등로 94 (중흥S클래스3단지아파트)",
    "tel": "",
    "lat": 35.313953,
    "lng": 128.731943
  },
  {
    "name": "김해 중흥에스클래스 3단지 어린이3놀이터",
    "category": "어린이놀이시설",
    "type": "어린이놀이시설",
    "address": "경상남도 김해시 진영읍 장등로 94 (중흥S클래스3단지아파트)",
    "tel": "",
    "lat": 35.313953,
    "lng": 128.731943
  },
  {
    "name": "김해 중흥에스클래스 3단지 어린이2놀이터",
    "category": "어린이놀이시설",
    "type": "어린이놀이시설",
    "address": "경상남도 김해시 진영읍 장등로 94 (중흥S클래스3단지아파트)",
    "tel": "",
    "lat": 35.313953,
    "lng": 128.731943
  },
  {
    "name": "김해 중흥에스클래스 3단지 어린이1놀이터",
    "category": "어린이놀이시설",
    "type": "어린이놀이시설",
    "address": "경상남도 김해시 진영읍 장등로 94 (중흥S클래스3단지아파트)",
    "tel": "",
    "lat": 35.313953,
    "lng": 128.731943
  },
  {
    "name": "이바돔감자탕 삼계점 실내놀이시설",
    "category": "어린이놀이시설",
    "type": "어린이놀이시설",
    "address": "경상남도 김해시 해반천로144번길 31 (삼계동)",
    "tel": "",
    "lat": 35.261496,
    "lng": 128.870752
  },
  {
    "name": "납작개공원 (1-2)지구 4호 어린이공원 놀이시설",
    "category": "어린이놀이시설",
    "type": "어린이놀이시설",
    "address": null,
    "tel": "",
    "lat": 0.0,
    "lng": 0.0
  },
  {
    "name": "야시골공원(7호 어린이공원)",
    "category": "어린이놀이시설",
    "type": "어린이놀이시설",
    "address": null,
    "tel": "",
    "lat": 0.0,
    "lng": 0.0
  },
  {
    "name": "동어지곡류(5호어린이) 놀이시설",
    "category": "어린이놀이시설",
    "type": "어린이놀이시설",
    "address": null,
    "tel": "",
    "lat": 0.0,
    "lng": 0.0
  },
  {
    "name": "정창골공원(3호어린이) 놀이시설",
    "category": "어린이놀이시설",
    "type": "어린이놀이시설",
    "address": null,
    "tel": "",
    "lat": 0.0,
    "lng": 0.0
  },
  {
    "name": "서재골공원(2호어린이) 놀이시설",
    "category": "어린이놀이시설",
    "type": "어린이놀이시설",
    "address": null,
    "tel": "",
    "lat": 0.0,
    "lng": 0.0
  },
  {
    "name": "용성공원(4호어린이) 놀이시설",
    "category": "어린이놀이시설",
    "type": "어린이놀이시설",
    "address": null,
    "tel": "",
    "lat": 0.0,
    "lng": 0.0
  },
  {
    "name": "진산어린이공원 놀이시설",
    "category": "어린이놀이시설",
    "type": "어린이놀이시설",
    "address": "경상남도 김해시 진영읍 장등로10번길 26",
    "tel": "",
    "lat": 35.309193,
    "lng": 128.735771
  },
  {
    "name": "오리방공원(6호어린이) 놀이시설",
    "category": "어린이놀이시설",
    "type": "어린이놀이시설",
    "address": null,
    "tel": "",
    "lat": 0.0,
    "lng": 0.0
  },
  {
    "name": "이선이 명품갈비",
    "category": "어린이놀이시설",
    "type": "어린이놀이시설",
    "address": "경상남도 김해시 전하로 258 (전하동)",
    "tel": "",
    "lat": 35.226634,
    "lng": 128.872922
  },
  {
    "name": "동문굿모닝힐1단지 놀이터1",
    "category": "어린이놀이시설",
    "type": "어린이놀이시설",
    "address": "경상남도 김해시 진영읍 진영산복로 20 (진영동문굿모닝힐)",
    "tel": "",
    "lat": 35.303168,
    "lng": 128.719763
  },
  {
    "name": "동문굿모닝힐1단지 놀이터2",
    "category": "어린이놀이시설",
    "type": "어린이놀이시설",
    "address": "경상남도 김해시 진영읍 진영산복로 20 (진영동문굿모닝힐)",
    "tel": "",
    "lat": 35.303168,
    "lng": 128.719763
  },
  {
    "name": "동문굿모닝힐1단지 유아놀이터",
    "category": "어린이놀이시설",
    "type": "어린이놀이시설",
    "address": "경상남도 김해시 진영읍 진영산복로 20 (진영동문굿모닝힐)",
    "tel": "",
    "lat": 35.303168,
    "lng": 128.719763
  },
  {
    "name": "동문굿모닝힐2단지 놀이터1",
    "category": "어린이놀이시설",
    "type": "어린이놀이시설",
    "address": "경상남도 김해시 진영읍 진영산복로 19 (진영2차동문굿모닝힐)",
    "tel": "",
    "lat": 35.304015,
    "lng": 128.720868
  },
  {
    "name": "동문굿모닝힐2단지 놀이터2",
    "category": "어린이놀이시설",
    "type": "어린이놀이시설",
    "address": "경상남도 김해시 진영읍 진영산복로 19 (진영2차동문굿모닝힐)",
    "tel": "",
    "lat": 35.304015,
    "lng": 128.720868
  },
  {
    "name": "경상남도교육청 유아교육원 김해체험분원 망원경 전망대",
    "category": "어린이놀이시설",
    "type": "어린이놀이시설",
    "address": "경상남도 김해시 진례면 서부로860번길 5",
    "tel": "",
    "lat": 35.228327,
    "lng": 128.763447
  },
  {
    "name": "아인유치원 어린이놀이시설",
    "category": "어린이놀이시설",
    "type": "어린이놀이시설",
    "address": "경상남도 김해시 관동로27번길 27-11 (관동동)",
    "tel": "",
    "lat": 35.178548,
    "lng": 128.808366
  },
  {
    "name": "진영유치원 어린이놀이시설",
    "category": "어린이놀이시설",
    "type": "어린이놀이시설",
    "address": "경상남도 김해시 진영읍 장등1로31번길 80-20",
    "tel": "",
    "lat": 35.315095,
    "lng": 128.738961
  },
  {
    "name": "스펀지창의유치원 어린이놀이시설",
    "category": "어린이놀이시설",
    "type": "어린이놀이시설",
    "address": "경상남도 김해시 관동로 27 (관동동)",
    "tel": "",
    "lat": 35.177325,
    "lng": 128.806412
  },
  {
    "name": "자연해나어린이집 별관 놀이터",
    "category": "어린이놀이시설",
    "type": "어린이놀이시설",
    "address": null,
    "tel": "",
    "lat": 0.0,
    "lng": 0.0
  },
  {
    "name": "숲속자연유치원 어린이놀이시설",
    "category": "어린이놀이시설",
    "type": "어린이놀이시설",
    "address": "경상남도 김해시 김해대로1902번길 14 (구산동)",
    "tel": "",
    "lat": 35.255717,
    "lng": 128.864729
  },
  {
    "name": "해뜨는어린이집",
    "category": "어린이놀이시설",
    "type": "어린이놀이시설",
    "address": "경상남도 김해시 장유로324번길 44-13 (무계동)",
    "tel": "",
    "lat": 35.197603,
    "lng": 128.811269
  },
  {
    "name": "진영 신우희가로아파트 102동~105동 사이 놀이시설",
    "category": "어린이놀이시설",
    "type": "어린이놀이시설",
    "address": "경상남도 김해시 진영읍 김해대로244번길 51-8",
    "tel": "",
    "lat": 35.304986,
    "lng": 128.719909
  },
  {
    "name": "진영 신우희가로아파트 101동~103동 사이 놀이시설",
    "category": "어린이놀이시설",
    "type": "어린이놀이시설",
    "address": "경상남도 김해시 진영읍 김해대로244번길 51-8",
    "tel": "",
    "lat": 35.304986,
    "lng": 128.719909
  },
  {
    "name": "구름송이공원 어린이놀이시설",
    "category": "어린이놀이시설",
    "type": "어린이놀이시설",
    "address": null,
    "tel": "",
    "lat": 35.2494,
    "lng": 128.8747
  },
  {
    "name": "국공립장유어린이집",
    "category": "어린이놀이시설",
    "type": "어린이놀이시설",
    "address": "경상남도 김해시 장유로334번길 66 (신문동)",
    "tel": "",
    "lat": 35.19323,
    "lng": 128.811012
  },
  {
    "name": "꼬마대통령 김해 어방점",
    "category": "어린이놀이시설",
    "type": "어린이놀이시설",
    "address": "경상남도 김해시 인제로170번길 7 (어방동)",
    "tel": "",
    "lat": 35.244076,
    "lng": 128.904867
  },
  {
    "name": "백운공원 어린이놀이터",
    "category": "어린이놀이시설",
    "type": "어린이놀이시설",
    "address": null,
    "tel": "",
    "lat": 35.2408,
    "lng": 128.8797
  },
  {
    "name": "둥지공원 어린이놀이터",
    "category": "어린이놀이시설",
    "type": "어린이놀이시설",
    "address": "경상남도 김해시 삼계중앙로13번길 59-18 (삼계동)",
    "tel": "",
    "lat": 35.264395,
    "lng": 128.86483
  },
  {
    "name": "매정공원 어린이놀이터",
    "category": "어린이놀이시설",
    "type": "어린이놀이시설",
    "address": "경상남도 김해시 삼계로 33 (삼계동)",
    "tel": "",
    "lat": 35.257587,
    "lng": 128.869763
  },
  {
    "name": "초롱별공원 어린이놀이터",
    "category": "어린이놀이시설",
    "type": "어린이놀이시설",
    "address": "경상남도 김해시 가야로 17 (삼계동)",
    "tel": "",
    "lat": 35.270328,
    "lng": 128.862446
  },
  {
    "name": "희망공원 어린이놀이터",
    "category": "어린이놀이시설",
    "type": "어린이놀이시설",
    "address": "경상남도 김해시 가야로169번길 5-14 (삼계동)",
    "tel": "",
    "lat": 35.263024,
    "lng": 128.872585
  },
  {
    "name": "베니주니키즈카페",
    "category": "어린이놀이시설",
    "type": "어린이놀이시설",
    "address": "경상남도 김해시 진영읍 김해대로361번길 16",
    "tel": "",
    "lat": 35.308227,
    "lng": 128.729896
  },
  {
    "name": "한림공원 어린이놀이시설",
    "category": "어린이놀이시설",
    "type": "어린이놀이시설",
    "address": null,
    "tel": "",
    "lat": 35.3252,
    "lng": 128.7908
  },
  {
    "name": "외동1단지공원 어린이놀이시설",
    "category": "어린이놀이시설",
    "type": "어린이놀이시설",
    "address": "경남 김해시 외동",
    "tel": "",
    "lat": 35.2336,
    "lng": 128.8595
  },
  {
    "name": "차밭공원 어린이놀이시설",
    "category": "어린이놀이시설",
    "type": "어린이놀이시설",
    "address": null,
    "tel": "",
    "lat": 35.236826,
    "lng": 128.883463
  },