[
  {
    "name": "장유전통시장(장유중앙시장)",
    "category": "전통시장",
    "type": "상설장+3일장",
    "address": "경상남도 김해시 장유로 287-22",
    "tel": "055-312-3830",
    "lat": 35.200563,
    "lng": 128.814812
  },
  {
    "name": "주촌축산물시장",
    "category": "전통시장",
    "type": "상설장",
    "address": "경상남도 김해시 주촌면 서부로1403번길 23-66",
    "tel": "055-324-0494",
    "lat": 35.226085,
    "lng": 128.812415
  },
  {
    "name": "진영전통시장",
    "category": "전통시장",
    "type": "상설장+4일장",
    "address": "경상남도 김해시 진영읍 진영산복로115번길 9",
    "tel": "055-343-6493",
    "lat": 35.302317,
    "lng": 128.730632
  },
  {
    "name": "진례전통시장",
    "category": "전통시장",
    "type": "5일장",
    "address": "경상남도 김해시 진례면 송현로 6",
    "tel": "",
    "lat": 35.248675,
    "lng": 128.748925
  },
  {
    "name": "외동전통시장",
    "category": "전통시장",
    "type": "상설장",
    "address": "경상남도 김해시 내외중앙로 33",
    "tel": "070-8825-5222",
    "lat": 35.232931,
    "lng": 128.866003
  },
  {
    "name": "삼방시장",
    "category": "전통시장",
    "type": "상설장",
    "address": "경상남도 김해시 삼안로 255",
    "tel": "055-336-0021",
    "lat": 35.250787,
    "lng": 128.909686
  },
  {
    "name": "김해전통시장(김해동상시장)",
    "category": "전통시장",
    "type": "상설장",
    "address": "경상남도 김해시 호계로 517번길 5-13",
    "tel": "055-336-4070",
    "lat": 35.236241,
    "lng": 128.883862
  }
]