[
  {
    "name": "밀양고용복지플러스센터",
    "category": "관공서",
    "type": "관공서",
    "address": "경상남도 밀양시 백민로 69",
    "tel": "055-350-2800",
    "lat": 35.498595,
    "lng": 128.746473
  },
  {
    "name": "밀양지서",
    "category": "관공서",
    "type": "관공서",
    "address": "경상남도 밀양시 중앙로 235",
    "tel": "055-359-0200",
    "lat": 35.484695,
    "lng": 128.75708
  },
  {
    "name": "밀양구치소",
    "category": "관공서",
    "type": "관공서",
    "address": "경상남도 밀양시 부북면 춘화로 124",
    "tel": "055-350-7700",
    "lat": 35.518003,
    "lng": 128.744168
  },
  {
    "name": "밀양지소",
    "category": "관공서",
    "type": "관공서",
    "address": "경상남도 밀양시 밀양대로 1856 (삼문동)",
    "tel": "055-356-8466",
    "lat": 35.489993,
    "lng": 128.747052
  },
  {
    "name": "밀양우체국",
    "category": "관공서",
    "type": "관공서",
    "address": "경상남도 밀양시 중앙로 84 (가곡동)",
    "tel": "055-350-3101",
    "lat": 35.474965,
    "lng": 128.768792
  },
  {
    "name": "밀양내이동우체국",
    "category": "관공서",
    "type": "관공서",
    "address": "경상남도 밀양시 약산로 53 (내이동)",
    "tel": "055-352-3650",
    "lat": 35.492947,
    "lng": 128.750811
  },
  {
    "name": "밀양삼문동우체국",
    "category": "관공서",
    "type": "관공서",
    "address": "경상남도 밀양시 삼문중앙로3길 48 (삼문동)",
    "tel": "055-353-0807",
    "lat": 35.486494,
    "lng": 128.75559
  },
  {
    "name": "밀양삼랑진우체국",
    "category": "관공서",
    "type": "관공서",
    "address": "경상남도 밀양시 삼랑진읍 천태로 11",
    "tel": "055-352-4000",
    "lat": 35.39732,
    "lng": 128.837932
  },
  {
    "name": "밀양하남우체국",
    "category": "관공서",
    "type": "관공서",
    "address": "경상남도 밀양시 하남읍 수산중앙로 52",
    "tel": "055-391-2000",
    "lat": 35.374915,
    "lng": 128.711063
  },
  {
    "name": "밀양무안우체국",
    "category": "관공서",
    "type": "관공서",
    "address": "경상남도 밀양시 무안면 사명로 511",
    "tel": "055-352-0001",
    "lat": 35.470304,
    "lng": 128.651769
  },
  {
    "name": "밀양단장우체국",
    "category": "관공서",
    "type": "관공서",
    "address": "경상남도 밀양시 단장면 표충로 355",
    "tel": "055-356-1001",
    "lat": 35.515239,
    "lng": 128.875434
  },
  {
    "name": "밀양산내우체국",
    "category": "관공서",
    "type": "관공서",
    "address": "경상남도 밀양시 산내면 산내로 352",
    "tel": "055-352-6000",
    "lat": 35.586395,
    "lng": 128.882018
  },
  {
    "name": "밀양산외우체국",
    "category": "관공서",
    "type": "관공서",
    "address": "경상남도 밀양시 산외면 산외로 702-1",
    "tel": "055-352-5000",
    "lat": 35.510888,
    "lng": 128.838944
  },
  {
    "name": "밀양상남우체국",
    "category": "관공서",
    "type": "관공서",
    "address": "경상남도 밀양시 상남면 평촌중앙로 34",
    "tel": "055-353-0002",
    "lat": 35.41133,
    "lng": 128.775218
  },
  {
    "name": "밀양초동우체국",
    "category": "관공서",
    "type": "관공서",
    "address": "경상남도 밀양시 초동면 초동로 304",
    "tel": "055-391-4000",
    "lat": 35.412326,
    "lng": 128.690006
  },
  {
    "name": "밀양부북우체국",
    "category": "관공서",
    "type": "관공서",
    "address": "경상남도 밀양시 부북면 부북로 41",
    "tel": "055-352-3900",
    "lat": 35.512112,
    "lng": 128.728705
  },
  {
    "name": "밀양상동우체국",
    "category": "관공서",
    "type": "관공서",
    "address": "경상남도 밀양시 상동면 상동로 596-1",
    "tel": "055-352-8000",
    "lat": 35.556103,
    "lng": 128.761933
  },
  {
    "name": "밀양청도우체국",
    "category": "관공서",
    "type": "관공서",
    "address": "경상남도 밀양시 청도면 청도로 106 ",
    "tel": "055-352-9000",
    "lat": 35.548819,
    "lng": 128.625212
  },
  {
    "name": "밀양밀성우편취급국",
    "category": "관공서",
    "type": "관공서",
    "address": "경상남도 밀양시 시청서길 23 (내이동)",
    "tel": "055-353-5767",
    "lat": 35.502033,
    "lng": 128.742895
  },
  {
    "name": "삼랑진임천우편취급국",
    "category": "관공서",
    "type": "관공서",
    "address": "경상남도 밀양시 삼랑진읍 임천2길 5",
    "tel": "055-353-2333",
    "lat": 35.453374,
    "lng": 128.797651
  },
  {
    "name": "밀양예림우편취급국",
    "category": "관공서",
    "type": "관공서",
    "address": "경상남도 밀양시 상남면 밀양대로 1527 (예림리)",
    "tel": "055-355-5768",
    "lat": 35.467442,
    "lng": 128.760461
  },
  {
    "name": "교문1동주민센터",
    "category": "관공서",
    "type": "관공서",
    "address": "경기도 구리시 경춘로 111 (교문동)",
    "tel": "031-550-2604",
    "lat": 35.421608,
    "lng": 128.672919
  },
  {
    "name": "밀양시청",
    "category": "관공서",
    "type": "관공서",
    "address": "경상남도 밀양시 밀양대로 2047 (교동)",
    "tel": "055-359-5114",
    "lat": 35.50383,
    "lng": 128.7467
  },
  {
    "name": "삼랑진읍행정복지센터",
    "category": "관공서",
    "type": "관공서",
    "address": "경상남도 밀양시 삼랑진읍 외송중앙길 6",
    "tel": "055-359-5801",
    "lat": 35.395875,
    "lng": 128.837681
  },
  {
    "name": "하남읍행정복지센터",
    "category": "관공서",
    "type": "관공서",
    "address": "경상남도 밀양시 하남읍 수산중앙로 53",
    "tel": "055-359-5802",
    "lat": 35.375326,
    "lng": 128.711082
  },
  {
    "name": "단장면행정복지센터",
    "category": "관공서",
    "type": "관공서",
    "address": "경상남도 밀양시 단장면 표충로 359",
    "tel": "055-359-5807",
    "lat": 35.51528,
    "lng": 128.875974
  },
  {
    "name": "무안면행정복지센터",
    "category": "관공서",
    "type": "관공서",
    "address": "경상남도 밀양시 무안면 동부1길 13",
    "tel": "055-359-5810",
    "lat": 35.470699,
    "lng": 128.651318
  },
  {
    "name": "부북면행정복지센터",
    "category": "관공서",
    "type": "관공서",
    "address": "경상남도 밀양시 부북면 부북로 28",
    "tel": "055-359-5803",
    "lat": 35.511205,
    "lng": 128.729753
  },
  {
    "name": "산내면행정복지센터",
    "category": "관공서",
    "type": "관공서",
    "address": "경상남도 밀양시 산내면 산내로 322",
    "tel": "055-359-5806",
    "lat": 35.584236,
    "lng": 128.880847
  },
  {
    "name": "산외면행정복지센터",
    "category": "관공서",
    "type": "관공서",
    "address": "경상남도 밀양시 산외면 산외로 427",
    "tel": "055-359-5805",
    "lat": 35.502663,
    "lng": 128.814913
  },
  {
    "name": "상남면행정복지센터",
    "category": "관공서",
    "type": "관공서",
    "address": "경상남도 밀양시 상남면 상남로 1031",
    "tel": "055-359-5808",
    "lat": 35.448384,
    "lng": 128.753529
  },
  {
    "name": "상동면행정복지센터",
    "category": "관공서",
    "type": "관공서",
    "address": "경상남도 밀양시 상동면 상동로 554",
    "tel": "055-359-5804",
    "lat": 35.552794,
    "lng": 128.763311
  },
  {
    "name": "청도면행정복지센터",
    "category": "관공서",
    "type": "관공서",
    "address": "경상남도 밀양시 청도면 청도로 100",
    "tel": "055-359-5811",
    "lat": 35.548907,
    "lng": 128.624472
  },
  {
    "name": "초동면행정복지센터",
    "category": "관공서",
    "type": "관공서",
    "address": "경상남도 밀양시 초동면 초동로 111",
    "tel": "055-359-5809",
    "lat": 35.421608,
    "lng": 128.672919
  },
  {
    "name": "가곡동행정복지센터",
    "category": "관공서",
    "type": "관공서",
    "address": "경상남도 밀양시 가곡14길 4 (가곡동)",
    "tel": "055-359-5816",
    "lat": 35.478756,
    "lng": 128.76458
  },
  {
    "name": "교동행정복지센터",
    "category": "관공서",
    "type": "관공서",
    "address": "경상남도 밀양시 교동로 189 (교동)",
    "tel": "055-359-5814",
    "lat": 35.510974,
    "lng": 128.757134
  },
  {
    "name": "내이동행정복지센터",
    "category": "관공서",
    "type": "관공서",
    "address": "경상남도 밀양시 중앙로 425~4 (내이동)",
    "tel": "055-359-5813",
    "lat": 35.4971,
    "lng": 128.746184
  },
  {
    "name": "내일동행정복지센터",
    "category": "관공서",
    "type": "관공서",
    "address": "경상남도 밀양시 중앙로 346 (내일동)",
    "tel": "055-359-5812",
    "lat": 35.493706,
    "lng": 128.754246
  },
  {
    "name": "삼문동행정복지센터",
    "category": "관공서",
    "type": "관공서",
    "address": "경상남도 밀양시 밀양대로 1764 (삼문동)",
    "tel": "055-359-5815",
    "lat": 35.48316,
    "lng": 128.753091
  },
  {
    "name": "농업기술센터",
    "category": "관공서",
    "type": "관공서",
    "address": "경상남도 밀양시 상남면 상남로 1008-19",
    "tel": "055-359-7114",
    "lat": 35.44655,
    "lng": 128.757279
  },
  {
    "name": "시립도서관",
    "category": "관공서",
    "type": "관공서",
    "address": "경상남도 밀양시 중앙로 265 (삼문동)",
    "tel": "055-359-6036",
    "lat": 35.486783,
    "lng": 128.75487
  },
  {
    "name": "보건소",
    "category": "관공서",
    "type": "관공서",
    "address": "경상남도 밀양시 삼문중앙로 41 (삼문동)",
    "tel": "055-359-7020",
    "lat": 35.485656,
    "lng": 128.756025
  },
  {
    "name": "예천군청",
    "category": "관공서",
    "type": "관공서",
    "address": "경상북도 예천군 예천읍 충효로 111 (대심리 353)",
    "tel": "054-654-3801",
    "lat": 35.421608,
    "lng": 128.672919
  },
  {
    "name": "옥토넛 키즈카페 밀양점",
    "category": "어린이놀이시설",
    "type": "어린이놀이시설",
    "address": "경남 밀양시 밀양대로 1986",
    "tel": "",
    "lat": 35.500698,
    "lng": 128.741991
  },
  {
    "name": "밀양부북 공동주택지구 어린이놀이시설(오르락내리락 놀이터)",
    "category": "어린이놀이시설",
    "type": "어린이놀이시설",
    "address": "경상남도 밀양시 부북면 전사포리 575-1",
    "tel": "",
    "lat": 35.475558,
    "lng": 128.732879
  },
  {
    "name": "새경웰러스 107동앞 놀이터",
    "category": "어린이놀이시설",
    "type": "어린이놀이시설",
    "address": "경남 밀양시 미리벌로2길 47",
    "tel": "",
    "lat": 35.48416,
    "lng": 128.7452
  },
  {
    "name": "밀양시 내이3지구 어린이놀이터",
    "category": "어린이놀이시설",
    "type": "어린이놀이시설",
    "address": "경남 밀양시 남천강변로2길 22",
    "tel": "",
    "lat": 35.492441,
    "lng": 128.748715
  },
  {
    "name": "네이처에코리움(물놀이체험시설)",
    "category": "어린이놀이시설",
    "type": "어린이놀이시설",
    "address": "경남 밀양시 단장면 관광단지로 77",
    "tel": "",
    "lat": 35.502148,
    "lng": 128.832091
  },
  {
    "name": "네이처에코리움(실내놀이시설)",
    "category": "어린이놀이시설",
    "type": "어린이놀이시설",
    "address": "경남 밀양시 단장면 관광단지로 77",
    "tel": "",
    "lat": 35.50206,
    "lng": 128.833001
  },
  {
    "name": "네이처에코리움(활동체험시설)",
    "category": "어린이놀이시설",
    "type": "어린이놀이시설",
    "address": "경남 밀양시 단장면 관광단지로 77",
    "tel": "",
    "lat": 35.502006,
    "lng": 128.832541
  },
  {
    "name": "네이처에코리움(모험체험시설)",
    "category": "어린이놀이시설",
    "type": "어린이놀이시설",
    "address": "경남 밀양시 단장면 관광단지로 77",
    "tel": "",
    "lat": 35.502148,
    "lng": 128.832091
  },
  {
    "name": "밀양초등학교 생태놀이터",
    "category": "어린이놀이시설",
    "type": "어린이놀이시설",
    "address": "경남 밀양시 중앙로 282-12",
    "tel": "",
    "lat": 35.489319,
    "lng": 128.755972
  },
  {
    "name": "밀양초등학교 어린이놀이터",
    "category": "어린이놀이시설",
    "type": "어린이놀이시설",
    "address": "경남 밀양시 중앙로 282-12",
    "tel": "",
    "lat": 35.489319,
    "lng": 128.755972
  },
  {
    "name": "밀양 나노융합 국가산업단지 5-8근린공원",
    "category": "어린이놀이시설",
    "type": "어린이놀이시설",
    "address": "경상남도 밀양시 부북면 감천리 630-55",
    "tel": "",
    "lat": 35.495726,
    "lng": 128.73706
  },
  {
    "name": "밀양기상과학관",
    "category": "어린이놀이시설",
    "type": "어린이놀이시설",
    "address": "경남 밀양시 밀양대공원로 84",
    "tel": "",
    "lat": 35.502144,
    "lng": 128.760634
  },
  {
    "name": "삼문동 제7어린이공원",
    "category": "어린이놀이시설",
    "type": "어린이놀이시설",
    "address": "경남 밀양시 미리벌로2길 11",
    "tel": "",
    "lat": 35.481773,
    "lng": 128.747859
  },
  {
    "name": "보람어린이집 놀이터",
    "category": "어린이놀이시설",
    "type": "어린이놀이시설",
    "address": "경상남도 밀양시 삼랑진읍 거족길 29",
    "tel": "",
    "lat": 35.396026,
    "lng": 128.806513
  },
  {
    "name": "아가페어린이집 실외놀이터",
    "category": "어린이놀이시설",
    "type": "어린이놀이시설",
    "address": "경상남도 밀양시 부북면 송포로 101-5",
    "tel": "",
    "lat": 35.475817,
    "lng": 128.726367
  },
  {
    "name": "무안초등학교 어린이 놀이시설",
    "category": "어린이놀이시설",
    "type": "어린이놀이시설",
    "address": "경상남도 밀양시 무안면 사명로 531",
    "tel": "",
    "lat": 35.472888,
    "lng": 128.651214
  },
  {
    "name": "밀양삼문휴먼시아아파트 어린이놀이터2",
    "category": "어린이놀이시설",
    "type": "어린이놀이시설",
    "address": "경상남도 밀양시 미리벌중앙로 35 (삼문동, 삼문휴먼시아아파트)",
    "tel": "",
    "lat": 35.480233,
    "lng": 128.750401
  },
  {
    "name": "해와달어린이집 놀이터",
    "category": "어린이놀이시설",
    "type": "어린이놀이시설",
    "address": "경상남도 밀양시 부북면 춘화로 45",
    "tel": "",
    "lat": 35.508239,
    "lng": 128.745923
  },
  {
    "name": "밀양가곡 주공아파트 101동 앞 놀이터",
    "category": "어린이놀이시설",
    "type": "어린이놀이시설",
    "address": "경상남도 밀양시 중앙로 47 (가곡동)",
    "tel": "",
    "lat": 35.472307,
    "lng": 128.771865
  },
  {
    "name": "밀양가곡 주공아파트 102동 앞 놀이터",
    "category": "어린이놀이시설",
    "type": "어린이놀이시설",
    "address": "경상남도 밀양시 중앙로 47 (가곡동)",
    "tel": "",
    "lat": 35.472307,
    "lng": 128.771865
  },
  {
    "name": "밀양가곡 주공아파트 103동 앞 놀이터",
    "category": "어린이놀이시설",
    "type": "어린이놀이시설",
    "address": "경상남도 밀양시 중앙로 47 (가곡동)",
    "tel": "",
    "lat": 35.472307,
    "lng": 128.771865
  },
  {
    "name": "예임통통어린이집 놀이터",
    "category": "어린이놀이시설",
    "type": "어린이놀이시설",
    "address": "경상남도 밀양시 밀양향교1길 4 (교동)",
    "tel": "",
    "lat": 35.504211,
    "lng": 128.75341
  },
  {
    "name": "밀양삼문휴먼시아아파트 어린이놀이터1",
    "category": "어린이놀이시설",
    "type": "어린이놀이시설",
    "address": "경상남도 밀양시 미리벌중앙로 35 (삼문동, 삼문휴먼시아아파트)",
    "tel": "",
    "lat": 35.480233,
    "lng": 128.750401
  },
  {
    "name": "파란하늘 어린이집",
    "category": "어린이놀이시설",
    "type": "어린이놀이시설",
    "address": "경상남도 밀양시 하남읍 수산동촌3길 4",
    "tel": "",
    "lat": 35.3704,
    "lng": 128.7248
  },
  {
    "name": "하남어린이놀이터",
    "category": "어린이놀이시설",
    "type": "어린이놀이시설",
    "address": "경상남도 밀양시 하남읍 수산동촌4길 9-3 (백산아파트)",
    "tel": "",
    "lat": 35.376672,
    "lng": 128.711009
  },
  {
    "name": "하남어린이집 놀이터",
    "category": "어린이놀이시설",
    "type": "어린이놀이시설",
    "address": "경상남도 밀양시 하남읍 대평4길 41",
    "tel": "",
    "lat": 35.3704,
    "lng": 128.7248
  },
  {
    "name": "대동아파트 101동앞 어린이 놀이시설",
    "category": "어린이놀이시설",
    "type": "어린이놀이시설",
    "address": "경상남도 밀양시 상남면 상남로 1187-5",
    "tel": "",
    "lat": 35.461465,
    "lng": 128.752177
  },
  {
    "name": "기산택지 제1 어린이놀이터",
    "category": "어린이놀이시설",
    "type": "어린이놀이시설",
    "address": "경상남도 밀양시 상남면 고노실길 45",
    "tel": "",
    "lat": 35.457184,
    "lng": 128.75042
  },
  {
    "name": "기산택지 제2 어린이놀이터",
    "category": "어린이놀이시설",
    "type": "어린이놀이시설",
    "address": "경상남도 밀양시 상남면 고노실길 22",
    "tel": "",
    "lat": 35.458722,
    "lng": 128.749656
  },
  {
    "name": "코끼리어린이집 놀이터",
    "category": "어린이놀이시설",
    "type": "어린이놀이시설",
    "address": "경상남도 밀양시 상남면 고노실중앙길 41",
    "tel": "",
    "lat": 35.459237,
    "lng": 128.75107
  },
  {
    "name": "한사랑어린이집 놀이터",
    "category": "어린이놀이시설",
    "type": "어린이놀이시설",
    "address": "경상남도 밀양시 상남면 상남로 1088-8",
    "tel": "",
    "lat": 35.4512,
    "lng": 128.7544
  },
  {
    "name": "밀신어린이집",
    "category": "어린이놀이시설",
    "type": "어린이놀이시설",
    "address": "경상남도 밀양시 무안면 무안로 411-3",
    "tel": "",
    "lat": 35.4856,
    "lng": 128.6967
  },
  {
    "name": "사명어린이집",
    "category": "어린이놀이시설",
    "type": "어린이놀이시설",
    "address": "경상남도 밀양시 용평로 63 (용평동)",
    "tel": "",
    "lat": 35.4924,
    "lng": 128.7707
  },
  {
    "name": "무안서부어린이놀이터",
    "category": "어린이놀이시설",
    "type": "어린이놀이시설",
    "address": "경상남도 밀양시 무안면 문화중앙길 18-1",
    "tel": "",
    "lat": 35.467602,
    "lng": 128.64967
  },
  {
    "name": "내이동 제1어린이공원 놀이터",
    "category": "어린이놀이시설",
    "type": "어린이놀이시설",
    "address": "경상남도 밀양시 북성로2길 15-18 (내이동)",
    "tel": "",
    "lat": 35.499577,
    "lng": 128.743271
  },
  {
    "name": "내이동 제2 어린이 놀이터",
    "category": "어린이놀이시설",
    "type": "어린이놀이시설",
    "address": "경상남도 밀양시 북성로1길 15-5 (내이동)",
    "tel": "",
    "lat": 35.497021,
    "lng": 128.744232
  },
  {
    "name": "내이동 제8어린이공원 놀이터",
    "category": "어린이놀이시설",
    "type": "어린이놀이시설",
    "address": "경상남도 밀양시 창밀로 3569-4 (내이동)",
    "tel": "",
    "lat": 35.50439,
    "lng": 128.739105
  },
  {
    "name": "내이동 제9 어린이 놀이터",
    "category": "어린이놀이시설",
    "type": "어린이놀이시설",
    "address": "경상남도 밀양시 시청서3길 8 (내이동)",
    "tel": "",
    "lat": 35.502664,
    "lng": 128.742097
  },
  {
    "name": "내이동 제4 어린이 놀이터",
    "category": "어린이놀이시설",
    "type": "어린이놀이시설",
    "address": "경상남도 밀양시 시청로1길 18-20 (내이동)",
    "tel": "",
    "lat": 35.504239,
    "lng": 128.743332
  },
  {
    "name": "내이동 제5어린이공원 놀이터",
    "category": "어린이놀이시설",
    "type": "어린이놀이시설",
    "address": "경상남도 밀양시 터미널2길 15 (내이동)",
    "tel": "",
    "lat": 35.50089,
    "lng": 128.745063
  },
  {
    "name": "내이동 제6 어린이 놀이터",
    "category": "어린이놀이시설",
    "type": "어린이놀이시설",
    "address": "경상남도 밀양시 북성동길 13 (내이동)",
    "tel": "",
    "lat": 35.500656,
    "lng": 128.748184
  },
  {
    "name": "내이동 제7 어린이공원 놀이터",
    "category": "어린이놀이시설",
    "type": "어린이놀이시설",
    "address": "경상남도 밀양시 하송정3길 1 (내이동)",
    "tel": "",
    "lat": 35.497164,
    "lng": 128.747381
  },
  {
    "name": "교동 제2어린이놀이터",
    "category": "어린이놀이시설",
    "type": "어린이놀이시설",
    "address": "경상남도 밀양시 교동로5길 15 (교동)",
    "tel": "",
    "lat": 35.510893,
    "lng": 128.755929
  },
  {
    "name": "교동 제1어린이 놀이터",
    "category": "어린이놀이시설",
    "type": "어린이놀이시설",
    "address": "경상남도 밀양시 교동로3길 21 (교동)",
    "tel": "",
    "lat": 35.507609,
    "lng": 128.753568
  },
  {
    "name": "춘복타워맨션",
    "category": "어린이놀이시설",
    "type": "어린이놀이시설",
    "address": "경상남도 밀양시 교동로4길 3-1 (교동)",
    "tel": "",
    "lat": 35.51243,
    "lng": 128.755433
  },
  {
    "name": "한마음아파트 103동~104동 놀이시설",
    "category": "어린이놀이시설",
    "type": "어린이놀이시설",
    "address": "경상남도 밀양시 교동로5길 18 (교동, 한마음타운)",
    "tel": "",
    "lat": 35.509486,
    "lng": 128.756264
  },
  {
    "name": "목화타워맨션",
    "category": "어린이놀이시설",
    "type": "어린이놀이시설",
    "address": "경상남도 밀양시 교동로 93 (교동)",
    "tel": "",
    "lat": 35.510176,
    "lng": 128.753736
  },
  {
    "name": "우신그린피아 101동옆 놀이시설",
    "category": "어린이놀이시설",
    "type": "어린이놀이시설",
    "address": "경상남도 밀양시 교동로 76 (교동, 우신그린피아)",
    "tel": "",
    "lat": 35.510091,
    "lng": 128.753184
  },
  {
    "name": "밀양아리랑대공원 큰 놀이터",
    "category": "어린이놀이시설",
    "type": "어린이놀이시설",
    "address": "경상남도 밀양시 밀양대공원로 112 (교동)",
    "tel": "",
    "lat": 35.504336,
    "lng": 128.758472
  },
  {
    "name": "밀양아리랑대공원 작은 놀이터",
    "category": "어린이놀이시설",
    "type": "어린이놀이시설",
    "address": "경상남도 밀양시 밀양대공원로 112 (교동)",
    "tel": "",
    "lat": 35.504336,
    "lng": 128.758472
  },
  {
    "name": "우영타워 어린이 놀이시설",
    "category": "어린이놀이시설",
    "type": "어린이놀이시설",
    "address": "경상남도 밀양시 가곡벚꽃길 63 (가곡동, 우영타워아파트)",
    "tel": "",
    "lat": 35.475526,
    "lng": 128.762151
  },
  {
    "name": "삼강그린아파트 놀이시설",
    "category": "어린이놀이시설",
    "type": "어린이놀이시설",
    "address": "경상남도 밀양시 중앙로 149-1 (가곡동, 삼강그린)",
    "tel": "",
    "lat": 35.478908,
    "lng": 128.763066
  },
  {
    "name": "경남아파트 놀이시설",
    "category": "어린이놀이시설",
    "type": "어린이놀이시설",
    "address": "경상남도 밀양시 가곡7길 23 (가곡동, 경남아파트)",
    "tel": "",
    "lat": 35.47312,
    "lng": 128.766367
  },
  {
    "name": "부전아파트 놀이시설",
    "category": "어린이놀이시설",
    "type": "어린이놀이시설",
    "address": "경상남도 밀양시 가곡벚꽃길 7 (가곡동, 부전타워)",
    "tel": "",
    "lat": 35.479689,
    "lng": 128.76203
  },
  {
    "name": "현대아파트 어린이놀이터",
    "category": "어린이놀이시설",
    "type": "어린이놀이시설",
    "address": "경상남도 밀양시 시청로2길 6 (내이동, 내이현대아파트)",
    "tel": "",
    "lat": 35.505569,
    "lng": 128.740558
  },
  {
    "name": "신촌부민그린타워 어린이놀이터",
    "category": "어린이놀이시설",
    "type": "어린이놀이시설",
    "address": "경상남도 밀양시 창밀로 3566-8 (내이동)",
    "tel": "",
    "lat": 35.503457,
    "lng": 128.737218
  },
  {
    "name": "롯데인벤스 어린이놀이터",
    "category": "어린이놀이시설",
    "type": "어린이놀이시설",
    "address": "경상남도 밀양시 점필재로 65 (내이동)",
    "tel": "",
    "lat": 35.497101,
    "lng": 128.746163
  },
  {
    "name": "제일어린이집",
    "category": "어린이놀이시설",
    "type": "어린이놀이시설",
    "address": "경상남도 밀양시 삼문2길 14 (삼문동)",
    "tel": "",
    "lat": 35.487154,
    "lng": 128.751128
  },
  {
    "name": "해맑은어린이집",
    "category": "어린이놀이시설",
    "type": "어린이놀이시설",
    "address": "경상남도 밀양시 미리벌중앙로1길 12-13 (삼문동)",
    "tel": "",
    "lat": 35.482186,
    "lng": 128.748325
  },
  {
    "name": "밀양 대우아파트",
    "category": "어린이놀이시설",
    "type": "어린이놀이시설",
    "address": "경상남도 밀양시 중앙로 234-17 (삼문동, 밀양대우아파트)",
    "tel": "",
    "lat": 35.48508,
    "lng": 128.76021
  },
  {
    "name": "밀양 삼문 푸르지오 꽃담 놀이터",
    "category": "어린이놀이시설",
    "type": "어린이놀이시설",
    "address": "경상남도 밀양시 미리벌중앙로3길 47 (삼문동)",
    "tel": "",
    "lat": 35.480226,
    "lng": 128.745616
  },
  {
    "name": "제일훼미리",
    "category": "어린이놀이시설",
    "type": "어린이놀이시설",
    "address": "경상남도 밀양시 밀양대로 1755 (삼문동, 제일훼미리타운)",
    "tel": "",
    "lat": 35.481476,
    "lng": 128.752363
  },
  {
    "name": "유성청구아파트 어린이놀이터",
    "category": "어린이놀이시설",
    "type": "어린이놀이시설",
    "address": "경상남도 밀양시 중앙로 238-8 (삼문동，유성청구타운)",
    "tel": "",
    "lat": 35.486447,
    "lng": 128.758789
  },
  {
    "name": "유성청구2차아파트",
    "category": "어린이놀이시설",
    "type": "어린이놀이시설",
    "address": "경상남도 밀양시 중앙로 238-8 (삼문동, 유성청구타운)",
    "tel": "",
    "lat": 35.486447,
    "lng": 128.758789
  },
  {
    "name": "세광맨션",
    "category": "어린이놀이시설",
    "type": "어린이놀이시설",
    "address": "경상남도 밀양시 삼문2길 3 (삼문동, 세광맨션)",
    "tel": "",
    "lat": 35.486844,
    "lng": 128.750072
  },
  {
    "name": "성조에이스아파트",
    "category": "어린이놀이시설",
    "type": "어린이놀이시설",
    "address": "경상남도 밀양시 삼문강변로 58 (삼문동)",
    "tel": "",
    "lat": 35.481729,
    "lng": 128.748685
  },
  {
    "name": "코아루아파트 102동 놀이터",
    "category": "어린이놀이시설",
    "type": "어린이놀이시설",
    "address": "경상남도 밀양시 미리벌로3길 45 (삼문동)",
    "tel": "",
    "lat": 35.481729,
    "lng": 128.748685
  },
  {
    "name": "유한강변 어린이놀이터",
    "category": "어린이놀이시설",
    "type": "어린이놀이시설",
    "address": "경상남도 밀양시 삼문강변로 60 (삼문동，유한강변타운)",
    "tel": "",
    "lat": 35.479151,
    "lng": 128.755913
  },
  {
    "name": "삼문 주공 아파트1",
    "category": "어린이놀이시설",
    "type": "어린이놀이시설",
    "address": "경상남도 밀양시 밀양대로 1783-8 (삼문동)",
    "tel": "",
    "lat": 35.484158,
    "lng": 128.749883
  },
  {
    "name": "부북초등학교 어린이 놀이시설",
    "category": "어린이놀이시설",
    "type": "어린이놀이시설",
    "address": "경상남도 밀양시 부북면 운전2길 22",
    "tel": "",
    "lat": 35.514869,
    "lng": 128.730163
  },
  {
    "name": "사포초등학교 어린이 놀이시설",
    "category": "어린이놀이시설",
    "type": "어린이놀이시설",
    "address": "경상남도 밀양시 부북면 예림서원로 18-3",
    "tel": "",
    "lat": 35.475079,
    "lng": 128.733637
  },
  {
    "name": "산내남명초등학교 어린이 놀이시설",
    "category": "어린이놀이시설",
    "type": "어린이놀이시설",
    "address": "경상남도 밀양시 산내면 산내로 1143",
    "tel": "",
    "lat": 35.588093,
    "lng": 128.953739
  },
  {
    "name": "산내초등학교 어린이 놀이시설",
    "category": "어린이놀이시설",
    "type": "어린이놀이시설",
    "address": "경상남도 밀양시 산내면 산내로 335",
    "tel": "",
    "lat": 35.585979,
    "lng": 128.880471
  },
  {
    "name": "산동초등학교 어린이 놀이시설",
    "category": "어린이놀이시설",
    "type": "어린이놀이시설",
    "address": "경상남도 밀양시 단장면 표충로 889-6",
    "tel": "",
    "lat": 35.525634,
    "lng": 128.912032
  },
  {
    "name": "산외초등학교 어린이 놀이시설",
    "category": "어린이놀이시설",
    "type": "어린이놀이시설",
    "address": "경상남도 밀양시 산외면 금곡2길 6",
    "tel": "",
    "lat": 35.503216,
    "lng": 128.796186
  },
  {
    "name": "삼랑진초등학교 어린이 놀이시설",
    "category": "어린이놀이시설",
    "type": "어린이놀이시설",
    "address": "경상남도 밀양시 삼랑진읍 만어로 11",
    "tel": "",
    "lat": 35.401184,
    "lng": 128.841149
  },
  {
    "name": "상남초등학교 어린이 놀이시설",
    "category": "어린이놀이시설",
    "type": "어린이놀이시설",
    "address": "경상남도 밀양시 상남면 상남인산길 11",
    "tel": "",
    "lat": 35.394055,
    "lng": 128.776425
  },
  {
    "name": "송진초등학교 어린이 놀이시설",
    "category": "어린이놀이시설",
    "type": "어린이놀이시설",
    "address": "경상남도 밀양시 삼랑진읍 삼랑진로 206",
    "tel": "",
    "lat": 35.395399,
    "lng": 128.837117
  },
  {
    "name": "수산초등학교 어린이놀이시설",
    "category": "어린이놀이시설",
    "type": "어린이놀이시설",
    "address": "경상남도 밀양시 하남읍 수산중앙로 59",
    "tel": "",
    "lat": 35.376106,
    "lng": 128.71168
  },
  {
    "name": "예림초등학교 병설유치원 놀이터",
    "category": "어린이놀이시설",
    "type": "어린이놀이시설",
    "address": "경상남도 밀양시 상남면 밀양대로 1524",
    "tel": "",
    "lat": 35.464616,
    "lng": 128.765232
  },
  {
    "name": "청도초등학교 어린이 놀이시설",
    "category": "어린이놀이시설",
    "type": "어린이놀이시설",
    "address": "경상남도 밀양시 청도면 두곡4길 13",
    "tel": "",
    "lat": 35.551433,
    "lng": 128.623988
  },
  {
    "name": "초동초등학교 어린이 놀이시설",
    "category": "어린이놀이시설",
    "type": "어린이놀이시설",
    "address": "경상남도 밀양시 초동면 초동로 321",
    "tel": "",
    "lat": 35.412395,
    "lng": 128.691606
  },
  {
    "name": "태룡초등학교 어린이 놀이시설",
    "category": "어린이놀이시설",
    "type": "어린이놀이시설",
    "address": "경상남도 밀양시 단장면 국전로 15-8",
    "tel": "",
    "lat": 35.514203,
    "lng": 128.876429
  },
  {
    "name": "미리벌초병설유치원 어린이 놀이시설",
    "category": "어린이놀이시설",
    "type": "어린이놀이시설",
    "address": "경상남도 밀양시 미리벌로 41-22 (삼문동)",
    "tel": "",
    "lat": 35.481729,
    "lng": 128.748685
  },
  {
    "name": "밀양초병설유치원 어린이 놀이시설",
    "category": "어린이놀이시설",
    "type": "어린이놀이시설",
    "address": "경상남도 밀양시 삼문송림길 3-5 (삼문동)",
    "tel": "",
    "lat": 35.48941,
    "lng": 128.755439
  },
  {
    "name": "산내남명초병설유치원 어린이 놀이시설",
    "category": "어린이놀이시설",
    "type": "어린이놀이시설",
    "address": "경상남도 밀양시 산내면 산내로 1143",
    "tel": "",
    "lat": 35.588093,
    "lng": 128.953739
  },
  {
    "name": "산내초병설유치원 어린이 놀이시설",
    "category": "어린이놀이시설",
    "type": "어린이놀이시설",
    "address": "경상남도 밀양시 산내면 산내로 335",
    "tel": "",
    "lat": 35.586475,
    "lng": 128.880496
  },
  {
    "name": "삼랑진초병설유치원 어린이 놀이시설",
    "category": "어린이놀이시설",
    "type": "어린이놀이시설",
    "address": "경상남도 밀양시 삼랑진읍 만어로 1",
    "tel": "",
    "lat": 35.399815,
    "lng": 128.841952
  },
  {
    "name": "상남초병설유치원 어린이 놀이시설",
    "category": "어린이놀이시설",
    "type": "어린이놀이시설",
    "address": "경상남도 밀양시 상남면 상남인산길 11",
    "tel": "",
    "lat": 35.393749,
    "lng": 128.777155
  },
  {
    "name": "상동초병설유치원 어린이놀이시설",
    "category": "어린이놀이시설",
    "type": "어린이놀이시설",
    "address": "경상남도 밀양시 상동면 금산5길 4",
    "tel": "",
    "lat": 35.553474,
    "lng": 128.761997
  },
  {
    "name": "수산초병설유치원 놀이시설",
    "category": "어린이놀이시설",
    "type": "어린이놀이시설",
    "address": "경상남도 밀양시 하남읍 수산중앙로 59",
    "tel": "",
    "lat": 35.376106,
    "lng": 128.71168
  },
  {
    "name": "숭진초병설유치원 어린이 놀이시설",
    "category": "어린이놀이시설",
    "type": "어린이놀이시설",
    "address": "경상남도 밀양시 삼랑진읍 삼랑진로 1286",
    "tel": "",
    "lat": 35.453014,
    "lng": 128.800851
  },
  {
    "name": "예림초등학교 어린이 놀이시설",
    "category": "어린이놀이시설",
    "type": "어린이놀이시설",
    "address": "경상남도 밀양시 상남면 밀양대로 1524",
    "tel": "",
    "lat": 35.464616,
    "lng": 128.765232
  },
  {
    "name": "청도초병설유치원 어린이 놀이시설",
    "category": "어린이놀이시설",
    "type": "어린이놀이시설",
    "address": "경상남도 밀양시 청도면 두곡4길 13",
    "tel": "",
    "lat": 35.551433,
    "lng": 128.623988
  },
  {
    "name": "초동초병설유치원 어린이 놀이시설",
    "category": "어린이놀이시설",
    "type": "어린이놀이시설",
    "address": "경상남도 밀양시 초동면 초동로 321",
    "tel": "",
    "lat": 35.412395,
    "lng": 128.691606
  },
  {
    "name": "태룡초병설유치원 어린이 놀이시설",
    "category": "어린이놀이시설",
    "type": "어린이놀이시설",
    "address": "경상남도 밀양시 단장면 국전로 15-8",
    "tel": "",
    "lat": 35.514203,
    "lng": 128.876429
  },
  {
    "name": "아랑유치원 어린이 놀이시설",
    "category": "어린이놀이시설",
    "type": "어린이놀이시설",
    "address": "경상남도 밀양시 삼문중앙로4길 53-5 (삼문동)",
    "tel": "",
    "lat": 35.481834,
    "lng": 128.758349
  },
  {
    "name": "블루유치원 어린이 놀이시설",
    "category": "어린이놀이시설",
    "type": "어린이놀이시설",
    "address": "경상남도 밀양시 중앙로 234-3 (삼문동)",
    "tel": "",
    "lat": 35.484478,
    "lng": 128.759183
  },
  {
    "name": "삼양사유치원 놀이터",
    "category": "어린이놀이시설",
    "type": "어린이놀이시설",
    "address": "경상남도 밀양시 밀양대로 2083-11 (교동)",
    "tel": "",
    "lat": 35.510963,
    "lng": 128.757172
  },
  {
    "name": "원광유치원 어린이 놀이시설",
    "category": "어린이놀이시설",
    "type": "어린이놀이시설",
    "address": "경상남도 밀양시 소전1길 12 (삼문동)",
    "tel": "",
    "lat": 35.484777,
    "lng": 128.752637
  },
  {
    "name": "밀양성모성심유치원 놀이터",
    "category": "어린이놀이시설",
    "type": "어린이놀이시설",
    "address": "경상남도 밀양시 밀양대공원로 74 (교동)",
    "tel": "",
    "lat": 35.510963,
    "lng": 128.757172
  },
  {
    "name": "엄마유치원 어린이 놀이시설",
    "category": "어린이놀이시설",
    "type": "어린이놀이시설",
    "address": "경상남도 밀양시 상남면 상남로 1187-42",
    "tel": "",
    "lat": 35.462147,
    "lng": 128.750704
  },
  {
    "name": "숭진초등학교 어린이 놀이시설",
    "category": "어린이놀이시설",
    "type": "어린이놀이시설",
    "address": "경상남도 밀양시 삼랑진읍 삼랑진로 1286",
    "tel": "",
    "lat": 35.4624,
    "lng": 128.8157
  },
  {
    "name": "밀양코아루아파트 103동 놀이터",
    "category": "어린이놀이시설",
    "type": "어린이놀이시설",
    "address": "경상남도 밀양시 미리벌로3길 45 (삼문동)",
    "tel": "",
    "lat": 35.481729,
    "lng": 128.748685
  },
  {
    "name": "주공아파트(2단지) 놀이시설",
    "category": "어린이놀이시설",
    "type": "어린이놀이시설",
    "address": "경상남도 밀양시 중앙로 47 (가곡동)",
    "tel": "",
    "lat": 35.472307,
    "lng": 128.771865
  },
  {
    "name": "꼬마사랑어린이집 놀이터",
    "category": "어린이놀이시설",
    "type": "어린이놀이시설",
    "address": "경남 밀양시 하남읍 수산동촌4길 9-7",
    "tel": "",
    "lat": 35.377126,
    "lng": 128.711024
  },
  {
    "name": "밀양 푸르지오 백중 놀이터",
    "category": "어린이놀이시설",
    "type": "어린이놀이시설",
    "address": "경상남도 밀양시 미리벌중앙로3길 47 (삼문동, 삼문푸르지오)",
    "tel": "",
    "lat": 35.480271,
    "lng": 128.745641
  },
  {
    "name": "한마음타운",
    "category": "어린이놀이시설",
    "type": "어린이놀이시설",
    "address": "경상남도 밀양시 교동로5길 18  (교동)",
    "tel": "",
    "lat": 35.50946,
    "lng": 128.756313
  },
  {
    "name": "전사포공원2 어린이놀이터",
    "category": "어린이놀이시설",
    "type": "어린이놀이시설",
    "address": null,
    "tel": "",
    "lat": 35.466264,
    "lng": 128.744006
  },
  {
    "name": "후사포공원 어린이놀이터",
    "category": "어린이놀이시설",
    "type": "어린이놀이시설",
    "address": null,
    "tel": "",
    "lat": 35.466264,
    "lng": 128.744006
  },
  {
    "name": "밀양시립도서관",
    "category": "어린이놀이시설",
    "type": "어린이놀이시설",
    "address": "경남 밀양시 삼문동",
    "tel": "",
    "lat": 35.481729,
    "lng": 128.748685
  },
  {
    "name": "애플키즈카페",
    "category": "어린이놀이시설",
    "type": "어린이놀이시설",
    "address": "경상남도 밀양시 북성로4길 20 (내이동)",
    "tel": "",
    "lat": 35.500567,
    "lng": 128.747727
  },
  {
    "name": "판타블아파트",
    "category": "어린이놀이시설",
    "type": "어린이놀이시설",
    "address": "경상남도 밀양시 시청서2길 20-1 (내이동, 판타블아파트)",
    "tel": "",
    "lat": 35.504225,
    "lng": 128.74252
  },
  {
    "name": "신망원 어린이놀이터",
    "category": "어린이놀이시설",
    "type": "어린이놀이시설",
    "address": "경상남도 밀양시 양림동촌2길 14-1(상남면)",
    "tel": "",
    "lat": 35.465601,
    "lng": 128.768825
  },
  {
    "name": "상동초등학교 놀이터",
    "category": "어린이놀이시설",
    "type": "어린이놀이시설",
    "address": "경상남도 밀양시 금산5길 4(상동면, 상동중학교)",
    "tel": "",
    "lat": 35.553474,
    "lng": 128.761997
  },
  {
    "name": "밀양 지엘리베라움아파트 놀이시설",
    "category": "어린이놀이시설",
    "type": "어린이놀이시설",
    "address": "경상남도 밀양시 삼문로 6(삼문동)",
    "tel": "",
    "lat": 35.485827,
    "lng": 128.750971
  },
  {
    "name": "대동아파트 105동~106동옆 어린이놀이시설",
    "category": "어린이놀이시설",
    "type": "어린이놀이시설",
    "address": "경상남도 밀양시 상남면 상남로 1187-15 (밀양예림대동타운)",
    "tel": "",
    "lat": 35.461905,
    "lng": 128.752231
  },
  {
    "name": "우신그린피아 104동뒤 놀이시설",
    "category": "어린이놀이시설",
    "type": "어린이놀이시설",
    "address": "경상남도 밀양시 교동로 76 (교동, 밀양우신그린피아아파트)",
    "tel": "",
    "lat": 35.508004,
    "lng": 128.754286
  },
  {
    "name": "한성 사랑채뷰아파트 놀이시설",
    "category": "어린이놀이시설",
    "type": "어린이놀이시설",
    "address": "경상남도 밀양시 미리벌중앙로 5 (삼문동，한성사랑채아파트)",
    "tel": "",
    "lat": 35.478994,
    "lng": 128.750819
  },
  {
    "name": "밀양세경웰러스아파트 108동앞",
    "category": "어린이놀이시설",
    "type": "어린이놀이시설",
    "address": "경상남도 밀양시 미리벌로2길 47 (삼문동, Wellus)",
    "tel": "",
    "lat": 35.48416,
    "lng": 128.7452
  },
  {
    "name": "신화아파트 어린이놀이터",
    "category": "어린이놀이시설",
    "type": "어린이놀이시설",
    "address": "경상남도 밀양시 북성로7길 28 (내일동, 우정빌라)",
    "tel": "",
    "lat": 35.497969,
    "lng": 128.754845
  },
  {
    "name": "LH아파트 어린이놀이터1",
    "category": "어린이놀이시설",
    "type": "어린이놀이시설",
    "address": "경상남도 밀양시 창밀로 3535 (내이동, 내이주공아파트)",
    "tel": "",
    "lat": 35.506623,
    "lng": 128.737609
  },
  {
    "name": "LH아파트 어린이놀이터2",
    "category": "어린이놀이시설",
    "type": "어린이놀이시설",
    "address": "경상남도 밀양시 창밀로 3535 (내이동, 내이주공아파트)",
    "tel": "",
    "lat": 35.506623,
    "lng": 128.737609
  },
  {
    "name": "LH아파트 어린이놀이터3",
    "category": "어린이놀이시설",
    "type": "어린이놀이시설",
    "address": "경상남도 밀양시 창밀로 3535 (내이동, 내이주공아파트)",
    "tel": "",
    "lat": 35.506623,
    "lng": 128.737609
  },
  {
    "name": "LH아파트 유아놀이터",
    "category": "어린이놀이시설",
    "type": "어린이놀이시설",
    "address": "경상남도 밀양시 창밀로 3535 (내이동, 내이주공아파트)",
    "tel": "",
    "lat": 35.506623,
    "lng": 128.737609
  },
  {
    "name": "내이동제3공원(어린이놀이터)",
    "category": "어린이놀이시설",
    "type": "어린이놀이시설",
    "address": null,
    "tel": "",
    "lat": 35.506189,
    "lng": 128.7359
  },
  {
    "name": "도뮤토아파트보육시설놀이터",
    "category": "어린이놀이시설",
    "type": "어린이놀이시설",
    "address": "경상남도 밀양시 점필재로 45-25 (삼문동, 밀양 domuto 아파트)",
    "tel": "",
    "lat": 35.488845,
    "lng": 128.743315
  },
  {
    "name": "도뮤토아파트어린이놀이터",
    "category": "어린이놀이시설",
    "type": "어린이놀이시설",
    "address": "경상남도 밀양시 점필재로 45-25 (삼문동, 밀양 domuto 아파트)",
    "tel": "",
    "lat": 35.488845,
    "lng": 128.743315
  },
  {
    "name": "산촌농원",
    "category": "어린이놀이시설",
    "type": "어린이놀이시설",
    "address": "경상남도 밀양시 상동면 금산5길 18",
    "tel": "",
    "lat": 35.55305,
    "lng": 128.760751
  },
  {
    "name": "미성어린이집 실외놀이터",
    "category": "어린이놀이시설",
    "type": "어린이놀이시설",
    "address": "경상남도 밀양시 교동로 32 (교동)",
    "tel": "",
    "lat": 35.506167,
    "lng": 128.7523
  },
  {
    "name": "지엘리베라움 아파트 2단지 202동 옆 놀이시설",
    "category": "어린이놀이시설",
    "type": "어린이놀이시설",
    "address": null,
    "tel": "",
    "lat": 35.481729,
    "lng": 128.748685
  },
  {
    "name": "밀양유치원 어린이 놀이시설",
    "category": "어린이놀이시설",
    "type": "어린이놀이시설",
    "address": null,
    "tel": "",
    "lat": 35.5091,
    "lng": 128.7248
  },
  {
    "name": "누리마을 감자탕",
    "category": "어린이놀이시설",
    "type": "어린이놀이시설",
    "address": "경상남도 밀양시 삼문로 3 (삼문동)",
    "tel": "",
    "lat": 35.486156,
    "lng": 128.75061
  },
  {
    "name": "조은어린이집 놀이터",
    "category": "어린이놀이시설",
    "type": "어린이놀이시설",
    "address": null,
    "tel": "",
    "lat": 35.481729,
    "lng": 128.748685
  },
  {
    "name": "은혜교회",
    "category": "어린이놀이시설",
    "type": "어린이놀이시설",
    "address": "경상남도 밀양시 삼문강변안길 11 (삼문동)",
    "tel": "",
    "lat": 35.489049,
    "lng": 128.752515
  },
  {
    "name": "밀양 청도 어울림마당",
    "category": "어린이놀이시설",
    "type": "어린이놀이시설",
    "address": "경상남도 밀양시 청도면 구기리",
    "tel": "",
    "lat": 35.550121,
    "lng": 128.624573
  },
  {
    "name": "e편한세상 밀양삼문",
    "category": "어린이놀이시설",
    "type": "어린이놀이시설",
    "address": "경상남도 밀양시 미리벌중앙로 10 (삼문동, e편한세상밀양삼문)",
    "tel": "",
    "lat": 35.479709,
    "lng": 128.752597
  },
  {
    "name": "삼문동 제5공원 어린이놀이터",
    "category": "어린이놀이시설",
    "type": "어린이놀이시설",
    "address": "경상남도 밀양시 밀양대로 1753-15 (삼문동)",
    "tel": "",
    "lat": 35.48106,
    "lng": 128.752978
  },
  {
    "name": "사포교회",
    "category": "어린이놀이시설",
    "type": "어린이놀이시설",
    "address": "경상남도 밀양시 부북면 사포로 189-14",
    "tel": "",
    "lat": 35.476386,
    "lng": 128.734685
  },
  {
    "name": "밀양댐 생태공원 내 놀이시설",
    "category": "어린이놀이시설",
    "type": "어린이놀이시설",
    "address": null,
    "tel": "",
    "lat": 35.48561,
    "lng": 128.931319
  },
  {
    "name": "밀양아리랑대공원 유아놀이터",
    "category": "어린이놀이시설",
    "type": "어린이놀이시설",
    "address": "경상남도 밀양시 밀양대공원로 112 (교동)",
    "tel": "",
    "lat": 35.504336,
    "lng": 128.758472
  },
  {
    "name": "대경파미르아파트 103동 앞 놀이터",
    "category": "어린이놀이시설",
    "type": "어린이놀이시설",
    "address": null,
    "tel": "",
    "lat": 35.499364,
    "lng": 128.755112
  },
  {
    "name": "e편한세상밀양강 103동 앞 어린이놀이터",
    "category": "어린이놀이시설",
    "type": "어린이놀이시설",
    "address": null,
    "tel": "",
    "lat": 35.497101,
    "lng": 128.746163
  },
  {
    "name": "수산사랑채뷰 아파트 어린이놀이시설",
    "category": "어린이놀이시설",
    "type": "어린이놀이시설",
    "address": "경상남도 밀양시 하남읍 수산제방길 71",
    "tel": "",
    "lat": 35.37191,
    "lng": 128.71594
  },
  {
    "name": "수산제 역사 공원 어린이 놀이터",
    "category": "어린이놀이시설",
    "type": "어린이놀이시설",
    "address": "경상남도 밀양시 하남읍 수산리",
    "tel": "",
    "lat": 35.3704,
    "lng": 128.7248
  },
  {
    "name": "우리 아이 마음 숲 놀이터",
    "category": "어린이놀이시설",
    "type": "어린이놀이시설",
    "address": "경상남도 밀양시 단장면 구천리",
    "tel": "",
    "lat": 35.5453,
    "lng": 128.952
  },
  {
    "name": "미리벌초등학교 어린이놀이시설",
    "category": "어린이놀이시설",
    "type": "어린이놀이시설",
    "address": "경상남도 밀양시 미리벌로 41-22 (삼문동)",
    "tel": "",
    "lat": 35.480408,
    "lng": 128.748749
  },
  {
    "name": "쌍용더플래티넘 105동 앞 놀이시설(어린이놀이터1번)",
    "category": "어린이놀이시설",
    "type": "어린이놀이시설",
    "address": null,
    "tel": "",
    "lat": 35.497101,
    "lng": 128.746163
  },
  {
    "name": "쌍용더플래티넘 104동 앞 놀이시설(유아놀이터)",
    "category": "어린이놀이시설",
    "type": "어린이놀이시설",
    "address": null,
    "tel": "",
    "lat": 35.497101,
    "lng": 128.746163
  },
  {
    "name": "쌍용더플래티넘 102동 내 놀이시설(피로티)",
    "category": "어린이놀이시설",
    "type": "어린이놀이시설",
    "address": null,
    "tel": "",
    "lat": 35.497101,
    "lng": 128.746163
  },
  {
    "name": "쌍용더플래티넘 103동 내 놀이시설(피로티)",
    "category": "어린이놀이시설",
    "type": "어린이놀이시설",
    "address": null,
    "tel": "",
    "lat": 35.497101,
    "lng": 128.746163
  },
  {
    "name": "쌍용더플래티넘 105동 내 놀이시설(피로티A)",
    "category": "어린이놀이시설",
    "type": "어린이놀이시설",
    "address": null,
    "tel": "",
    "lat": 35.497101,
    "lng": 128.746163
  },
  {
    "name": "쌍용더플래티넘 105동 내 놀이시설(피로티B)",
    "category": "어린이놀이시설",
    "type": "어린이놀이시설",
    "address": null,
    "tel": "",
    "lat": 35.497101,
    "lng": 128.746163
  },
  {
    "name": "쌍용더플래티넘 107동 내 놀이시설(피로티)",
    "category": "어린이놀이시설",
    "type": "어린이놀이시설",
    "address": null,
    "tel": "",
    "lat": 35.497101,
    "lng": 128.746163
  },
  {
    "name": "라라코스트 밀양 삼문점 내 실내놀이시설",
    "category": "어린이놀이시설",
    "type": "어린이놀이시설",
    "address": "경상남도 밀양시 미리벌중앙로 63 (삼문동)",
    "tel": "",
    "lat": 35.483447,
    "lng": 128.748728
  },
  {
    "name": "밀양강푸르지오 104동 옆 놀이터",
    "category": "어린이놀이시설",
    "type": "어린이놀이시설",
    "address": null,
    "tel": "",
    "lat": 35.478743,
    "lng": 128.764563
  },
  {
    "name": "밀양강푸르지오 105동 앞 놀이터",
    "category": "어린이놀이시설",
    "type": "어린이놀이시설",
    "address": null,
    "tel": "",
    "lat": 35.478743,
    "lng": 128.764563
  },
  {
    "name": "밀양아리랑대공원 생태놀이터",
    "category": "어린이놀이시설",
    "type": "어린이놀이시설",
    "address": null,
    "tel": "",
    "lat": 35.510963,
    "lng": 128.757172
  },
  {
    "name": "밀양강푸르지오 101동",
    "category": "어린이놀이시설",
    "type": "어린이놀이시설",
    "address": null,
    "tel": "",
    "lat": 35.478743,
    "lng": 128.764563
  },
  {
    "name": "밀양강푸르지오 104동 필로티",
    "category": "어린이놀이시설",
    "type": "어린이놀이시설",
    "address": null,
    "tel": "",
    "lat": 35.478743,
    "lng": 128.764563
  },
  {
    "name": "밀양나노시티 한신더휴 아파트 어린이놀이터1(107동~108동)",
    "category": "어린이놀이시설",
    "type": "어린이놀이시설",
    "address": null,
    "tel": "",
    "lat": 35.497101,
    "lng": 128.746163
  },
  {
    "name": "밀양나노시티 한신더휴 아파트 어린이놀이터2(107동 앞)",
    "category": "어린이놀이시설",
    "type": "어린이놀이시설",
    "address": null,
    "tel": "",
    "lat": 35.497101,
    "lng": 128.746163
  },
  {
    "name": "밀양나노시티 한신더휴 아파트 어린이놀이터3(105동 앞)",
    "category": "어린이놀이시설",
    "type": "어린이놀이시설",
    "address": null,
    "tel": "",
    "lat": 35.497101,
    "lng": 128.746163
  },
  {
    "name": "밀양교동지 놀이공원",
    "category": "어린이놀이시설",
    "type": "어린이놀이시설",
    "address": null,
    "tel": "",
    "lat": 35.510963,
    "lng": 128.757172
  },
  {
    "name": "남천공원 놀이터",
    "category": "어린이놀이시설",
    "type": "어린이놀이시설",
    "address": null,
    "tel": "",
    "lat": 35.497101,
    "lng": 128.746163
  },
  {
    "name": "꼬마대통령어린이집 실외놀이터",
    "category": "어린이놀이시설",
    "type": "어린이놀이시설",
    "address": "경상남도 밀양시 삼문로 33-8 (삼문동)",
    "tel": "",
    "lat": 35.487572,
    "lng": 128.753143
  },
  {
    "name": "밀양 도깨비방망이 캠핑장 실내어린이놀이터",
    "category": "어린이놀이시설",
    "type": "어린이놀이시설",
    "address": "경상남도 밀양시 단장면 단장로 1055",
    "tel": "",
    "lat": 35.485945,
    "lng": 128.849786
  },
  {
    "name": "사명대사 유적지 연꽃타워 놀이터",
    "category": "어린이놀이시설",
    "type": "어린이놀이시설",
    "address": "경상남도 밀양시 무안면 고라리",
    "tel": "",
    "lat": 35.496918,
    "lng": 128.605975
  },
  {
    "name": "밀주초등학교 어린이놀이시설",
    "category": "어린이놀이시설",
    "type": "어린이놀이시설",
    "address": "경상남도 밀양시 가곡13길 24 (가곡동)",
    "tel": "",
    "lat": 35.477121,
    "lng": 128.762485
  },
  {
    "name": "e편한세상 밀양나노벨리 아파트 어린이놀이터1(101동옆)",
    "category": "어린이놀이시설",
    "type": "어린이놀이시설",
    "address": null,
    "tel": "",
    "lat": 35.497101,
    "lng": 128.746163
  },
  {
    "name": "e편한세상 밀양나노벨리 아파트 어린이놀이터2(104동앞)",
    "category": "어린이놀이시설",
    "type": "어린이놀이시설",
    "address": null,
    "tel": "",
    "lat": 35.497101,
    "lng": 128.746163
  },
  {
    "name": "e편한세상 밀양나노벨리 아파트 유아놀이터(101동옆)",
    "category": "어린이놀이시설",
    "type": "어린이놀이시설",
    "address": null,
    "tel": "",
    "lat": 35.497101,
    "lng": 128.746163
  },
  {
    "name": "도래재 자연휴양림",
    "category": "어린이놀이시설",
    "type": "어린이놀이시설",
    "address": "경상남도 밀양시 단장면 도래재로 462",
    "tel": "",
    "lat": 35.556468,
    "lng": 128.939358
  },
  {
    "name": "밀양세경웰러스아파트 109동앞",
    "category": "어린이놀이시설",
    "type": "어린이놀이시설",
    "address": null,
    "tel": "",
    "lat": 35.48414,
    "lng": 128.745252
  },
  {
    "name": "부북 A28L아파트 유아놀이터",
    "category": "어린이놀이시설",
    "type": "어린이놀이시설",
    "address": null,
    "tel": "",
    "lat": 35.477553,
    "lng": 128.732848
  },
  {
    "name": "부북 A28L아파트 어린이놀이터",
    "category": "어린이놀이시설",
    "type": "어린이놀이시설",
    "address": null,
    "tel": "",
    "lat": 35.477448,
    "lng": 128.732591
  },
  {
    "name": "밀양 농촌테마공원 실외놀이시설",
    "category": "어린이놀이시설",
    "type": "어린이놀이시설",
    "address": "경남 밀양시 단장면 관광단지로 90",
    "tel": "",
    "lat": 0.0,
    "lng": 0.0
  },
  {
    "name": "밀성초등학교 어린이 놀이시설",
    "category": "어린이놀이시설",
    "type": "어린이놀이시설",
    "address": "경상남도 밀양시 석정로 139 (내이동)",
    "tel": "",
    "lat": 35.502778,
    "lng": 128.752145
  },
  {
    "name": "크레파스",
    "category": "약자보호시설",
    "type": "장애인편의시설",
    "address": "경상남도 밀양시 무안면 운정길 76-99",
    "tel": "055-351-3512",
    "lat": 35.507133,
    "lng": 128.688245
  },
  {
    "name": "밀양시장애인생활이동지원센터",
    "category": "약자보호시설",
    "type": "장애인편의시설",
    "address": "경상남도 밀양시 가곡15길 2, 301호(가곡동, 성원프라자 9차)",
    "tel": "055-353-5531",
    "lat": 35.479815,
    "lng": 128.763171
  },
  {
    "name": "밀양시수어통역센터",
    "category": "약자보호시설",
    "type": "장애인편의시설",
    "address": "경상남도 밀양시 가곡14길 22. 장애인복지관 3층",
    "tel": "055-356-7154",
    "lat": 35.480095,
    "lng": 128.76372
  },
  {
    "name": "밀양시장애인복지관",
    "category": "약자보호시설",
    "type": "장애인편의시설",
    "address": "경상남도 밀양시 가곡14길 22",
    "tel": "055-350-1700",
    "lat": 35.480095,
    "lng": 128.76372
  },
  {
    "name": "아람나무주간보호시설",
    "category": "약자보호시설",
    "type": "장애인편의시설",
    "address": "경상남도 밀양시 가곡14길 22",
    "tel": "055-350-1742",
    "lat": 35.480095,
    "lng": 128.76372
  },
  {
    "name": "다솜나무주간보호시설",
    "category": "약자보호시설",
    "type": "장애인편의시설",
    "address": "경상남도 밀양시 가곡14길 22",
    "tel": "055-350-1746",
    "lat": 35.480095,
    "lng": 128.76372
  },
  {
    "name": "밀양시 시각장애인주간보호센터",
    "category": "약자보호시설",
    "type": "장애인편의시설",
    "address": "경상남도 밀양시 가곡15길 2, 301호(가곡동, 성원프라자9차)",
    "tel": "055-353-5531",
    "lat": 35.479815,
    "lng": 128.763171
  },
  {
    "name": "미리벌",
    "category": "약자보호시설",
    "type": "장애인편의시설",
    "address": "경상남도 밀양시 상남면 이연1길 23-41",
    "tel": "055-351-2071",
    "lat": 35.435984,
    "lng": 128.750298
  },
  {
    "name": "이레",
    "category": "약자보호시설",
    "type": "장애인편의시설",
    "address": "경상남도 밀양시 하남읍 수산로 400",
    "tel": "055-391-1052",
    "lat": 35.357325,
    "lng": 128.742426
  },
  {
    "name": "해울",
    "category": "약자보호시설",
    "type": "장애인편의시설",
    "address": "경상남도 밀양시 무안면 운정길",
    "tel": "055-351-1101",
    "lat": 35.501489,
    "lng": 128.681415
  },
  {
    "name": "파스텔",
    "category": "약자보호시설",
    "type": "장애인편의시설",
    "address": "경상남도 밀양시 시청로2길 6, 103동 103호(내이동, 현대아파트)",
    "tel": "070-7301-1102",
    "lat": 35.505464,
    "lng": 128.740183
  },
  {
    "name": "선주원",
    "category": "약자보호시설",
    "type": "장애인편의시설",
    "address": "경상남도 밀양시 단장면 용소길257",
    "tel": "055-356-4971",
    "lat": 35.448218,
    "lng": 128.889016
  },
  {
    "name": "일곱빛",
    "category": "약자보호시설",
    "type": "장애인편의시설",
    "address": "경상남도 밀양시 가곡 15안길 6",
    "tel": "070-8221-6678",
    "lat": 35.480713,
    "lng": 128.762978
  },
  {
    "name": "한우리",
    "category": "약자보호시설",
    "type": "장애인편의시설",
    "address": "경상남도 밀양시 중앙로149 201호",
    "tel": "055-355-6151",
    "lat": 35.478612,
    "lng": 128.76352
  },
  {
    "name": "밀양시성폭력가정폭력통합상담소",
    "category": "약자보호시설",
    "type": "성폭력피해상담소",
    "address": "경상남도 밀양시 노상하1길 34, 3층 (내이동)",
    "tel": "055-391-1366",
    "lat": 35.493033,
    "lng": 128.750443
  },
  {
    "name": "제일병원",
    "category": "약자보호시설",
    "type": "전담의료기관",
    "address": "경상남도 밀양시 노상하4길 4",
    "tel": "055-352-7851",
    "lat": 35.496202,
    "lng": 128.748386
  },
  {
    "name": "가배빈",
    "category": "우수다중시설",
    "type": "휴게음식점",
    "address": "-",
    "tel": "",
    "lat": 35.686864,
    "lng": 128.716555
  },
  {
    "name": "다뷰(DAVUE)",
    "category": "우수다중시설",
    "type": "휴게음식점",
    "address": "-",
    "tel": "",
    "lat": 35.683054,
    "lng": 128.716992
  },
  {
    "name": "마중",
    "category": "우수다중시설",
    "type": "휴게음식점",
    "address": "-",
    "tel": "",
    "lat": 35.589048,
    "lng": 128.877216
  },
  {
    "name": "각남초등학교",
    "category": "초중고",
    "type": "초중고",
    "address": "경상북도 청도군 각남면 예리리 498",
    "tel": "",
    "lat": 35.6428,
    "lng": 128.657172
  },
  {
    "name": "금천고등학교",
    "category": "초중고",
    "type": "초중고",
    "address": "경상북도 청도군 금천면 동곡리 1035",
    "tel": "",
    "lat": 35.688076,
    "lng": 128.894726
  },
  {
    "name": "금천중학교",
    "category": "초중고",
    "type": "초중고",
    "address": "경상북도 청도군 금천면 동곡리 1035",
    "tel": "",
    "lat": 35.688076,
    "lng": 128.894764
  },
  {
    "name": "금천초등학교",
    "category": "초중고",
    "type": "초중고",
    "address": "경상북도 청도군 금천면 신지리 224",
    "tel": "",
    "lat": 35.679305,
    "lng": 128.894566
  },
  {
    "name": "동국대학교사범대학부속홍제중학교",
    "category": "초중고",
    "type": "초중고",
    "address": "경상남도 밀양시 단장면 단장리 808",
    "tel": "",
    "lat": 35.509379,
    "lng": 128.852197
  },
  {
    "name": "미리벌중학교",
    "category": "초중고",
    "type": "초중고",
    "address": "경상남도 밀양시 청도면 인산리 667-1",
    "tel": "",
    "lat": 35.543667,
    "lng": 128.638533
  },
  {
    "name": "미리벌초등학교",
    "category": "초중고",
    "type": "초중고",
    "address": "경상남도 밀양시 삼문동 586-1",
    "tel": "",
    "lat": 35.479597,
    "lng": 128.748904
  },
  {
    "name": "밀성고등학교",
    "category": "초중고",
    "type": "초중고",
    "address": "경상남도 밀양시 내이동 602-7",
    "tel": "",
    "lat": 35.501549,
    "lng": 128.750922
  },
  {
    "name": "밀성여자중학교",
    "category": "초중고",
    "type": "초중고",
    "address": "경상남도 밀양시 내이동 590-4",
    "tel": "",
    "lat": 35.501955,
    "lng": 128.750464
  },
  {
    "name": "밀성제일고등학교",
    "category": "초중고",
    "type": "초중고",
    "address": "경상남도 밀양시 내이동 590-1",
    "tel": "",
    "lat": 35.502184,
    "lng": 128.750147
  },
  {
    "name": "밀성중학교",
    "category": "초중고",
    "type": "초중고",
    "address": "경상남도 밀양시 내이동 602-7",
    "tel": "",
    "lat": 35.501573,
    "lng": 128.750922
  },
  {
    "name": "사포초등학교",
    "category": "초중고",
    "type": "초중고",
    "address": "경상남도 밀양시 부북면 전사포리 574-7",
    "tel": "",
    "lat": 35.475048,
    "lng": 128.733602
  },
  {
    "name": "밀성초등학교",
    "category": "초중고",
    "type": "초중고",
    "address": "경상남도 밀양시 내이동 593-1",
    "tel": "",
    "lat": 35.502172,
    "lng": 128.751205
  },
  {
    "name": "밀양고등학교",
    "category": "초중고",
    "type": "초중고",
    "address": "경상남도 밀양시 내이동 1025",
    "tel": "",
    "lat": 35.493676,
    "lng": 128.745943
  },
  {
    "name": "밀양동강중학교",
    "category": "초중고",
    "type": "초중고",
    "address": "경상남도 밀양시 산내면 송백리 2081-21",
    "tel": "",
    "lat": 35.585317,
    "lng": 128.874817
  },
  {
    "name": "밀양아리솔학교",
    "category": "초중고",
    "type": "초중고",
    "address": "경상남도 밀양시 초동면 성만리 624-2",
    "tel": "",
    "lat": 35.409035,
    "lng": 128.695793
  },
  {
    "name": "밀양여자고등학교",
    "category": "초중고",
    "type": "초중고",
    "address": "경상남도 밀양시 내일동 326",
    "tel": "",
    "lat": 35.495211,
    "lng": 128.755933
  },
  {
    "name": "밀양여자중학교",
    "category": "초중고",
    "type": "초중고",
    "address": "경상남도 밀양시 삼문동 141-14",
    "tel": "",
    "lat": 35.483025,
    "lng": 128.758039
  },
  {
    "name": "밀양영화고등학교",
    "category": "초중고",
    "type": "초중고",
    "address": "경상남도 밀양시 상남면 평촌리 735",
    "tel": "",
    "lat": 35.409843,
    "lng": 128.777646
  },
  {
    "name": "밀양중학교",
    "category": "초중고",
    "type": "초중고",
    "address": "경상남도 밀양시 삼문동 115-1",
    "tel": "",
    "lat": 35.483886,
    "lng": 128.755863
  },
  {
    "name": "밀양초등학교",
    "category": "초중고",
    "type": "초중고",
    "address": "경상남도 밀양시 삼문동 3-5",
    "tel": "",
    "lat": 35.489292,
    "lng": 128.755945
  },
  {
    "name": "밀주초등학교",
    "category": "초중고",
    "type": "초중고",
    "address": "경상남도 밀양시 가곡동 728-99",
    "tel": "",
    "lat": 35.477109,
    "lng": 128.762321
  },
  {
    "name": "산내남명초등학교",
    "category": "초중고",
    "type": "초중고",
    "address": "경상남도 밀양시 산내면 남명리 1109-1",
    "tel": "",
    "lat": 35.58775,
    "lng": 128.954422
  },
  {
    "name": "산내초등학교",
    "category": "초중고",
    "type": "초중고",
    "address": "경상남도 밀양시 산내면 송백리 1308",
    "tel": "",
    "lat": 35.585459,
    "lng": 128.880742
  },
  {
    "name": "산동초등학교",
    "category": "초중고",
    "type": "초중고",
    "address": "경상남도 밀양시 단장면 범도리 709-3",
    "tel": "",
    "lat": 35.525578,
    "lng": 128.911774
  },
  {
    "name": "산외초등학교",
    "category": "초중고",
    "type": "초중고",
    "address": "경상남도 밀양시 산외면 금천리 489-4",
    "tel": "",
    "lat": 35.503904,
    "lng": 128.796243
  },
  {
    "name": "동산초등학교",
    "category": "초중고",
    "type": "초중고",
    "address": "경상북도 청도군 매전면 동산리 233-5",
    "tel": "",
    "lat": 35.667457,
    "lng": 128.854703
  },
  {
    "name": "삼랑진고등학교",
    "category": "초중고",
    "type": "초중고",
    "address": "경상남도 밀양시 삼랑진읍 송지리 173-1",
    "tel": "",
    "lat": 35.401069,
    "lng": 128.842861
  },
  {
    "name": "삼랑진중학교",
    "category": "초중고",
    "type": "초중고",
    "address": "경상남도 밀양시 삼랑진읍 송지리 173-1",
    "tel": "",
    "lat": 35.401069,
    "lng": 128.842861
  },
  {
    "name": "삼랑진초등학교",
    "category": "초중고",
    "type": "초중고",
    "address": "경상남도 밀양시 삼랑진읍 송지리 162-2",
    "tel": "",
    "lat": 35.401227,
    "lng": 128.841274
  },
  {
    "name": "상남초등학교",
    "category": "초중고",
    "type": "초중고",
    "address": "경상남도 밀양시 상남면 동산리 713-3",
    "tel": "",
    "lat": 35.394091,
    "lng": 128.776427
  },
  {
    "name": "상동초등학교",
    "category": "초중고",
    "type": "초중고",
    "address": "경상남도 밀양시 상동면 금산리 887-3",
    "tel": "",
    "lat": 35.553683,
    "lng": 128.761561
  },
  {
    "name": "매전중학교",
    "category": "초중고",
    "type": "초중고",
    "address": "경상북도 청도군 매전면 동산리 445-4",
    "tel": "",
    "lat": 35.668066,
    "lng": 128.852703
  },
  {
    "name": "모계고등학교",
    "category": "초중고",
    "type": "초중고",
    "address": "경상북도 청도군 화양읍 범곡리 128-2",
    "tel": "",
    "lat": 35.649461,
    "lng": 128.73599
  },
  {
    "name": "모계중학교",
    "category": "초중고",
    "type": "초중고",
    "address": "경상북도 청도군 화양읍 범곡리 128-2",
    "tel": "",
    "lat": 35.649461,
    "lng": 128.73599
  },
  {
    "name": "부북초등학교",
    "category": "초중고",
    "type": "초중고",
    "address": "경상남도 밀양시 부북면 운전리 323-1",
    "tel": "",
    "lat": 35.514874,
    "lng": 128.730239
  },
  {
    "name": "무안중학교",
    "category": "초중고",
    "type": "초중고",
    "address": "경상남도 밀양시 무안면 신법리 192",
    "tel": "",
    "lat": 35.480378,
    "lng": 128.654897
  },
  {
    "name": "무안초등학교",
    "category": "초중고",
    "type": "초중고",
    "address": "경상남도 밀양시 무안면 무안리 927-1",
    "tel": "",
    "lat": 35.472927,
    "lng": 128.651293
  },
  {
    "name": "예림초등학교",
    "category": "초중고",
    "type": "초중고",
    "address": "경상남도 밀양시 상남면 예림리 936",
    "tel": "",
    "lat": 35.467132,
    "lng": 128.761046
  },
  {
    "name": "세종고등학교",
    "category": "초중고",
    "type": "초중고",
    "address": "경상남도 밀양시 가곡동 566-1",
    "tel": "",
    "lat": 35.473779,
    "lng": 128.763712
  },
  {
    "name": "세종중학교",
    "category": "초중고",
    "type": "초중고",
    "address": "경상남도 밀양시 가곡동 566-1",
    "tel": "",
    "lat": 35.473779,
    "lng": 128.763712
  },
  {
    "name": "송진초등학교",
    "category": "초중고",
    "type": "초중고",
    "address": "경상남도 밀양시 삼랑진읍 송지리 413-1",
    "tel": "",
    "lat": 35.395451,
    "lng": 128.837059
  },
  {
    "name": "숭진초등학교",
    "category": "초중고",
    "type": "초중고",
    "address": "경상남도 밀양시 삼랑진읍 숭진리 600",
    "tel": "",
    "lat": 35.453319,
    "lng": 128.801086
  },
  {
    "name": "유천초등학교",
    "category": "초중고",
    "type": "초중고",
    "address": "경상북도 청도군 청도읍 유호리 623-14",
    "tel": "",
    "lat": 35.573068,
    "lng": 128.765789
  },
  {
    "name": "태룡초등학교",
    "category": "초중고",
    "type": "초중고",
    "address": "경상남도 밀양시 단장면 태룡리 416-4",
    "tel": "",
    "lat": 35.514363,
    "lng": 128.87585
  },
  {
    "name": "한국나노마이스터고등학교",
    "category": "초중고",
    "type": "초중고",
    "address": "경상남도 밀양시 무안면 신법리 327-1",
    "tel": "",
    "lat": 35.478401,
    "lng": 128.653178
  },
  {
    "name": "화양초등학교",
    "category": "초중고",
    "type": "초중고",
    "address": "경상북도 청도군 화양읍 동상리 158-2",
    "tel": "",
    "lat": 35.647709,
    "lng": 128.706779
  },
  {
    "name": "이서고등학교",
    "category": "초중고",
    "type": "초중고",
    "address": "경상북도 청도군 이서면 서원리 331-3",
    "tel": "",
    "lat": 35.662495,
    "lng": 128.668462
  },
  {
    "name": "이서중학교",
    "category": "초중고",
    "type": "초중고",
    "address": "경상북도 청도군 이서면 서원리 331-3",
    "tel": "",
    "lat": 35.662495,
    "lng": 128.668462
  },
  {
    "name": "이서초등학교",
    "category": "초중고",
    "type": "초중고",
    "address": "경상북도 청도군 이서면 학산리 170",
    "tel": "",
    "lat": 35.663373,
    "lng": 128.668887
  },
  {
    "name": "청도고등학교",
    "category": "초중고",
    "type": "초중고",
    "address": "경상북도 청도군 청도읍 고수리 840-2",
    "tel": "",
    "lat": 35.640735,
    "lng": 128.747931
  },
  {
    "name": "청도중앙초등학교",
    "category": "초중고",
    "type": "초중고",
    "address": "경상북도 청도군 청도읍 원정리 530",
    "tel": "",
    "lat": 35.647307,
    "lng": 128.752071
  },
  {
    "name": "청도중학교",
    "category": "초중고",
    "type": "초중고",
    "address": "경상북도 청도군 청도읍 고수리 840-2",
    "tel": "",
    "lat": 35.640735,
    "lng": 128.747931
  },
  {
    "name": "청도초등학교",
    "category": "초중고",
    "type": "초중고",
    "address": "경상북도 청도군 화양읍 범곡리 495",
    "tel": "",
    "lat": 35.647687,
    "lng": 128.730571
  },
  {
    "name": "초동초등학교",
    "category": "초중고",
    "type": "초중고",
    "address": "경상남도 밀양시 초동면 신호리 12-2",
    "tel": "",
    "lat": 35.412139,
    "lng": 128.690902
  },
  {
    "name": "밀양원광유치원",
    "category": "유아시설",
    "type": "유아시설",
    "address": "경상남도 밀양시 삼문동 209-5",
    "tel": "",
    "lat": 35.48494,
    "lng": 128.752536
  },
  {
    "name": "밀양유치원",
    "category": "유아시설",
    "type": "유아시설",
    "address": "경상남도 밀양시 부북면 운전리 323-3",
    "tel": "",
    "lat": 35.513525,
    "lng": 128.729747
  },
  {
    "name": "블루유치원",
    "category": "유아시설",
    "type": "유아시설",
    "address": "경상남도 밀양시 삼문동 15-1",
    "tel": "",
    "lat": 35.484609,
    "lng": 128.759279
  },
  {
    "name": "성모성심유치원",
    "category": "유아시설",
    "type": "유아시설",
    "address": "경상남도 밀양시 교동 911-7",
    "tel": "",
    "lat": 35.501629,
    "lng": 128.758506
  },
  {
    "name": "삼양사금강유치원",
    "category": "유아시설",
    "type": "유아시설",
    "address": "경상남도 밀양시 교동 964",
    "tel": "",
    "lat": 35.504625,
    "lng": 128.750037
  },
  {
    "name": "아랑유치원",
    "category": "유아시설",
    "type": "유아시설",
    "address": "경상남도 밀양시 삼문동 141-123",
    "tel": "",
    "lat": 35.481832,
    "lng": 128.758277
  },
  {
    "name": "아이세상유치원",
    "category": "유아시설",
    "type": "유아시설",
    "address": "경상북도 청도군 화양읍 범곡리 532",
    "tel": "",
    "lat": 35.647787,
    "lng": 128.73239
  },
  {
    "name": "엄마유치원",
    "category": "유아시설",
    "type": "유아시설",
    "address": "경상남도 밀양시 상남면 예림리 1415",
    "tel": "",
    "lat": 35.462149,
    "lng": 128.750698
  },
  {
    "name": "청도성모유치원",
    "category": "유아시설",
    "type": "유아시설",
    "address": "경상북도 청도군 청도읍 고수리 571-1",
    "tel": "",
    "lat": 35.642923,
    "lng": 128.740945
  },
  {
    "name": "향뜰유치원",
    "category": "유아시설",
    "type": "유아시설",
    "address": "경상북도 청도군 청도읍 고수리 650",
    "tel": "",
    "lat": 35.641875,
    "lng": 128.743161
  },
  {
    "name": "가온어린이집",
    "category": "유아시설",
    "type": "유아시설",
    "address": "null",
    "tel": "",
    "lat": 35.480897,
    "lng": 128.752086
  },
  {
    "name": "내이어린이집",
    "category": "유아시설",
    "type": "유아시설",
    "address": "경상남도 밀양시 내이동 300",
    "tel": "",
    "lat": 35.506206,
    "lng": 128.737437
  },
  {
    "name": "도뮤토어린이집",
    "category": "유아시설",
    "type": "유아시설",
    "address": "경상남도 밀양시 삼문동 755",
    "tel": "",
    "lat": 35.496927,
    "lng": 128.741701
  },
  {
    "name": "금천어린이집",
    "category": "유아시설",
    "type": "유아시설",
    "address": "경상북도 청도군 금천면 동곡리 882",
    "tel": "",
    "lat": 35.687132,
    "lng": 128.893917
  },
  {
    "name": "꿈나무어린이집",
    "category": "유아시설",
    "type": "유아시설",
    "address": "경상남도 밀양시 삼문동 730",
    "tel": "",
    "lat": 35.500374,
    "lng": 128.755006
  },
  {
    "name": "꼬마대통령어린이집",
    "category": "유아시설",
    "type": "유아시설",
    "address": "null",
    "tel": "",
    "lat": 35.488912,
    "lng": 128.742272
  },
  {
    "name": "꽃동산어린이집",
    "category": "유아시설",
    "type": "유아시설",
    "address": "null",
    "tel": "",
    "lat": 35.511177,
    "lng": 128.756206
  },
  {
    "name": "사랑샘어린이집",
    "category": "유아시설",
    "type": "유아시설",
    "address": "null",
    "tel": "",
    "lat": 35.485254,
    "lng": 128.757861
  },
  {
    "name": "블루베베어린이집",
    "category": "유아시설",
    "type": "유아시설",
    "address": "경상남도 밀양시 삼문동 15-1",
    "tel": "",
    "lat": 35.485394,
    "lng": 128.760446
  },
  {
    "name": "새들어린이집",
    "category": "유아시설",
    "type": "유아시설",
    "address": "경상남도 밀양시 가곡동 455",
    "tel": "",
    "lat": 35.472783,
    "lng": 128.772547
  },
  {
    "name": "사명어린이집",
    "category": "유아시설",
    "type": "유아시설",
    "address": "null",
    "tel": "",
    "lat": 35.495393,
    "lng": 128.761062
  },
  {
    "name": "보람어린이집",
    "category": "유아시설",
    "type": "유아시설",
    "address": "경상남도 밀양시 삼랑진읍 삼랑리 798-4",
    "tel": "",
    "lat": 35.39607,
    "lng": 128.806546
  },
  {
    "name": "사포어린이집",
    "category": "유아시설",
    "type": "유아시설",
    "address": "null",
    "tel": "",
    "lat": 35.47647,
    "lng": 128.73473
  },
  {
    "name": "새송이어린이집",
    "category": "유아시설",
    "type": "유아시설",
    "address": "경상남도 밀양시 삼문동 734",
    "tel": "",
    "lat": 35.486348,
    "lng": 128.754991
  },
  {
    "name": "새싹어린이집",
    "category": "유아시설",
    "type": "유아시설",
    "address": "null",
    "tel": "",
    "lat": 35.586534,
    "lng": 128.878006
  },
  {
    "name": "삼문어린이집",
    "category": "유아시설",
    "type": "유아시설",
    "address": "경상남도 밀양시 삼문동 567",
    "tel": "",
    "lat": 35.479906,
    "lng": 128.75019
  },
  {
    "name": "새향뜰어린이집",
    "category": "유아시설",
    "type": "유아시설",
    "address": "경상북도 청도군 청도읍 고수리 594-3",
    "tel": "",
    "lat": 35.642876,
    "lng": 128.74146
  },
  {
    "name": "밀신어린이집",
    "category": "유아시설",
    "type": "유아시설",
    "address": "경상남도 밀양시 무안면 마흘리 854-4",
    "tel": "",
    "lat": 35.491112,
    "lng": 128.690168
  },
  {
    "name": "밀양강 푸르지오 어린이집",
    "category": "유아시설",
    "type": "유아시설",
    "address": "경상남도 밀양시 가곡동 478-6",
    "tel": "",
    "lat": 35.498378,
    "lng": 128.773497
  },
  {
    "name": "밀양시청반디어린이집",
    "category": "유아시설",
    "type": "유아시설",
    "address": "null",
    "tel": "",
    "lat": 35.503985,
    "lng": 128.748714
  },
  {
    "name": "몬테소리어린이집",
    "category": "유아시설",
    "type": "유아시설",
    "address": "경상북도 청도군 청도읍 고수리 790-1",
    "tel": "",
    "lat": 35.641706,
    "lng": 128.744364
  },
  {
    "name": "미성어린이집",
    "category": "유아시설",
    "type": "유아시설",
    "address": "경상남도 밀양시 교동 1061-15",
    "tel": "",
    "lat": 35.506173,
    "lng": 128.752309
  },
  {
    "name": "범곡휴먼시아어린이집",
    "category": "유아시설",
    "type": "유아시설",
    "address": "경상북도 청도군 화양읍 범곡리 422",
    "tel": "",
    "lat": 35.648041,
    "lng": 128.727695
  },
  {
    "name": "리틀스쿨어린이집",
    "category": "유아시설",
    "type": "유아시설",
    "address": "경상남도 밀양시 삼문동 730",
    "tel": "",
    "lat": 35.484657,
    "lng": 128.74593
  },
  {
    "name": "로뎀나무어린이집",
    "category": "유아시설",
    "type": "유아시설",
    "address": "경상남도 밀양시 상남면 예림리 1323-1",
    "tel": "",
    "lat": 35.462163,
    "lng": 128.750706
  },
  {
    "name": "아랑자연어린이집",
    "category": "유아시설",
    "type": "유아시설",
    "address": "null",
    "tel": "",
    "lat": 35.481713,
    "lng": 128.758277
  },
  {
    "name": "쌍용키즈더플래티넘어린이집",
    "category": "유아시설",
    "type": "유아시설",
    "address": "경상남도 밀양시 내이동 405",
    "tel": "",
    "lat": 35.503412,
    "lng": 128.734778
  },
  {
    "name": "아이세상어린이집",
    "category": "유아시설",
    "type": "유아시설",
    "address": "경상북도 청도군 화양읍 범곡리 532",
    "tel": "",
    "lat": 35.647809,
    "lng": 128.73242
  },
  {
    "name": "아가페어린이집",
    "category": "유아시설",
    "type": "유아시설",
    "address": "경상남도 밀양시 부북면 후사포리 397",
    "tel": "",
    "lat": 35.475898,
    "lng": 128.726296
  },
  {
    "name": "소담어린이집",
    "category": "유아시설",
    "type": "유아시설",
    "address": "null",
    "tel": "",
    "lat": 35.461962,
    "lng": 128.751292
  },
  {
    "name": "숲속요정 어린이집",
    "category": "유아시설",
    "type": "유아시설",
    "address": "경상남도 밀양시 교동 1223-7",
    "tel": "",
    "lat": 35.511622,
    "lng": 128.755542
  },
  {
    "name": "선명어린이집",
    "category": "유아시설",
    "type": "유아시설",
    "address": "경상남도 밀양시 삼문동 623",
    "tel": "",
    "lat": 35.485199,
    "lng": 128.762279
  },
  {
    "name": "이편한나노밸리어린이집",
    "category": "유아시설",
    "type": "유아시설",
    "address": "null",
    "tel": "",
    "lat": 35.506465,
    "lng": 128.732379
  },
  {
    "name": "이편한세상어린이집",
    "category": "유아시설",
    "type": "유아시설",
    "address": "경상남도 밀양시 내이동 1397",
    "tel": "",
    "lat": 35.501451,
    "lng": 128.747093
  },
  {
    "name": "이편한어린이집",
    "category": "유아시설",
    "type": "유아시설",
    "address": "경상남도 밀양시 삼문동 760",
    "tel": "",
    "lat": 35.484657,
    "lng": 128.74593
  },
  {
    "name": "자연소리어린이집",
    "category": "유아시설",
    "type": "유아시설",
    "address": "경상남도 밀양시 단장면 안법리 506-3",
    "tel": "",
    "lat": 35.485991,
    "lng": 128.849793
  },
  {
    "name": "제일어린이집",
    "category": "유아시설",
    "type": "유아시설",
    "address": "null",
    "tel": "",
    "lat": 35.48737,
    "lng": 128.75131
  },
  {
    "name": "조은어린이집",
    "category": "유아시설",
    "type": "유아시설",
    "address": "null",
    "tel": "",
    "lat": 35.482418,
    "lng": 128.74884
  },
  {
    "name": "은별어린이집",
    "category": "유아시설",
    "type": "유아시설",
    "address": "null",
    "tel": "",
    "lat": 35.497354,
    "lng": 128.74744
  },
  {
    "name": "예임통통어린이집",
    "category": "유아시설",
    "type": "유아시설",
    "address": "경상남도 밀양시 교동 812",
    "tel": "",
    "lat": 35.50421,
    "lng": 128.753354
  },
  {
    "name": "오례 어린이집",
    "category": "유아시설",
    "type": "유아시설",
    "address": "경상남도 밀양시 부북면 오례리 251-5",
    "tel": "",
    "lat": 35.498355,
    "lng": 128.720011
  },
  {
    "name": "오즈 어린이집",
    "category": "유아시설",
    "type": "유아시설",
    "address": "경상남도 밀양시 삼문동 734",
    "tel": "",
    "lat": 35.510597,
    "lng": 128.756304
  },
  {
    "name": "우리두리어린이집",
    "category": "유아시설",
    "type": "유아시설",
    "address": "경상남도 밀양시 삼문동 730",
    "tel": "",
    "lat": 35.484607,
    "lng": 128.745936
  },
  {
    "name": "연꽃어린이집",
    "category": "유아시설",
    "type": "유아시설",
    "address": "경상북도 청도군 화양읍 범곡리 559-6",
    "tel": "",
    "lat": 35.647172,
    "lng": 128.730866
  },
  {
    "name": "통통어린이집",
    "category": "유아시설",
    "type": "유아시설",
    "address": "null",
    "tel": "",
    "lat": 35.50419,
    "lng": 128.753496
  },
  {
    "name": "천사어린이집",
    "category": "유아시설",
    "type": "유아시설",
    "address": "null",
    "tel": "",
    "lat": 35.663909,
    "lng": 128.666828
  },
  {
    "name": "코끼리어린이집",
    "category": "유아시설",
    "type": "유아시설",
    "address": "경상남도 밀양시 상남면 예림리 1332-4",
    "tel": "",
    "lat": 35.459236,
    "lng": 128.751151
  },
  {
    "name": "청도어린이집",
    "category": "유아시설",
    "type": "유아시설",
    "address": "경상북도 청도군 청도읍 고수리 380",
    "tel": "",
    "lat": 35.646083,
    "lng": 128.742034
  },
  {
    "name": "하늘별어린이집",
    "category": "유아시설",
    "type": "유아시설",
    "address": "경상남도 밀양시 삼문동 654",
    "tel": "",
    "lat": 35.479942,
    "lng": 128.74643
  },
  {
    "name": "해맑은어린이집",
    "category": "유아시설",
    "type": "유아시설",
    "address": "null",
    "tel": "",
    "lat": 35.48217,
    "lng": 128.74834
  },
  {
    "name": "한사랑어린이집",
    "category": "유아시설",
    "type": "유아시설",
    "address": "경상남도 밀양시 상남면 기산리 799-2",
    "tel": "",
    "lat": 35.453239,
    "lng": 128.75323
  },
  {
    "name": "한솔어린이집",
    "category": "유아시설",
    "type": "유아시설",
    "address": "경상북도 청도군 화양읍 범곡리 516-5",
    "tel": "",
    "lat": 35.649434,
    "lng": 128.732616
  },
  {
    "name": "해와달어린이집",
    "category": "유아시설",
    "type": "유아시설",
    "address": "null",
    "tel": "",
    "lat": 35.50817,
    "lng": 128.745965
  },
  {
    "name": "풀리페어린이집",
    "category": "유아시설",
    "type": "유아시설",
    "address": "부산광역시 기장군 정관읍 용수리 1275",
    "tel": "",
    "lat": 35.439023,
    "lng": 128.86815
  },
  {
    "name": "참조은어린이집",
    "category": "유아시설",
    "type": "유아시설",
    "address": "null",
    "tel": "",
    "lat": 35.48253,
    "lng": 128.748742
  },
  {
    "name": "해피코아루어린이집",
    "category": "유아시설",
    "type": "유아시설",
    "address": "경상남도 밀양시 삼문동 467",
    "tel": "",
    "lat": 35.483096,
    "lng": 128.744009
  },
  {
    "name": "밀양시보건소",
    "category": "보건소",
    "type": "보건소",
    "address": "경상남도 밀양시 삼문중앙로 41 (삼문동)",
    "tel": "055-359-7020",
    "lat": 35.485715,
    "lng": 128.756131
  },
  {
    "name": "밀양시초동면봉황보건진료소",
    "category": "보건소",
    "type": "보건소",
    "address": "경상남도 밀양시 초동면 봉황중앙길 10-3",
    "tel": "055-391-3577",
    "lat": 35.453757,
    "lng": 128.692684
  },
  {
    "name": "밀양시단장면범도보건진료소",
    "category": "보건소",
    "type": "보건소",
    "address": "경상남도 밀양시 단장면 아불2길 6",
    "tel": "055-352-1418",
    "lat": 35.523893,
    "lng": 128.908494
  },
  {
    "name": "밀양시산내면남명보건진료소",
    "category": "보건소",
    "type": "보건소",
    "address": "경상남도 밀양시 산내면 산내로 1124-2",
    "tel": "055-356-2837",
    "lat": 35.588583,
    "lng": 128.952434
  },
  {
    "name": "밀양시하남읍남전보건진료소",
    "category": "보건소",
    "type": "보건소",
    "address": "경상남도 밀양시 하남읍 남전6길 26-6",
    "tel": "055-391-5141",
    "lat": 35.41269,
    "lng": 128.726202
  },
  {
    "name": "단장면보건지소",
    "category": "보건소",
    "type": "보건소",
    "address": "경상남도 밀양시 단장면 표충로 359",
    "tel": "055-359-5574",
    "lat": 35.51542,
    "lng": 128.87622
  },
  {
    "name": "무안면보건지소",
    "category": "보건소",
    "type": "보건소",
    "address": "경상남도 밀양시 무안면 사명로 539",
    "tel": "055-359-5577",
    "lat": 35.473199,
    "lng": 128.651929
  },
  {
    "name": "산내면보건지소",
    "category": "보건소",
    "type": "보건소",
    "address": "경상남도 밀양시 산내면 산내로 319",
    "tel": "055-359-5573",
    "lat": 35.58411,
    "lng": 128.880031
  },
  {
    "name": "산외면보건지소",
    "category": "보건소",
    "type": "보건소",
    "address": "경상남도 밀양시 산외면 산외로 706 (산외면)",
    "tel": "055-359-5572",
    "lat": 35.510919,
    "lng": 128.839353
  },
  {
    "name": "삼랑진읍보건지소",
    "category": "보건소",
    "type": "보건소",
    "address": "경상남도 밀양시 삼랑진읍 외송2길 10",
    "tel": "055-359-5570",
    "lat": 35.393427,
    "lng": 128.836706
  },
  {
    "name": "상남면보건지소",
    "category": "보건소",
    "type": "보건소",
    "address": "경상남도 밀양시 상남면 평촌중앙로 38-10",
    "tel": "055-359-5575",
    "lat": 35.410693,
    "lng": 128.774968
  },
  {
    "name": "초동면보건지소",
    "category": "보건소",
    "type": "보건소",
    "address": "경상남도 밀양시 초동면 신호2길 5-4",
    "tel": "055-359-5576",
    "lat": 35.411009,
    "lng": 128.689725
  },
  {
    "name": "가산보건진료소",
    "category": "보건소",
    "type": "보건소",
    "address": "경상남도 밀양시 부북면 창밀로 3078",
    "tel": "055-355-5355",
    "lat": 35.531631,
    "lng": 128.702334
  },
  {
    "name": "미전보건진료소",
    "category": "보건소",
    "type": "보건소",
    "address": "경상남도 밀양시 삼랑진읍 미전2길 91-1 ",
    "tel": "055-352-4102",
    "lat": 35.416685,
    "lng": 128.817888
  },
  {
    "name": "밀양시단장면안법보건진료소",
    "category": "보건소",
    "type": "보건소",
    "address": "경상남도 밀양시 단장면 법사길 33-1,",
    "tel": "055-356-0523",
    "lat": 35.486017,
    "lng": 128.84952
  },
  {
    "name": "밀양시무안면내진보건진료소",
    "category": "보건소",
    "type": "보건소",
    "address": "경상남도 밀양시 무안면 사명로 1156",
    "tel": "055-356-1632",
    "lat": 35.523882,
    "lng": 128.653249
  },
  {
    "name": "밀양시상남면동산보건진료소",
    "category": "보건소",
    "type": "보건소",
    "address": "경상남도 밀양시 상남면 외평로 185,",
    "tel": "055-353-0159",
    "lat": 35.379676,
    "lng": 128.781793
  },
  {
    "name": "밀양시상동면고정보건진료소",
    "category": "보건소",
    "type": "보건소",
    "address": "경상남도 밀양시 상동면 고정1길 34-1",
    "tel": "055-352-8340",
    "lat": 35.56382,
    "lng": 128.787067
  },
  {
    "name": "밀양시청도면덕법보건진료소",
    "category": "보건소",
    "type": "보건소",
    "address": "경상남도 밀양시 청도면 덕법길 60-54",
    "tel": "055-352-9824",
    "lat": 35.545416,
    "lng": 128.651379
  },
  {
    "name": "용성보건진료소",
    "category": "보건소",
    "type": "보건소",
    "address": "경상남도 밀양시 삼랑진읍 삼랑진로 1192",
    "tel": "055-352-7898",
    "lat": 35.445212,
    "lng": 128.806547
  },
  {
    "name": "청도군보건소",
    "category": "보건소",
    "type": "보건소",
    "address": "경상북도 청도군 화양읍 청화로 79-11 (화양읍)",
    "tel": "054-370-6470",
    "lat": 35.647903,
    "lng": 128.736975
  },
  {
    "name": "각북보건지소",
    "category": "보건소",
    "type": "보건소",
    "address": "경상북도 청도군 각북면 헐티로 801",
    "tel": "054-370-6465",
    "lat": 35.687071,
    "lng": 128.589332
  },
  {
    "name": "양원보건진료소",
    "category": "보건소",
    "type": "보건소",
    "address": "경상북도 청도군 이서면 양원길 61-4,",
    "tel": "054-372-8231",
    "lat": 35.688159,
    "lng": 128.686109
  },
  {
    "name": "화양보건지소",
    "category": "보건소",
    "type": "보건소",
    "address": "경상북도 청도군 화양읍 도주관로 206",
    "tel": "054-370-6462",
    "lat": 35.650214,
    "lng": 128.708303
  },
  {
    "name": "지전보건진료소",
    "category": "보건소",
    "type": "보건소",
    "address": "경상북도 청도군 매전면 지전길 3-18",
    "tel": "054-372-0845",
    "lat": 35.608735,
    "lng": 128.812544
  },
  {
    "name": "이서보건지소",
    "category": "보건소",
    "type": "보건소",
    "address": "경상북도 청도군 이서면 학산길 17-7",
    "tel": "054-370-6466",
    "lat": 35.662306,
    "lng": 128.665945
  },
  {
    "name": "금천보건지소",
    "category": "보건소",
    "type": "보건소",
    "address": "경상북도 청도군 금천면 선암로 575",
    "tel": "054-370-6468",
    "lat": 35.687269,
    "lng": 128.892856
  },
  {
    "name": "박곡보건진료소",
    "category": "보건소",
    "type": "보건소",
    "address": "경상북도 청도군 금천면 박곡1길 21,",
    "tel": "054-372-3657",
    "lat": 35.670073,
    "lng": 128.916427
  },
  {
    "name": "매전보건지소",
    "category": "보건소",
    "type": "보건소",
    "address": "경상북도 청도군 매전면 청려로 3679",
    "tel": "054-370-6469",
    "lat": 35.666701,
    "lng": 128.854424
  },
  {
    "name": "유호보건진료소",
    "category": "보건소",
    "type": "보건소",
    "address": "경상북도 청도군 청도읍 유호1길 26-8,",
    "tel": "054-372-1229",
    "lat": 35.571429,
    "lng": 128.769494
  },
  {
    "name": "각남보건지소",
    "category": "보건소",
    "type": "보건소",
    "address": "경상북도 청도군 각남면 예리2길 11",
    "tel": "054-370-6463",
    "lat": 35.643655,
    "lng": 128.659199
  },
  {
    "name": "의료법인생명사랑의료재단밀양윤병원",
    "category": "산재지정병원",
    "type": "산재지정병원",
    "address": "경남 밀양시 삼문중앙로 32 (삼문동)",
    "tel": "0553542200",
    "lat": 35.484552,
    "lng": 128.755595
  },
  {
    "name": "밀양수치과의원",
    "category": "산재지정병원",
    "type": "산재지정병원",
    "address": "경남 밀양시 밀양대로 1761-10 (삼문동)",
    "tel": "0553512882",
    "lat": 35.482479,
    "lng": 128.751883
  },
  {
    "name": "의료법인지원의료재단 굿모닝병원",
    "category": "산재지정병원",
    "type": "산재지정병원",
    "address": "경남 밀양시 용평로5길 4-20 (용평동)",
    "tel": "0553559788",
    "lat": 35.490298,
    "lng": 128.767926
  },
  {
    "name": "밀양정형외과의원",
    "category": "산재지정병원",
    "type": "산재지정병원",
    "address": "경남 밀양시 중앙로 451 (내이동)",
    "tel": "0553565500",
    "lat": 35.499236,
    "lng": 128.745503
  },
  {
    "name": "(의)청도대남병원",
    "category": "산재지정병원",
    "type": "산재지정병원",
    "address": "경북 청도군 화양읍 청화로 79-7 ",
    "tel": "0543705107",
    "lat": 35.648717,
    "lng": 128.736866
  },
  {
    "name": "밀양병원",
    "category": "산재지정병원",
    "type": "산재지정병원",
    "address": "경남 밀양시 밀양대로 1823 (삼문동)",
    "tel": "0553513993",
    "lat": 35.487301,
    "lng": 128.748233
  },
  {
    "name": "마디연합정형외과",
    "category": "산재지정병원",
    "type": "산재지정병원",
    "address": "경북 청도군 청도읍 청화로 99 ",
    "tel": "0543739263",
    "lat": 35.647258,
    "lng": 128.738276
  },
  {
    "name": "제일치과의원",
    "category": "산재지정병원",
    "type": "산재지정병원",
    "address": "경남 밀양시 중앙로 395 2층 (내이동)",
    "tel": "0553550494",
    "lat": 35.496057,
    "lng": 128.74979
  },
  {
    "name": "나노병원",
    "category": "산재지정병원",
    "type": "산재지정병원",
    "address": "경남 밀양시 중앙로 229 (삼문동)",
    "tel": "0553537582",
    "lat": 35.483997,
    "lng": 128.757772
  },
  {
    "name": "삼성S정형외과연합의원",
    "category": "병의원",
    "type": "의원",
    "address": "경상북도 청도군 청도읍 청화로 193",
    "tel": "054-371-8800",
    "lat": 35.641825,
    "lng": 128.745919
  },
  {
    "name": "제일의원",
    "category": "병의원",
    "type": "의원",
    "address": "경상북도 청도군 청도읍 청화로 106 (청도읍)",
    "tel": "054-371-2930",
    "lat": 35.646636,
    "lng": 128.738486
  },
  {
    "name": "오용창 내과의원",
    "category": "병의원",
    "type": "의원",
    "address": "경상남도 밀양시 삼랑진읍 외송중앙길 4",
    "tel": "055-353-6933",
    "lat": 35.396127,
    "lng": 128.837404
  },
  {
    "name": "이서의원",
    "category": "병의원",
    "type": "의원",
    "address": "경상북도 청도군 이서면 학산1길 45 (이서면)",
    "tel": "054-373-7924",
    "lat": 35.662334,
    "lng": 128.667324
  },
  {
    "name": "현대의원",
    "category": "병의원",
    "type": "의원",
    "address": "경상북도 청도군 청도읍 청화로 193-1",
    "tel": "054-373-2616",
    "lat": 35.641939,
    "lng": 128.745997
  },
  {
    "name": "이정훈내과의원",
    "category": "병의원",
    "type": "의원",
    "address": "경상남도 밀양시 중앙로 358, (내일동)",
    "tel": "055-354-1476",
    "lat": 35.494371,
    "lng": 128.753182
  },
  {
    "name": "신일외과의원",
    "category": "병의원",
    "type": "의원",
    "address": "경상남도 밀양시 밀성로 12 (내이동)",
    "tel": "055-355-3877",
    "lat": 35.501784,
    "lng": 128.749632
  },
  {
    "name": "고운의원",
    "category": "병의원",
    "type": "의원",
    "address": "경상남도 밀양시 삼문중앙로 38, 2층 (삼문동)",
    "tel": "055-356-0775",
    "lat": 35.484986,
    "lng": 128.756185
  },
  {
    "name": "아름다운자모산부인과의원",
    "category": "병의원",
    "type": "의원",
    "address": "경상남도 밀양시 삼문중앙로 14 (삼문동)",
    "tel": "055-355-0348",
    "lat": 35.483724,
    "lng": 128.754088
  },
  {
    "name": "김종호내과의원",
    "category": "병의원",
    "type": "의원",
    "address": "경상북도 청도군 청도읍 중앙로 5",
    "tel": "054-371-1758",
    "lat": 35.642853,
    "lng": 128.745045
  },
  {
    "name": "밀양내과의원",
    "category": "병의원",
    "type": "의원",
    "address": "경상남도 밀양시 미리벌로 18 (삼문동)",
    "tel": "055-927-3737",
    "lat": 35.482333,
    "lng": 128.750614
  },
  {
    "name": "밀양한빛안과의원",
    "category": "병의원",
    "type": "의원",
    "address": "경상남도 밀양시 중앙로 249",
    "tel": "055-356-8075",
    "lat": 35.485715,
    "lng": 128.756651
  },
  {
    "name": "의료법인 생명사랑의료재단 밀양윤병원",
    "category": "병의원",
    "type": "병원",
    "address": "경상남도 밀양시 삼문중앙로 32 (삼문동)",
    "tel": "055-354-2200",
    "lat": 35.48468,
    "lng": 128.755645
  },
  {
    "name": "밀양병원",
    "category": "병의원",
    "type": "병원",
    "address": "경상남도 밀양시 밀양대로 1823 (삼문동)",
    "tel": "055-351-3993",
    "lat": 35.487178,
    "lng": 128.74857
  },
  {
    "name": "서울피부과의원",
    "category": "병의원",
    "type": "의원",
    "address": "경상남도 밀양시 중앙로 381, 4,5층(내이동,보람빌딩)",
    "tel": "055-351-0094",
    "lat": 35.495652,
    "lng": 128.751138
  },
  {
    "name": "하나정형외과의원",
    "category": "병의원",
    "type": "의원",
    "address": "경상남도 밀양시 중앙로 285 (삼문동)",
    "tel": "055-352-7075",
    "lat": 35.488233,
    "lng": 128.754362
  },
  {
    "name": "예림가정의학과의원",
    "category": "병의원",
    "type": "의원",
    "address": "경상남도 밀양시 상남면 고노실길 4",
    "tel": "055-355-7470",
    "lat": 35.459057,
    "lng": 128.751371
  },
  {
    "name": "밀양정형외과의원",
    "category": "병의원",
    "type": "의원",
    "address": "경상남도 밀양시 중앙로 451 (내이동)",
    "tel": "055-356-5500",
    "lat": 35.499244,
    "lng": 128.745504
  },
  {
    "name": "황의원",
    "category": "병의원",
    "type": "의원",
    "address": "경상남도 밀양시 삼랑진읍 천태로 75 (삼랑진읍)",
    "tel": "0553515005",
    "lat": 35.400048,
    "lng": 128.84289
  },
  {
    "name": "김내과의원",
    "category": "병의원",
    "type": "의원",
    "address": "경상남도 밀양시 내이2길 28, 2~5층 (내이동)",
    "tel": "055-353-5354",
    "lat": 35.496356,
    "lng": 128.7499
  },
  {
    "name": "석신경외과의원",
    "category": "병의원",
    "type": "의원",
    "address": "경상남도 밀양시 북성로 11-6, (내이동)",
    "tel": "055-355-3222",
    "lat": 35.498799,
    "lng": 128.744132
  },
  {
    "name": "늘푸른연합의원",
    "category": "병의원",
    "type": "의원",
    "address": "경상북도 청도군 청도읍 청화로 177",
    "tel": "054-372-7575",
    "lat": 35.642691,
    "lng": 128.744605
  },
  {
    "name": "속튼튼의원",
    "category": "병의원",
    "type": "의원",
    "address": "경상북도 청도군 청도읍 청화로 154, 3층 301호",
    "tel": "054-371-0075",
    "lat": 35.643694,
    "lng": 128.742644
  },
  {
    "name": "연세이비인후과의원",
    "category": "병의원",
    "type": "의원",
    "address": "경상남도 밀양시 삼문중앙로 37, 1층 (삼문동)",
    "tel": "055-354-0059",
    "lat": 35.485296,
    "lng": 128.756039
  },
  {
    "name": "정내과의원",
    "category": "병의원",
    "type": "의원",
    "address": "경상북도 청도군 청도읍 청화로 179 (청도읍)",
    "tel": "054-373-7511",
    "lat": 35.642603,
    "lng": 128.744713
  },
  {
    "name": "참이비인후과의원",
    "category": "병의원",
    "type": "의원",
    "address": "경상북도 청도군 청도읍 청화로 154, 2층 (청도읍)",
    "tel": "054-372-8383",
    "lat": 35.643692,
    "lng": 128.742644
  },
  {
    "name": "참편한제통의원",
    "category": "병의원",
    "type": "의원",
    "address": "경상북도 청도군 청도읍 청화로 195, 2,3층",
    "tel": "054-371-7575",
    "lat": 35.64165,
    "lng": 128.745867
  },
  {
    "name": "청도탑연합비뇨의학과의원",
    "category": "병의원",
    "type": "의원",
    "address": "경상북도 청도군 청도읍 청화로 179, 화산빌딩 3,4층",
    "tel": "054-373-1020",
    "lat": 35.642598,
    "lng": 128.744718
  },
  {
    "name": "의료법인대남의료재단청도대남병원",
    "category": "병의원",
    "type": "병원",
    "address": "경상북도 청도군 화양읍 청화로 79-7",
    "tel": "054-373-0606",
    "lat": 35.648713,
    "lng": 128.737113
  },
  {
    "name": "삼성안과의원",
    "category": "병의원",
    "type": "의원",
    "address": "경상북도 청도군 청도읍 청화로 154, 6층",
    "tel": "054-373-6845",
    "lat": 35.642617,
    "lng": 128.744727
  },
  {
    "name": "성심의원",
    "category": "병의원",
    "type": "의원",
    "address": "경상남도 밀양시 북성로 11-10, (내이동)",
    "tel": "055-355-8466",
    "lat": 35.499064,
    "lng": 128.744041
  },
  {
    "name": "안아픈세상정웅기의원",
    "category": "병의원",
    "type": "의원",
    "address": "경상남도 밀양시 무안면 사명로 480",
    "tel": "055-351-0360",
    "lat": 35.467428,
    "lng": 128.651106
  },
  {
    "name": "우안과의원",
    "category": "병의원",
    "type": "의원",
    "address": "경상남도 밀양시 석정로 7-1 (내일동, 남정빌딩)",
    "tel": "0553552112",
    "lat": 35.491513,
    "lng": 128.753164
  },
  {
    "name": "밀양선비뇨기과의원",
    "category": "병의원",
    "type": "의원",
    "address": "경상남도 밀양시 중앙로 413, 302호 (내이동)",
    "tel": "055-352-7512",
    "lat": 35.496542,
    "lng": 128.747802
  },
  {
    "name": "이보형소아청소년과의원",
    "category": "병의원",
    "type": "의원",
    "address": "경상남도 밀양시 중앙로 381",
    "tel": "055-351-2027",
    "lat": 35.495675,
    "lng": 128.751137
  },
  {
    "name": "홍의원",
    "category": "병의원",
    "type": "의원",
    "address": "경상남도 밀양시 약산로 42",
    "tel": "055-355-8600",
    "lat": 35.492486,
    "lng": 128.749362
  },
  {
    "name": "서울정형외과의원",
    "category": "병의원",
    "type": "의원",
    "address": "경상남도 밀양시 북성로 11-2 (내이동, (1층, 4층))",
    "tel": "055-356-9669",
    "lat": 35.498472,
    "lng": 128.744202
  },
  {
    "name": "의료법인지원의료재단 굿모닝병원",
    "category": "병의원",
    "type": "병원",
    "address": "경상남도 밀양시 용평로5길 4-20 (용평동)",
    "tel": "055-355-9788",
    "lat": 35.490297,
    "lng": 128.768048
  },
  {
    "name": "금송의원",
    "category": "병의원",
    "type": "의원",
    "address": "경상남도 밀양시 삼랑진읍 천태로 50",
    "tel": "055-351-1370",
    "lat": 35.39941,
    "lng": 128.840529
  },
  {
    "name": "라파마취통증의학과의원",
    "category": "병의원",
    "type": "의원",
    "address": "경상남도 밀양시 북성로 10 (내이동, 애플빌딩(3층))",
    "tel": "055-356-7506",
    "lat": 35.499244,
    "lng": 128.743681
  },
  {
    "name": "밀양미래연합의원",
    "category": "병의원",
    "type": "의원",
    "address": "경상남도 밀양시 북성로 10 (내이동)",
    "tel": "055-355-7588",
    "lat": 35.498051,
    "lng": 128.744014
  },
  {
    "name": "밀양성모안과의원",
    "category": "병의원",
    "type": "의원",
    "address": "경상남도 밀양시 중앙로 413, 4층 403호 (내이동)",
    "tel": "055-802-7005",
    "lat": 35.49657,
    "lng": 128.747768
  },
  {
    "name": "밀양이비인후과의원",
    "category": "병의원",
    "type": "의원",
    "address": "경상남도 밀양시 삼문강변로 344-6, 3층 4층 (삼문동)",
    "tel": "055-356-7017",
    "lat": 35.489306,
    "lng": 128.753746
  },
  {
    "name": "밀양정신건강의학과의원",
    "category": "병의원",
    "type": "의원",
    "address": "경상남도 밀양시 삼문중앙로 38, 2층 (삼문동)",
    "tel": "055-356-9111",
    "lat": 35.484976,
    "lng": 128.756144
  },
  {
    "name": "밀양탑비뇨기과의원",
    "category": "병의원",
    "type": "의원",
    "address": "경상남도 밀양시 북성로 11-2, 3층 (내이동)",
    "tel": "055-351-0030",
    "lat": 35.498474,
    "lng": 128.744213
  },
  {
    "name": "산내의원",
    "category": "병의원",
    "type": "의원",
    "address": "경상남도 밀양시 산내면 송백1길 20",
    "tel": "055-353-3785",
    "lat": 35.586419,
    "lng": 128.881784
  },
  {
    "name": "세광가정의학과의원",
    "category": "병의원",
    "type": "의원",
    "address": "경상남도 밀양시 가곡7길 3 (가곡동)",
    "tel": "055-355-7571",
    "lat": 35.474935,
    "lng": 128.767491
  },
  {
    "name": "송광호의원",
    "category": "병의원",
    "type": "의원",
    "address": "경상남도 밀양시 삼랑진읍 천태로 13-1, 1층",
    "tel": "055-351-0367",
    "lat": 35.396954,
    "lng": 128.838259
  },
  {
    "name": "양정신건강의학과의원",
    "category": "병의원",
    "type": "의원",
    "address": "경상남도 밀양시 북성로2길 15-9 (내이동)",
    "tel": "055-352-0075",
    "lat": 35.499373,
    "lng": 128.743849
  },
  {
    "name": "우리이비인후과의원",
    "category": "병의원",
    "type": "의원",
    "address": "경상남도 밀양시 중앙로 413, 2층 202호 (내이동, 제일메디칼빌딩)",
    "tel": "055-354-6433",
    "lat": 35.496542,
    "lng": 128.747802
  },
  {
    "name": "현대의원",
    "category": "병의원",
    "type": "의원",
    "address": "경상남도 밀양시 무안면 사명로 496-1",
    "tel": "055-351-1008",
    "lat": 35.468988,
    "lng": 128.651698
  },
  {
    "name": "미르아이병원",
    "category": "병의원",
    "type": "병원",
    "address": "경상남도 밀양시 미리벌중앙로 67, 2~4층 (삼문동)",
    "tel": "055-716-1275",
    "lat": 35.48373,
    "lng": 128.748495
  },
  {
    "name": "김보영안과의원",
    "category": "병의원",
    "type": "의원",
    "address": "경상남도 밀양시 삼문중앙로 49, 3층 (삼문동, 세종메디칼 빌딩)",
    "tel": "055-352-5965",
    "lat": 35.485822,
    "lng": 128.756939
  },
  {
    "name": "마디연합정형외과의원",
    "category": "병의원",
    "type": "의원",
    "address": "경상북도 청도군 청도읍 청화로 99",
    "tel": "054-373-9263",
    "lat": 35.647382,
    "lng": 128.738285
  },
  {
    "name": "해동연합의원",
    "category": "병의원",
    "type": "의원",
    "address": "경상북도 청도군 청도읍 청화로 82",
    "tel": "054-371-6555",
    "lat": 35.64754,
    "lng": 128.736297
  },
  {
    "name": "밀양정통의원",
    "category": "병의원",
    "type": "의원",
    "address": "경상남도 밀양시 중앙로 357 (내일동)",
    "tel": "055-355-0822",
    "lat": 35.494271,
    "lng": 128.752902
  },
  {
    "name": "미즈산부인과의원",
    "category": "병의원",
    "type": "의원",
    "address": "경상남도 밀양시 삼문중앙로 49  (삼문동)",
    "tel": "055-356-0025",
    "lat": 35.485976,
    "lng": 128.757053
  },
  {
    "name": "정내과의원",
    "category": "병의원",
    "type": "의원",
    "address": "경상남도 밀양시 중앙로 337, (내일동)",
    "tel": "055-354-6599",
    "lat": 35.492927,
    "lng": 128.753825
  },
  {
    "name": "밀양삼성안과의원",
    "category": "병의원",
    "type": "의원",
    "address": "경상남도 밀양시 북성로 11-2  (내이동)",
    "tel": "055-354-0202",
    "lat": 35.498482,
    "lng": 128.744216
  },
  {
    "name": "밀양퍼스트신경외과의원",
    "category": "병의원",
    "type": "의원",
    "address": "경상남도 밀양시 밀양대로 1757, JK빌딩 3층 (삼문동)",
    "tel": "055-353-8575",
    "lat": 35.482415,
    "lng": 128.752554
  },
  {
    "name": "안상준내과의원",
    "category": "병의원",
    "type": "의원",
    "address": "경상남도 밀양시 삼문중앙로 49, 4층(삼문동,세종빌딩)",
    "tel": "055-356-3400",
    "lat": 35.4858,
    "lng": 128.756865
  },
  {
    "name": "나노병원",
    "category": "병의원",
    "type": "병원",
    "address": "경상남도 밀양시 중앙로 229 (삼문동)",
    "tel": "055-351-1600",
    "lat": 35.484023,
    "lng": 128.757818
  },
  {
    "name": "제일병원",
    "category": "병의원",
    "type": "병원",
    "address": "경상남도 밀양시 노상하4길 4 (내이동)",
    "tel": "055-352-7851",
    "lat": 35.496238,
    "lng": 128.748242
  },
  {
    "name": "의료법인해동의료재단청도메타병원",
    "category": "병의원",
    "type": "병원",
    "address": "경상북도 청도군 청도읍 고수산복길 198",
    "tel": "054-370-9900",
    "lat": 35.633145,
    "lng": 128.750821
  },
  {
    "name": "갤러리의아침요양병원",
    "category": "요양병원",
    "type": "요양병원",
    "address": "경상남도 밀양시 내이신촌1길 14 (내이동)",
    "tel": "055-352-2006",
    "lat": 35.504993,
    "lng": 128.735101
  },
  {
    "name": "밀양요양병원",
    "category": "요양병원",
    "type": "요양병원",
    "address": "경상남도 밀양시 용평로6길 8 (용평동)",
    "tel": "055-355-5599",
    "lat": 35.488718,
    "lng": 128.772414
  },
  {
    "name": "의료법인 이유의료재단 희윤요양병원",
    "category": "요양병원",
    "type": "요양병원",
    "address": "경상남도 밀양시 부북면 춘화로 60",
    "tel": "055-355-0007",
    "lat": 35.509544,
    "lng": 128.745301
  },
  {
    "name": "의료법인행복한의료재단숲속요양병원",
    "category": "요양병원",
    "type": "요양병원",
    "address": "경상남도 밀양시 단장면 동화2길 36-59",
    "tel": "055-356-6119",
    "lat": 35.510308,
    "lng": 128.88646
  },
  {
    "name": "좋은연인요양병원",
    "category": "요양병원",
    "type": "요양병원",
    "address": "경상남도 밀양시 삼랑진읍 천태로 355-99",
    "tel": "055-350-9800",
    "lat": 35.416987,
    "lng": 128.867133
  },
  {
    "name": "군립청도노인요양병원",
    "category": "요양병원",
    "type": "요양병원",
    "address": "경상북도 청도군 화양읍 청화로 79-7",
    "tel": "054-370-5450",
    "lat": 35.648558,
    "lng": 128.73681
  },
  {
    "name": "의료법인영은의료재단 하나병원",
    "category": "요양병원",
    "type": "요양병원",
    "address": "경상북도 청도군 청도읍 청도신기길 78-10, 하나병원",
    "tel": "054-373-0911",
    "lat": 35.649373,
    "lng": 128.745403
  },
  {
    "name": "김남희한의원",
    "category": "한방병의원",
    "type": "한의원",
    "address": "경상남도 밀양시 중앙로 256",
    "tel": "055-351-1274",
    "lat": 35.486219,
    "lng": 128.75645
  },
  {
    "name": "은성한의원",
    "category": "한방병의원",
    "type": "한의원",
    "address": "경상남도 밀양시 중앙로 339-2 (내일동)",
    "tel": "055-353-3759",
    "lat": 35.492026,
    "lng": 128.753828
  },
  {
    "name": "약산한의원",
    "category": "한방병의원",
    "type": "한의원",
    "address": "경상남도 밀양시 백민로 62 (내이동)",
    "tel": "0553569195",
    "lat": 35.498132,
    "lng": 128.74699
  },
  {
    "name": "명인한의원",
    "category": "한방병의원",
    "type": "한의원",
    "address": "경상남도 밀양시 중앙로 226-1 (삼문동)",
    "tel": "055-353-3777",
    "lat": 35.484062,
    "lng": 128.758351
  },
  {
    "name": "명제한의원",
    "category": "한방병의원",
    "type": "한의원",
    "address": "경상남도 밀양시 미리벌중앙로8길 2, 3층 (삼문동)",
    "tel": "055-353-1100",
    "lat": 35.484814,
    "lng": 128.748011
  },
  {
    "name": "동인당한의원",
    "category": "한방병의원",
    "type": "한의원",
    "address": "경상남도 밀양시 북성로 24 (내이동)",
    "tel": "055-355-6500",
    "lat": 35.498381,
    "lng": 128.745395
  },
  {
    "name": "한마음한의원",
    "category": "한방병의원",
    "type": "한의원",
    "address": "경상남도 창원시 마산회원구 3·15대로 784, 2, 3층 (합성동)",
    "tel": "055-294-1075",
    "lat": 35.483855,
    "lng": 128.754147
  },
  {
    "name": "현산한의원",
    "category": "한방병의원",
    "type": "한의원",
    "address": "경상남도 밀양시 상동면 상동로 396",
    "tel": "055-352-2257",
    "lat": 35.553059,
    "lng": 128.762891
  },
  {
    "name": "한단디한의원",
    "category": "한방병의원",
    "type": "한의원",
    "address": "경상남도 밀양시 단장면 용회길 32",
    "tel": "055-354-5558",
    "lat": 35.517413,
    "lng": 128.861729
  },
  {
    "name": "바른수한의원",
    "category": "한방병의원",
    "type": "한의원",
    "address": "경상남도 밀양시 북성로 16 (내이동)",
    "tel": "055-352-4545",
    "lat": 35.498227,
    "lng": 128.74444
  },
  {
    "name": "우리한의원",
    "category": "한방병의원",
    "type": "한의원",
    "address": "경상남도 밀양시 중앙로 462",
    "tel": "055-356-0033",
    "lat": 35.500114,
    "lng": 128.745335
  },
  {
    "name": "우성한의원",
    "category": "한방병의원",
    "type": "한의원",
    "address": "경상남도 밀양시 노상하3길 8, (내이동)",
    "tel": "055-354-7177",
    "lat": 35.495735,
    "lng": 128.749126
  },
  {
    "name": "다산한의원",
    "category": "한방병의원",
    "type": "한의원",
    "address": "경상남도 밀양시 미리벌로 2 (삼문동)",
    "tel": "055-354-8354",
    "lat": 35.483161,
    "lng": 128.75215
  },
  {
    "name": "해맑은 한의원",
    "category": "한방병의원",
    "type": "한의원",
    "address": "경상남도 밀양시 삼문중앙로 42, 1층 (삼문동)",
    "tel": "055-802-7164",
    "lat": 35.485169,
    "lng": 128.756604
  },
  {
    "name": "경희한의원",
    "category": "한방병의원",
    "type": "한의원",
    "address": "경상남도 밀양시 북성로2길 15-9 (내이동)",
    "tel": "055-354-0408",
    "lat": 35.499287,
    "lng": 128.743889
  },
  {
    "name": "한마음한의원",
    "category": "한방병의원",
    "type": "한의원",
    "address": "경상남도 밀양시 삼문중앙로 14 (삼문동)",
    "tel": "055-351-1275",
    "lat": 35.483764,
    "lng": 128.754102
  },
  {
    "name": "튼튼한방병원",
    "category": "한방병의원",
    "type": "한방병원",
    "address": "경상남도 밀양시 밀양대로 1855 (삼문동, 1-2층)",
    "tel": "055-353-6000",
    "lat": 35.489572,
    "lng": 128.746312
  },
  {
    "name": "삼랑진한의원",
    "category": "한방병의원",
    "type": "한의원",
    "address": "경상남도 밀양시 삼랑진읍 천태로 12",
    "tel": "055-353-6660",
    "lat": 35.396847,
    "lng": 128.838015
  },
  {
    "name": "성혜한의원",
    "category": "한방병의원",
    "type": "한의원",
    "address": "경상남도 밀양시 백민로 56, 1-2층 (내이동)",
    "tel": "0553551553",
    "lat": 35.497491,
    "lng": 128.747245
  },
  {
    "name": "세종한의원",
    "category": "한방병의원",
    "type": "한의원",
    "address": "경상남도 밀양시 중앙로 52(가곡동)",
    "tel": "055-351-1377",
    "lat": 35.475902,
    "lng": 128.765935
  },
  {
    "name": "죽파한의원",
    "category": "한방병의원",
    "type": "한의원",
    "address": "경상남도 밀양시 삼문송림길 3, (삼문동)",
    "tel": "055-355-2727",
    "lat": 35.487586,
    "lng": 128.755516
  },
  {
    "name": "지산한의원",
    "category": "한방병의원",
    "type": "한의원",
    "address": "경상남도 밀양시 밀양중2길 32 (삼문동)",
    "tel": "055-356-3690",
    "lat": 35.484158,
    "lng": 128.756971
  },
  {
    "name": "정심한의원",
    "category": "한방병의원",
    "type": "한의원",
    "address": "경상남도 밀양시 삼랑진읍 외송3길 9-1",
    "tel": "055-352-3501",
    "lat": 35.397201,
    "lng": 128.836988
  },
  {
    "name": "무안한의원",
    "category": "한방병의원",
    "type": "한의원",
    "address": "경상남도 밀양시 무안면 사명로 514-1",
    "tel": "055-352-8428",
    "lat": 35.470517,
    "lng": 128.652197
  },
  {
    "name": "강남약손한의원",
    "category": "한방병의원",
    "type": "한의원",
    "address": "경상남도 밀양시 석정로 8, 1층 (내일동)",
    "tel": "055-354-5002",
    "lat": 35.491824,
    "lng": 128.753222
  },
  {
    "name": "대동한의원",
    "category": "한방병의원",
    "type": "한의원",
    "address": "경상남도 밀양시 삼문중앙로 40 (삼문동, 동아빌딩)",
    "tel": "0553527288",
    "lat": 35.485095,
    "lng": 128.756359
  },
  {
    "name": "사랑방한의원",
    "category": "한방병의원",
    "type": "한의원",
    "address": "경상남도 밀양시 삼문중앙로 23 (삼문동)",
    "tel": "055-353-1755",
    "lat": 35.484523,
    "lng": 128.754678
  },
  {
    "name": "삼거리한의원",
    "category": "한방병의원",
    "type": "한의원",
    "address": "경상북도 청도군 청도읍 중앙로 6",
    "tel": "054-372-7786",
    "lat": 35.642612,
    "lng": 128.745261
  },
  {
    "name": "재단법인자광학술원제한한의원",
    "category": "한방병의원",
    "type": "한의원",
    "address": "경상북도 청도군 이서면 학산길 55-11",
    "tel": "054-371-6077",
    "lat": 35.665203,
    "lng": 128.666853
  },
  {
    "name": "사랑한의원",
    "category": "한방병의원",
    "type": "한의원",
    "address": "경상북도 청도군 청도읍 청화로 203",
    "tel": "054-370-2203",
    "lat": 35.641031,
    "lng": 128.746419
  },
  {
    "name": "부야한의원",
    "category": "한방병의원",
    "type": "한의원",
    "address": "경상북도 청도군 청도읍 가마실길 1",
    "tel": "054-370-5800",
    "lat": 35.664723,
    "lng": 128.786829
  },
  {
    "name": "청도왕한의원",
    "category": "한방병의원",
    "type": "한의원",
    "address": "경상북도 청도군 화양읍 청화로 75 (화양읍)",
    "tel": "054-372-8773",
    "lat": 35.648092,
    "lng": 128.735729
  },
  {
    "name": "박영순한의원",
    "category": "한방병의원",
    "type": "한의원",
    "address": "경상북도 청도군 청도읍 청화로 155",
    "tel": "054-371-5678",
    "lat": 35.644012,
    "lng": 128.742898
  },
  {
    "name": "경희한의원",
    "category": "한방병의원",
    "type": "한의원",
    "address": "경상북도 청도군 청도읍 청화로 183-1, 2층",
    "tel": "054-373-3628",
    "lat": 35.643356,
    "lng": 128.742144
  },
  {
    "name": "부자한의원",
    "category": "한방병의원",
    "type": "한의원",
    "address": "경상북도 청도군 청도읍 고수구길 41",
    "tel": "054-371-2157",
    "lat": 35.645694,
    "lng": 128.73881
  },
  {
    "name": "윤치과의원",
    "category": "치과병의원",
    "type": "치과의원",
    "address": "경상남도 밀양시 삼문중앙로 40, 동아빌딩 나동 1층 (삼문동)",
    "tel": "055-802-8275",
    "lat": 35.485101,
    "lng": 128.75637
  },
  {
    "name": "로이스치과의원",
    "category": "치과병의원",
    "type": "치과의원",
    "address": "경상남도 밀양시 밀양대로 1761-10 (삼문동)",
    "tel": "055-351-2882",
    "lat": 35.48248,
    "lng": 128.751884
  },
  {
    "name": "미치과의원",
    "category": "치과병의원",
    "type": "치과의원",
    "address": "경상남도 밀양시 중앙로 234-3, 유성청구상가타운 2동 101층 2호 (삼문동)",
    "tel": "055--353-9599",
    "lat": 35.484855,
    "lng": 128.758136
  },
  {
    "name": "서울플란트치과의원",
    "category": "치과병의원",
    "type": "치과의원",
    "address": "경상남도 밀양시 중앙로 100-1, 2~3층 (가곡동)",
    "tel": "055-351-2875",
    "lat": 35.47558,
    "lng": 128.767187
  },
  {
    "name": "연세치과의원",
    "category": "치과병의원",
    "type": "치과의원",
    "address": "경상남도 밀양시 북성로 11-2, 2층 (내이동, 청미래빌딩)",
    "tel": "055-355-7925",
    "lat": 35.49847,
    "lng": 128.744204
  },
  {
    "name": "형제치과의원",
    "category": "치과병의원",
    "type": "치과의원",
    "address": "경상남도 밀양시 미리벌중앙로 75, 2층 (삼문동)",
    "tel": "055-351-2754",
    "lat": 35.484203,
    "lng": 128.748041
  },
  {
    "name": "바른이치과의원",
    "category": "치과병의원",
    "type": "치과의원",
    "address": "경상남도 밀양시 중앙로 295-1, 2층 (삼문동)",
    "tel": "055-355-2875",
    "lat": 35.489274,
    "lng": 128.753837
  },
  {
    "name": "밀양이플란트치과의원",
    "category": "치과병의원",
    "type": "치과의원",
    "address": "경상남도 밀양시 북성로 10, 4~5층 (내이동)",
    "tel": "055-356-2822",
    "lat": 35.498051,
    "lng": 128.744014
  },
  {
    "name": "미르치과의원",
    "category": "치과병의원",
    "type": "치과의원",
    "address": "경상남도 밀양시 밀양대로 1855, 3층 (삼문동)",
    "tel": "0553550275",
    "lat": 35.489572,
    "lng": 128.746312
  },
  {
    "name": "센텀플란트치과의원",
    "category": "치과병의원",
    "type": "치과의원",
    "address": "경상남도 밀양시 밀양대로 1757, 2층 (삼문동)",
    "tel": "055-373-2877",
    "lat": 35.482415,
    "lng": 128.752554
  },
  {
    "name": "e편한치과의원",
    "category": "치과병의원",
    "type": "치과의원",
    "address": "경상남도 밀양시 삼문강변로 344-6, 4층 (삼문동)",
    "tel": "055-351-2101",
    "lat": 35.489378,
    "lng": 128.753619
  },
  {
    "name": "남산치과의원",
    "category": "치과병의원",
    "type": "치과의원",
    "address": "경상남도 밀양시 밀양대로 1936-1, 2층 (내이동)",
    "tel": "055-354-2223",
    "lat": 35.496435,
    "lng": 128.743587
  },
  {
    "name": "동향치과 의원",
    "category": "치과병의원",
    "type": "치과의원",
    "address": "경상남도 밀양시 중앙로 119-1 (가곡동)",
    "tel": "055-355-7761",
    "lat": 35.476471,
    "lng": 128.765404
  },
  {
    "name": "미소치과의원",
    "category": "치과병의원",
    "type": "치과의원",
    "address": "경상남도 밀양시 삼랑진읍 삼랑진로 212-1",
    "tel": "055-352-2324",
    "lat": 35.396024,
    "lng": 128.837107
  },
  {
    "name": "보스톤치과의원",
    "category": "치과병의원",
    "type": "치과의원",
    "address": "경상남도 밀양시 내이1길 29(내이동)",
    "tel": "055-356-7528",
    "lat": 35.496721,
    "lng": 128.746552
  },
  {
    "name": "손치과의원",
    "category": "치과병의원",
    "type": "치과의원",
    "address": "경상남도 밀양시 중앙로 347, 2층 (내일동)",
    "tel": "055-352-3034",
    "lat": 35.491324,
    "lng": 128.751322
  },
  {
    "name": "시민치과의원",
    "category": "치과병의원",
    "type": "치과의원",
    "address": "경상남도 밀양시 약산로 43-1 (내이동)",
    "tel": "055-352-2345",
    "lat": 35.492873,
    "lng": 128.749645
  },
  {
    "name": "우리치과의원",
    "category": "치과병의원",
    "type": "치과의원",
    "address": "경상남도 밀양시 북성로 11-8 (내이동)",
    "tel": "055-353-0828",
    "lat": 35.498908,
    "lng": 128.74409
  },
  {
    "name": "이레치과의원",
    "category": "치과병의원",
    "type": "치과의원",
    "address": "경상남도 밀양시 삼문중앙로 37, 2층 (삼문동)",
    "tel": "055-353-8822",
    "lat": 35.485298,
    "lng": 128.756038
  },
  {
    "name": "제일치과의원",
    "category": "치과병의원",
    "type": "치과의원",
    "address": "경상남도 밀양시 중앙로 395 (내이동)",
    "tel": "055-355-0494",
    "lat": 35.496057,
    "lng": 128.749776
  },
  {
    "name": "탄탄치과의원",
    "category": "치과병의원",
    "type": "치과의원",
    "address": "경상남도 밀양시 석정로 7-1 (내일동, 밀양메디칼빌딩 3층)",
    "tel": "055-352-5742",
    "lat": 35.491526,
    "lng": 128.752988
  },
  {
    "name": "무안치과의원",
    "category": "치과병의원",
    "type": "치과의원",
    "address": "경상남도 밀양시 무안면 사명로 504-1",
    "tel": "055-351-1595",
    "lat": 35.469617,
    "lng": 128.651834
  },
  {
    "name": "이왕치과의원",
    "category": "치과병의원",
    "type": "치과의원",
    "address": "경상북도 청도군 청도읍 청화로 154, 이왕치과의원 4층",
    "tel": "054-372-2804",
    "lat": 35.643694,
    "lng": 128.742644
  },
  {
    "name": "전동일치과의원",
    "category": "치과병의원",
    "type": "치과의원",
    "address": "경상북도 청도군 청도읍 청화로 196",
    "tel": "054-373-7173",
    "lat": 35.641603,
    "lng": 128.746043
  },
  {
    "name": "서울치과의원",
    "category": "치과병의원",
    "type": "치과의원",
    "address": "경상북도 청도군 청도읍 청화로 155",
    "tel": "054-373-7528",
    "lat": 35.644059,
    "lng": 128.742974
  },
  {
    "name": "광명부부치과의원",
    "category": "치과병의원",
    "type": "치과의원",
    "address": "경상북도 청도군 청도읍 청화로 149",
    "tel": "054-371-0275",
    "lat": 35.644207,
    "lng": 128.742526
  },
  {
    "name": "청도치과의원",
    "category": "치과병의원",
    "type": "치과의원",
    "address": "경상북도 청도군 청도읍 청화로 189-2",
    "tel": "054-373-1875",
    "lat": 35.641977,
    "lng": 128.745404
  },
  {
    "name": "청도선치과의원",
    "category": "치과병의원",
    "type": "치과의원",
    "address": "경상북도 청도군 화양읍 청화로 77, 1층",
    "tel": "054-373-2804",
    "lat": 35.647921,
    "lng": 128.736161
  },
  {
    "name": "강남탑치과의원",
    "category": "치과병의원",
    "type": "치과의원",
    "address": "경상북도 청도군 청도읍 청화로 177, 2층",
    "tel": "054-371-2879",
    "lat": 35.64269,
    "lng": 128.744597
  },
  {
    "name": "안아약국",
    "category": "약국",
    "type": "약국",
    "address": "경상남도 밀양시 밀양대로 1819, (삼문동)",
    "tel": "055-356-8091",
    "lat": 35.48705,
    "lng": 128.748968
  },
  {
    "name": "행복약국",
    "category": "약국",
    "type": "약국",
    "address": "경상남도 밀양시 노상하4길 5 (내이동)",
    "tel": "070-4388-0013",
    "lat": 35.496262,
    "lng": 128.748708
  },
  {
    "name": "미리벌약국",
    "category": "약국",
    "type": "약국",
    "address": "경상남도 밀양시 미리벌로 18, 1층 (삼문동)",
    "tel": "055-352-6331",
    "lat": 35.482333,
    "lng": 128.750614
  },
  {
    "name": "강약국",
    "category": "약국",
    "type": "약국",
    "address": "경상남도 밀양시 삼랑진읍 외송중앙길 3 (삼랑진읍)",
    "tel": "055-352-9955",
    "lat": 35.396328,
    "lng": 128.837461
  },
  {
    "name": "샛별약국",
    "category": "약국",
    "type": "약국",
    "address": "경상남도 밀양시 약산로 42",
    "tel": "055-354-1600",
    "lat": 35.49258,
    "lng": 128.749303
  },
  {
    "name": "규태약국",
    "category": "약국",
    "type": "약국",
    "address": "경상남도 밀양시 삼문중앙로 34",
    "tel": "055-355-8012",
    "lat": 35.484804,
    "lng": 128.755793
  },
  {
    "name": "단골약국",
    "category": "약국",
    "type": "약국",
    "address": "경상남도 밀양시 북성로 10, 1층 (내이동)",
    "tel": "055-354-1578",
    "lat": 35.498052,
    "lng": 128.743849
  },
  {
    "name": "화산약국",
    "category": "약국",
    "type": "약국",
    "address": "경상북도 청도군 청도읍 청화로 179 ",
    "tel": "054-373-0078",
    "lat": 35.642598,
    "lng": 128.744717
  },