[
  {
    "name": "거제고용복지플러스센터",
    "category": "관공서",
    "type": "관공서",
    "address": "경상남도 거제시 서문로 5길 6, 우형빌딩 3층",
    "tel": "055-730-1919",
    "lat": 34.889224,
    "lng": 128.621054
  },
  {
    "name": "경남남부세관",
    "category": "관공서",
    "type": "관공서",
    "address": "경상남도 거제시 장승로 127 (장승포동)",
    "tel": "055-639-7519",
    "lat": 34.8657,
    "lng": 128.723695
  },
  {
    "name": "거제지서",
    "category": "관공서",
    "type": "관공서",
    "address": "경상남도 거제시 계룡로 11길 9",
    "tel": "055-630-7200",
    "lat": 34.882032,
    "lng": 128.620052
  },
  {
    "name": "거제출장소",
    "category": "관공서",
    "type": "관공서",
    "address": "경상남도 거제시 연초면 연사1길 24",
    "tel": "055-681-8133",
    "lat": 34.912373,
    "lng": 128.647722
  },
  {
    "name": "거제우체국",
    "category": "관공서",
    "type": "관공서",
    "address": "경상남도 거제시 거제중앙로17길 19 (고현동)",
    "tel": "055-636-7004",
    "lat": 34.883773,
    "lng": 128.623235
  },
  {
    "name": "장승포우체국",
    "category": "관공서",
    "type": "관공서",
    "address": "경상남도 거제시 장승포로 59 (장승포동)",
    "tel": "055-681-2001",
    "lat": 34.866821,
    "lng": 128.730264
  },
  {
    "name": "거제동상우체국",
    "category": "관공서",
    "type": "관공서",
    "address": "경상남도 거제시 거제면 읍내로2길 18",
    "tel": "055-633-4000",
    "lat": 34.85083,
    "lng": 128.59156
  },
  {
    "name": "거제일운우체국",
    "category": "관공서",
    "type": "관공서",
    "address": "경상남도 거제시 일운면 지세포로 104",
    "tel": "055-681-0700",
    "lat": 34.829953,
    "lng": 128.70372
  },
  {
    "name": "거제사등우체국",
    "category": "관공서",
    "type": "관공서",
    "address": "경상남도 거제시 사등면 성포로 144",
    "tel": "055-632-5700",
    "lat": 34.92053,
    "lng": 128.524428
  },
  {
    "name": "거제동부우체국",
    "category": "관공서",
    "type": "관공서",
    "address": "경상남도 거제시 동부면 동부로 18",
    "tel": "055-633-2000",
    "lat": 34.82154,
    "lng": 128.608475
  },
  {
    "name": "거제옥포동우체국",
    "category": "관공서",
    "type": "관공서",
    "address": "경상남도 거제시 옥포로10길 12 (옥포동)",
    "tel": "055-687-2003",
    "lat": 34.891093,
    "lng": 128.692698
  },
  {
    "name": "거제능포동우체국",
    "category": "관공서",
    "type": "관공서",
    "address": "경상남도 거제시 능포로 141 (능포동)",
    "tel": "055-682-4300",
    "lat": 34.876552,
    "lng": 128.731507
  },
  {
    "name": "거제장평동우체국",
    "category": "관공서",
    "type": "관공서",
    "address": "경상남도 거제시 장평로 52 (장평동)",
    "tel": "055-637-0090",
    "lat": 34.891381,
    "lng": 128.611532
  },
  {
    "name": "거제외포우체국",
    "category": "관공서",
    "type": "관공서",
    "address": "경상남도 거제시 장목면 외포4길 8",
    "tel": "055-636-6003",
    "lat": 34.942962,
    "lng": 128.71595
  },
  {
    "name": "거제외포우편취급국",
    "category": "관공서",
    "type": "관공서",
    "address": "경상남도 거제시 장목면 외포4길 8 거제외포우체국",
    "tel": "055-635-3222",
    "lat": 34.942962,
    "lng": 128.71595
  },
  {
    "name": "거제둔덕우체국",
    "category": "관공서",
    "type": "관공서",
    "address": "경상남도 거제시 둔덕면 하둔길 67-1",
    "tel": "055-633-5600",
    "lat": 34.840373,
    "lng": 128.508469
  },
  {
    "name": "거제남부우체국",
    "category": "관공서",
    "type": "관공서",
    "address": "경상남도 거제시 남부면 남부해안로 56",
    "tel": "055-633-1700",
    "lat": 34.733701,
    "lng": 128.60866
  },
  {
    "name": "거제남부출장소",
    "category": "관공서",
    "type": "관공서",
    "address": "경상남도 거제시 남부면 남부해안로 30 남부면사무소",
    "tel": "055-633-1700",
    "lat": 34.732227,
    "lng": 128.610098
  },
  {
    "name": "거제장목우체국",
    "category": "관공서",
    "type": "관공서",
    "address": "경상남도 거제시 장목면 옥포대첩로 1595-1",
    "tel": "055-635-1700",
    "lat": 34.985896,
    "lng": 128.681722
  },
  {
    "name": "거제연초우체국",
    "category": "관공서",
    "type": "관공서",
    "address": "경상남도 거제시 연초면 거제북로 42-1",
    "tel": "055-636-6700",
    "lat": 34.914549,
    "lng": 128.655804
  },
  {
    "name": "거제아주우편취급국",
    "category": "관공서",
    "type": "관공서",
    "address": "경상남도 거제시 거제대로 3449 (아주동)",
    "tel": "055-682-4949",
    "lat": 34.867502,
    "lng": 128.693141
  },
  {
    "name": "거제고현우편취급국",
    "category": "관공서",
    "type": "관공서",
    "address": "경상남도 거제시 서문로 46-1 (고현동)",
    "tel": "055-632-3566",
    "lat": 34.888834,
    "lng": 128.621161
  },
  {
    "name": "거제중곡우편취급국",
    "category": "관공서",
    "type": "관공서",
    "address": "경상남도 거제시 중곡로1길 26-2 (고현동)",
    "tel": "055-634-3322",
    "lat": 34.893415,
    "lng": 128.627812
  },
  {
    "name": "거제시청",
    "category": "관공서",
    "type": "관공서",
    "address": "경상남도 거제시 계룡로 125",
    "tel": "055-639-3000",
    "lat": 34.880386,
    "lng": 128.621252
  },
  {
    "name": "거제면사무소",
    "category": "관공서",
    "type": "관공서",
    "address": "경상남도 거제시 서상길 1",
    "tel": "055-639-6004",
    "lat": 34.851034,
    "lng": 128.590438
  },
  {
    "name": "남부면사무소",
    "category": "관공서",
    "type": "관공서",
    "address": "경상남도 거제시 남부면 남부해안로 30",
    "tel": "055-639-6003",
    "lat": 34.732227,
    "lng": 128.610098
  },
  {
    "name": "동부면사무소",
    "category": "관공서",
    "type": "관공서",
    "address": "경상남도 거제시 동부면 동부로 16",
    "tel": "055-639-6002",
    "lat": 34.821608,
    "lng": 128.608118
  },
  {
    "name": "둔덕면사무소",
    "category": "관공서",
    "type": "관공서",
    "address": "경상남도 거제시 둔덕면 거제남서로 4620",
    "tel": "055-639-6005",
    "lat": 34.836905,
    "lng": 128.505101
  },
  {
    "name": "사등면사무소",
    "category": "관공서",
    "type": "관공서",
    "address": "경상남도 거제시 사등면 성포로 104",
    "tel": "055-639-6006",
    "lat": 34.918919,
    "lng": 128.522299
  },
  {
    "name": "연초면사무소",
    "category": "관공서",
    "type": "관공서",
    "address": "경상남도 거제시 연초면 죽토로 11",
    "tel": "055-639-6007",
    "lat": 34.914585,
    "lng": 128.65652
  },
  {
    "name": "일운면사무소",
    "category": "관공서",
    "type": "관공서",
    "address": "경상남도 거제시 일운면 지세포4길 7",
    "tel": "055-639-6001",
    "lat": 34.829699,
    "lng": 128.703153
  },
  {
    "name": "장목면사무소",
    "category": "관공서",
    "type": "관공서",
    "address": "경상남도 거제시 장목면 장동1길 46-1",
    "tel": "055-639-6009",
    "lat": 34.986522,
    "lng": 128.682251
  },
  {
    "name": "하청면사무소",
    "category": "관공서",
    "type": "관공서",
    "address": "경상남도 거제시 하청면 하청로 12-7",
    "tel": "055-639-6008",
    "lat": 34.955346,
    "lng": 128.655183
  },
  {
    "name": "고현동주민센터",
    "category": "관공서",
    "type": "관공서",
    "address": "경상남도 거제시 거제중앙로13길 24",
    "tel": "055-639-6017",
    "lat": 34.882596,
    "lng": 128.623366
  },
  {
    "name": "능포동주민센터",
    "category": "관공서",
    "type": "관공서",
    "address": "경상남도 거제시 능포로 182",
    "tel": "055-639-6012",
    "lat": 34.879169,
    "lng": 128.734619
  },
  {
    "name": "상문동주민센터",
    "category": "관공서",
    "type": "관공서",
    "address": "경상남도 거제시 거제중앙로 1641",
    "tel": "055-639-6018",
    "lat": 34.86802,
    "lng": 128.637974
  },
  {
    "name": "수양동주민센터",
    "category": "관공서",
    "type": "관공서",
    "address": "경상남도 거제시 제산로5길 26",
    "tel": "055-639-6019",
    "lat": 34.887959,
    "lng": 128.646222
  },
  {
    "name": "아주동주민센터",
    "category": "관공서",
    "type": "관공서",
    "address": "경상남도 거제시 아주로3길 7",
    "tel": "055-639-6013",
    "lat": 34.865989,
    "lng": 128.692114
  },
  {
    "name": "옥포1동주민센터",
    "category": "관공서",
    "type": "관공서",
    "address": "경상남도 거제시 옥포로2길 7",
    "tel": "055-639-6014",
    "lat": 34.892216,
    "lng": 128.692189
  },
  {
    "name": "옥포2동주민센터",
    "category": "관공서",
    "type": "관공서",
    "address": "경상남도 거제시 옥포로25길 20",
    "tel": "055-639-6015",
    "lat": 34.896609,
    "lng": 128.687581
  },
  {
    "name": "장승포동주민센터",
    "category": "관공서",
    "type": "관공서",
    "address": "경상남도 거제시 장승로 146-25",
    "tel": "055-639-6010",
    "lat": 34.867304,
    "lng": 128.72721
  },
  {
    "name": "장평동주민센터",
    "category": "관공서",
    "type": "관공서",
    "address": "경상남도 거제시 장평3로 10",
    "tel": "055-639-6016",
    "lat": 34.889452,
    "lng": 128.609413
  },
  {
    "name": "농업기술센터",
    "category": "관공서",
    "type": "관공서",
    "address": "경상남도 거제시 계룡로11길 21",
    "tel": "055-639-6311",
    "lat": 34.882049,
    "lng": 128.618995
  },
  {
    "name": "보건소",
    "category": "관공서",
    "type": "관공서",
    "address": "경상남도 거제시 수양로 506",
    "tel": "055-639-6111",
    "lat": 34.891937,
    "lng": 128.636625
  },
  {
    "name": "거제면보건지소",
    "category": "관공서",
    "type": "관공서",
    "address": "경상남도 거제시 거제면 읍내로7길 23",
    "tel": "055-639-6257",
    "lat": 34.847654,
    "lng": 128.591133
  },
  {
    "name": "남부면보건지소",
    "category": "관공서",
    "type": "관공서",
    "address": "경상남도 거제시 남부면 저구1길 37-1",
    "tel": "055-639-6255",
    "lat": 34.730734,
    "lng": 128.607647
  },
  {
    "name": "동부면보건지소",
    "category": "관공서",
    "type": "관공서",
    "address": "경상남도 거제시 동부면 동부로2길 21-1",
    "tel": "055-639-6253",
    "lat": 34.822114,
    "lng": 128.607222
  },
  {
    "name": "둔덕면보건지소",
    "category": "관공서",
    "type": "관공서",
    "address": "경상남도 거제시 둔덕면 거제남서로 4606",
    "tel": "055-639-6259",
    "lat": 34.837686,
    "lng": 128.506139
  },
  {
    "name": "사등면보건지소",
    "category": "관공서",
    "type": "관공서",
    "address": "경상남도 거제시 사등면 성포로 104-1",
    "tel": "055-639-6261",
    "lat": 34.918576,
    "lng": 128.522673
  },
  {
    "name": "아주보건지소",
    "category": "관공서",
    "type": "관공서",
    "address": "경상남도 거제시 아주로3길 25",
    "tel": "055-639-6271",
    "lat": 34.864714,
    "lng": 128.690913
  },
  {
    "name": "연초면보건지소",
    "category": "관공서",
    "type": "관공서",
    "address": "경상남도 거제시 연초면 죽토로 11",
    "tel": "055-639-6263",
    "lat": 34.914585,
    "lng": 128.65652
  },
  {
    "name": "일운면보건지소",
    "category": "관공서",
    "type": "관공서",
    "address": "경상남도 거제시 일운면 지세포해안로 105",
    "tel": "055-639-6251",
    "lat": 34.82931,
    "lng": 128.706477
  },
  {
    "name": "장목면보건지소",
    "category": "관공서",
    "type": "관공서",
    "address": "경상남도 거제시 장목면 거제북로 1195",
    "tel": "055-639-6269",
    "lat": 34.989645,
    "lng": 128.681738
  },
  {
    "name": "칠천보건지소",
    "category": "관공서",
    "type": "관공서",
    "address": "경상남도 거제시 하청면 칠천로 274",
    "tel": "055-639-6267",
    "lat": 34.980271,
    "lng": 128.631155
  },
  {
    "name": "하청면보건지소",
    "category": "관공서",
    "type": "관공서",
    "address": "경상남도 거제시 하청면 하청로 12-9",
    "tel": "055-639-6265",
    "lat": 34.955154,
    "lng": 128.655612
  },
  {
    "name": "고현항 근린공원1 물놀이터",
    "category": "어린이놀이시설",
    "type": "어린이놀이시설",
    "address": "경남 거제시 고현항로 18",
    "tel": "",
    "lat": 34.894598,
    "lng": 128.623281
  },
  {
    "name": "한길공원 어린이 놀이터",
    "category": "어린이놀이시설",
    "type": "어린이놀이시설",
    "address": "경남 거제시 고현항로 18",
    "tel": "",
    "lat": 34.89301,
    "lng": 128.62127
  },
  {
    "name": "더샾거제디클리브아파트 어린이물놀이터",
    "category": "어린이놀이시설",
    "type": "어린이놀이시설",
    "address": "경남 거제시 상동7길 68-3",
    "tel": "",
    "lat": 34.86621,
    "lng": 128.630978
  },
  {
    "name": "더샾거제디클리브아파트 유아놀이터",
    "category": "어린이놀이시설",
    "type": "어린이놀이시설",
    "address": "경남 거제시 상동7길 68-3",
    "tel": "",
    "lat": 34.86621,
    "lng": 128.630978
  },
  {
    "name": "더샾거제디클리브아파트 어린이놀이터3",
    "category": "어린이놀이시설",
    "type": "어린이놀이시설",
    "address": "경남 거제시 상동7길 68-3",
    "tel": "",
    "lat": 34.86621,
    "lng": 128.630978
  },
  {
    "name": "더샵거제디클리브아파트 어린이놀이터2",
    "category": "어린이놀이시설",
    "type": "어린이놀이시설",
    "address": "경남 거제시 상동7길 68-3",
    "tel": "",
    "lat": 34.86621,
    "lng": 128.630978
  },
  {
    "name": "더샵거제디클리브아파트 어린이놀이터1",
    "category": "어린이놀이시설",
    "type": "어린이놀이시설",
    "address": "경남 거제시 상동7길 68-3",
    "tel": "",
    "lat": 34.86621,
    "lng": 128.630978
  },
  {
    "name": "해남식당 디큐브거제점",
    "category": "어린이놀이시설",
    "type": "어린이놀이시설",
    "address": "경남 거제시 장평로 12",
    "tel": "",
    "lat": 34.890759,
    "lng": 128.616472
  },
  {
    "name": "e편한세상 거제유로스카이 208동 1층 실내놀이시설",
    "category": "어린이놀이시설",
    "type": "어린이놀이시설",
    "address": "경남 거제시 고현항2로 51",
    "tel": "",
    "lat": 34.896114,
    "lng": 128.621671
  },
  {
    "name": "바다소리광장",
    "category": "어린이놀이시설",
    "type": "어린이놀이시설",
    "address": "경남 거제시 거제면 읍내로13길 49-11",
    "tel": "",
    "lat": 34.849301,
    "lng": 128.58425
  },
  {
    "name": "대패생각 내 어린이놀이시설",
    "category": "어린이놀이시설",
    "type": "어린이놀이시설",
    "address": "경남 거제시 거제대로 3497-4",
    "tel": "",
    "lat": 34.870443,
    "lng": 128.689541
  },
  {
    "name": "거제용산초등학교 병설유치원 놀이시설",
    "category": "어린이놀이시설",
    "type": "어린이놀이시설",
    "address": "경남 거제시 상동7길 58",
    "tel": "",
    "lat": 34.86738,
    "lng": 128.631151
  },
  {
    "name": "쥬키퍼스",
    "category": "어린이놀이시설",
    "type": "어린이놀이시설",
    "address": "경남 거제시 장평로 12",
    "tel": "",
    "lat": 34.890759,
    "lng": 128.616472
  },
  {
    "name": "리틀크레용 정글짐",
    "category": "어린이놀이시설",
    "type": "어린이놀이시설",
    "address": "경남 거제시 일운면 지세포로 110",
    "tel": "",
    "lat": 34.830157,
    "lng": 128.703376
  },
  {
    "name": "더샵 거제 디클리브 아파트 내 어린이놀이시설",
    "category": "어린이놀이시설",
    "type": "어린이놀이시설",
    "address": "경남 거제시 상동5길 46",
    "tel": "",
    "lat": 34.866779,
    "lng": 128.633503
  },
  {
    "name": "일운어린이놀이터 1",
    "category": "어린이놀이시설",
    "type": "어린이놀이시설",
    "address": "경남 거제시 일운면 지세포해안로 15-10",
    "tel": "",
    "lat": 34.836521,
    "lng": 128.701332
  },
  {
    "name": "일운어린이놀이터 2",
    "category": "어린이놀이시설",
    "type": "어린이놀이시설",
    "address": "경남 거제시 일운면 지세포해안로 15-10",
    "tel": "",
    "lat": 34.836489,
    "lng": 128.701351
  },
  {
    "name": "화인아트빌라 A동 놀이터",
    "category": "어린이놀이시설",
    "type": "어린이놀이시설",
    "address": "경상남도 거제시 서문로3길 1 (고현동)",
    "tel": "",
    "lat": 34.888454,
    "lng": 128.619042
  },
  {
    "name": "화인아트빌라 B동 놀이터",
    "category": "어린이놀이시설",
    "type": "어린이놀이시설",
    "address": "경상남도 거제시 서문로3길 7 (고현동, 화인아트빌라)",
    "tel": "",
    "lat": 34.888628,
    "lng": 128.617874
  },
  {
    "name": "대동피렌체아파트",
    "category": "어린이놀이시설",
    "type": "어린이놀이시설",
    "address": "경상남도 거제시 중곡로2길 56 (고현동, 대동피렌체아파트)",
    "tel": "",
    "lat": 34.893603,
    "lng": 128.634169
  },
  {
    "name": "덕산베스트타운 101동 놀이터",
    "category": "어린이놀이시설",
    "type": "어린이놀이시설",
    "address": "경상남도 거제시 중곡로 40 (고현동)",
    "tel": "",
    "lat": 34.896246,
    "lng": 128.630375
  },
  {
    "name": "덕산베스트타운 108동 놀이터",
    "category": "어린이놀이시설",
    "type": "어린이놀이시설",
    "address": "경상남도 거제시 중곡로 40 (고현동)",
    "tel": "",
    "lat": 34.896246,
    "lng": 128.630375
  },
  {
    "name": "덕산베스트타운 112동 놀이터",
    "category": "어린이놀이시설",
    "type": "어린이놀이시설",
    "address": "경상남도 거제시 중곡로 40 (고현동)",
    "tel": "",
    "lat": 34.896246,
    "lng": 128.630375
  },
  {
    "name": "덕산베스트타운 113동 놀이터",
    "category": "어린이놀이시설",
    "type": "어린이놀이시설",
    "address": "경상남도 거제시 중곡로 40 (고현동)",
    "tel": "",
    "lat": 34.896246,
    "lng": 128.630375
  },
  {
    "name": "덕산2차베스트타운 216동",
    "category": "어린이놀이시설",
    "type": "어린이놀이시설",
    "address": "경상남도 거제시 중곡2로 89 (고현동, 거제2차덕산베스트타운)",
    "tel": "",
    "lat": 34.89666,
    "lng": 128.636479
  },
  {
    "name": "신우스위트빌1차아파트(105동 앞)",
    "category": "어린이놀이시설",
    "type": "어린이놀이시설",
    "address": "경상남도 거제시 상동1길 31 (상동동, 신우스위트1차아파트)",
    "tel": "",
    "lat": 34.862991,
    "lng": 128.637938
  },
  {
    "name": "삼성명가타운 1",
    "category": "어린이놀이시설",
    "type": "어린이놀이시설",
    "address": "경상남도 거제시 거제중앙로3길 15 (상동동, 삼성명가타운)",
    "tel": "",
    "lat": 34.875669,
    "lng": 128.628088
  },
  {
    "name": "SK-뷰 1(104동 놀이터)",
    "category": "어린이놀이시설",
    "type": "어린이놀이시설",
    "address": "경상남도 거제시 상동1길 39 (상동동, SK뷰아파트)",
    "tel": "",
    "lat": 34.86251,
    "lng": 128.637031
  },
  {
    "name": "태완노블리안",
    "category": "어린이놀이시설",
    "type": "어린이놀이시설",
    "address": "경상남도 거제시 장평1로 180 (장평동, 태완노블리안)",
    "tel": "",
    "lat": 34.890547,
    "lng": 128.601536
  },
  {
    "name": "일성한빛타운",
    "category": "어린이놀이시설",
    "type": "어린이놀이시설",
    "address": "경상남도 거제시 장평3로3길 41 (장평동, 일성한빛타운)",
    "tel": "",
    "lat": 34.890309,
    "lng": 128.604403
  },
  {
    "name": "수창프라임시티아파트",
    "category": "어린이놀이시설",
    "type": "어린이놀이시설",
    "address": "경상남도 거제시 거제대로 4951 (장평동, 거제수창프라임시티아파트)",
    "tel": "",
    "lat": 34.8891,
    "lng": 128.595691
  },
  {
    "name": "한양훼미리아파트",
    "category": "어린이놀이시설",
    "type": "어린이놀이시설",
    "address": "경상남도 거제시 옥포로 269 (옥포동, 한양훼밀리아파트)",
    "tel": "",
    "lat": 34.898057,
    "lng": 128.687937
  },
  {
    "name": "동원우성빌라트",
    "category": "어린이놀이시설",
    "type": "어린이놀이시설",
    "address": "경상남도 거제시 옥포대첩로 88 (옥포동, 동원우성빌라트)",
    "tel": "",
    "lat": 34.894355,
    "lng": 128.697632
  },
  {
    "name": "덕산2차아파트",
    "category": "어린이놀이시설",
    "type": "어린이놀이시설",
    "address": "경상남도 거제시 옥포로 298 (옥포동, 덕산2차아파트)",
    "tel": "",
    "lat": 34.901164,
    "lng": 128.686402
  },
  {
    "name": "숲속의아침 아파트 104동놀이터",
    "category": "어린이놀이시설",
    "type": "어린이놀이시설",
    "address": "경상남도 거제시 용소7길 20 (아주동, 숲속의아침)",
    "tel": "",
    "lat": 34.878716,
    "lng": 128.690637
  },
  {
    "name": "광우보람아파트",
    "category": "어린이놀이시설",
    "type": "어린이놀이시설",
    "address": "경상남도 거제시 용소4길 5 (아주동, 광우보람맨션)",
    "tel": "",
    "lat": 34.874778,
    "lng": 128.688405
  },
  {
    "name": "능포대우아파트 1(정문)",
    "category": "어린이놀이시설",
    "type": "어린이놀이시설",
    "address": "경상남도 거제시 능포로 199 (능포동, 능포아파트)",
    "tel": "",
    "lat": 34.880697,
    "lng": 128.734906
  },
  {
    "name": "옥명대우아파트 3 110동 앞",
    "category": "어린이놀이시설",
    "type": "어린이놀이시설",
    "address": "경상남도 거제시 능포로2길 38 (능포동, 옥명대우아파트)",
    "tel": "",
    "lat": 34.874521,
    "lng": 128.732747
  },
  {
    "name": "양정어린이집",
    "category": "어린이놀이시설",
    "type": "어린이놀이시설",
    "address": "경상남도 거제시 중곡로2길 54 (고현동)",
    "tel": "",
    "lat": 34.893959,
    "lng": 128.634567
  },
  {
    "name": "옥포어린이집",
    "category": "어린이놀이시설",
    "type": "어린이놀이시설",
    "address": "경상남도 거제시 옥포로11길 10 (옥포동)",
    "tel": "",
    "lat": 34.891481,
    "lng": 128.690515
  },
  {
    "name": "하늘어린이집",
    "category": "어린이놀이시설",
    "type": "어린이놀이시설",
    "address": "경상남도 거제시 성산로3길 7 (옥포동)",
    "tel": "",
    "lat": 34.897602,
    "lng": 128.695325
  },
  {
    "name": "고려6차아파트",
    "category": "어린이놀이시설",
    "type": "어린이놀이시설",
    "address": "경상남도 거제시 중곡로2길 12 (고현동, 고려6차아파트)",
    "tel": "",
    "lat": 34.893244,
    "lng": 128.632152
  },
  {
    "name": "일성양정아리채아파트 놀이터",
    "category": "어린이놀이시설",
    "type": "어린이놀이시설",
    "address": "경상남도 거제시 수양로 487 (양정동, 일성양정아리채)",
    "tel": "",
    "lat": 34.890775,
    "lng": 128.638681
  },
  {
    "name": "장흥사부속유치원 놀이시설",
    "category": "어린이놀이시설",
    "type": "어린이놀이시설",
    "address": "경상남도 거제시 아주로 77-13 (아주동)",
    "tel": "",
    "lat": 34.864886,
    "lng": 128.68477
  },
  {
    "name": "청기와 뼈따귀 해장국 고현점 놀이터",
    "category": "어린이놀이시설",
    "type": "어린이놀이시설",
    "address": "경상남도 거제시 서문로5길 18 (고현동)",
    "tel": "",
    "lat": 34.8904,
    "lng": 128.620252
  },
  {
    "name": "거제삼성어린이집",
    "category": "어린이놀이시설",
    "type": "어린이놀이시설",
    "address": "경상남도 거제시 장평1로 86 (장평동, 삼성중공업사원아파트)",
    "tel": "",
    "lat": 34.894742,
    "lng": 128.613086
  },
  {
    "name": "장평3차주공 아파트",
    "category": "어린이놀이시설",
    "type": "어린이놀이시설",
    "address": "경상남도 거제시 장평2로 36 (장평동, 장평3주공아파트)",
    "tel": "",
    "lat": 34.885846,
    "lng": 128.608562
  },
  {
    "name": "거제2차롯데인벤스가아파트",
    "category": "어린이놀이시설",
    "type": "어린이놀이시설",
    "address": "경상남도 거제시 거제중앙로 1515 (문동동, 거제2차롯데인벤스가아파트)",
    "tel": "",
    "lat": 34.85857,
    "lng": 128.644654
  },
  {
    "name": "문동동삼오르네상스아파트",
    "category": "어린이놀이시설",
    "type": "어린이놀이시설",
    "address": "경상남도 거제시 거제중앙로 1509-13 (문동동, 삼오르네상스)",
    "tel": "",
    "lat": 34.85744,
    "lng": 128.645354
  },
  {
    "name": "석천아트타운 놀이터",
    "category": "어린이놀이시설",
    "type": "어린이놀이시설",
    "address": "경상남도 거제시 국산로 166 (옥포동, 석천아트타운)",
    "tel": "",
    "lat": 34.900814,
    "lng": 128.695483
  },
  {
    "name": "광우무지개맨션",
    "category": "어린이놀이시설",
    "type": "어린이놀이시설",
    "address": "경상남도 거제시 장평로6길 7 (장평동, 광우무지개맨션)",
    "tel": "",
    "lat": 34.891775,
    "lng": 128.611826
  },
  {
    "name": "삼도로얄맨션 2(106동 뒤)",
    "category": "어린이놀이시설",
    "type": "어린이놀이시설",
    "address": "경상남도 거제시 거제대로 3697-25 (옥포동, 삼도로얄맨션)",
    "tel": "",
    "lat": 34.886179,
    "lng": 128.689667
  },
  {
    "name": "고려1차아파트",
    "category": "어린이놀이시설",
    "type": "어린이놀이시설",
    "address": "경상남도 거제시 서문로1길 20 (고현동, 고려아파트)",
    "tel": "",
    "lat": 34.88976,
    "lng": 128.617428
  },
  {
    "name": "신우마리나타운 2(107동 옆)",
    "category": "어린이놀이시설",
    "type": "어린이놀이시설",
    "address": "경상남도 거제시 연초면 연하해안로 419 (신우마리나타운)",
    "tel": "",
    "lat": 34.911306,
    "lng": 128.61701
  },
  {
    "name": "신우마리나타운 1(103동 옆)",
    "category": "어린이놀이시설",
    "type": "어린이놀이시설",
    "address": "경상남도 거제시 연초면 연하해안로 419 (신우마리나타운)",
    "tel": "",
    "lat": 34.910787,
    "lng": 128.616903
  },
  {
    "name": "고현고려3차아파트 놀이터(고현천)",
    "category": "어린이놀이시설",
    "type": "어린이놀이시설",
    "address": "경상남도 거제시 고현로13길 12 (고현동, 고려3차아파트)",
    "tel": "",
    "lat": 34.889229,
    "lng": 128.626551
  },
  {
    "name": "청명화이트빌 놀이터",
    "category": "어린이놀이시설",
    "type": "어린이놀이시설",
    "address": "경상남도 거제시 거제대로 4601 (양정동, 청명화이트아파트)",
    "tel": "",
    "lat": 34.891229,
    "lng": 128.633654
  },
  {
    "name": "안성아파트 놀이터",
    "category": "어린이놀이시설",
    "type": "어린이놀이시설",
    "address": "경상남도 거제시 옥포로 280 (옥포동, 안성아파트)",
    "tel": "",
    "lat": 34.899411,
    "lng": 128.687456
  },
  {
    "name": "거제 한미비치빌아파트 놀이터",
    "category": "어린이놀이시설",
    "type": "어린이놀이시설",
    "address": "경상남도 거제시 중곡1로 50 (고현동, 한미비치빌)",
    "tel": "",
    "lat": 34.895708,
    "lng": 128.626482
  },
  {
    "name": "삼성하이츠빌라",
    "category": "어린이놀이시설",
    "type": "어린이놀이시설",
    "address": "경상남도 거제시 계룡로11길 17-17 (고현동, 삼성하이츠빌라)",
    "tel": "",
    "lat": 34.880273,
    "lng": 128.618723
  },
  {
    "name": "미광하이츠빌",
    "category": "어린이놀이시설",
    "type": "어린이놀이시설",
    "address": "경상남도 거제시 해명로6길 19 (수월동, 미광하이츠빌)",
    "tel": "",
    "lat": 34.894062,
    "lng": 128.64673
  },
  {
    "name": "춘광한빛타운",
    "category": "어린이놀이시설",
    "type": "어린이놀이시설",
    "address": "경상남도 거제시 해명로6길 11 (수월동, 춘광한빛타운)",
    "tel": "",
    "lat": 34.894436,
    "lng": 128.645398
  },
  {
    "name": "방울방울어린이집 놀이터",
    "category": "어린이놀이시설",
    "type": "어린이놀이시설",
    "address": "경상남도 거제시 해명로6길 7 (수월동)",
    "tel": "",
    "lat": 34.893588,
    "lng": 128.644728
  },
  {
    "name": "거제자이아파트 113동 앞 놀이터",
    "category": "어린이놀이시설",
    "type": "어린이놀이시설",
    "address": "경상남도 거제시 해명로 52 (수월동, 거제자이)",
    "tel": "",
    "lat": 34.893477,
    "lng": 128.642343
  },
  {
    "name": "거제자이아파트 103동 앞 놀이터",
    "category": "어린이놀이시설",
    "type": "어린이놀이시설",
    "address": "경상남도 거제시 해명로 52 (수월동, 거제자이)",
    "tel": "",
    "lat": 34.892872,
    "lng": 128.643848
  },
  {
    "name": "거제더샵아파트 102동 어린이놀이터",
    "category": "어린이놀이시설",
    "type": "어린이놀이시설",
    "address": "경상남도 거제시 제산로 86 (양정동, 거제더샵)",
    "tel": "",
    "lat": 34.886029,
    "lng": 128.644048
  },
  {
    "name": "거제더샵아파트 104동 어린이놀이터",
    "category": "어린이놀이시설",
    "type": "어린이놀이시설",
    "address": "경상남도 거제시 제산로 86 (양정동, 거제더샵)",
    "tel": "",
    "lat": 34.886029,
    "lng": 128.644048
  },
  {
    "name": "한아름유치원 놀이시설",
    "category": "어린이놀이시설",
    "type": "어린이놀이시설",
    "address": "경상남도 거제시 중곡2로 38 (고현동)",
    "tel": "",
    "lat": 34.895241,
    "lng": 128.629786
  },
  {
    "name": "옥포근린공원(진목정)",
    "category": "어린이놀이시설",
    "type": "어린이놀이시설",
    "address": "경상남도 거제시 옥포로 296-8 (옥포동)",
    "tel": "",
    "lat": 34.900049,
    "lng": 128.687061
  },
  {
    "name": "숲에온유치원",
    "category": "어린이놀이시설",
    "type": "어린이놀이시설",
    "address": "경상남도 거제시 거제대로 4957 (장평동)",
    "tel": "",
    "lat": 34.889646,
    "lng": 128.595803
  },
  {
    "name": "거제자이아파트 105동 앞 놀이터",
    "category": "어린이놀이시설",
    "type": "어린이놀이시설",
    "address": "경상남도 거제시 해명로 지하52 (수월동, 거제자이)",
    "tel": "",
    "lat": 34.891758,
    "lng": 128.644718
  },
  {
    "name": "신현10어린이공원",
    "category": "어린이놀이시설",
    "type": "어린이놀이시설",
    "address": "경상남도 거제시 계룡로 18 (상동동, 거암빌라)",
    "tel": "",
    "lat": 34.87477,
    "lng": 128.629926
  },
  {
    "name": "새들유치원 놀이시설",
    "category": "어린이놀이시설",
    "type": "어린이놀이시설",
    "address": "경상남도 거제시 장평2로2길 22-9 (장평동)",
    "tel": "",
    "lat": 34.888249,
    "lng": 128.606708
  },
  {
    "name": "덕산아내아파트(1차) 110동",
    "category": "어린이놀이시설",
    "type": "어린이놀이시설",
    "address": "경상남도 거제시 장평2로 19 (장평동, 덕산아내1차아파트)",
    "tel": "",
    "lat": 34.885927,
    "lng": 128.609406
  },
  {
    "name": "고려2차아파트 204동 놀이터",
    "category": "어린이놀이시설",
    "type": "어린이놀이시설",
    "address": "경상남도 거제시 중곡로2길 29 (고현동, 고려2차아파트)",
    "tel": "",
    "lat": 34.895508,
    "lng": 128.631553
  },
  {
    "name": "대아푸른솔마을 103동 앞 놀이터",
    "category": "어린이놀이시설",
    "type": "어린이놀이시설",
    "address": "경상남도 거제시 거제중앙로 1509-22 (문동동, 대아푸른솔마을아파트)",
    "tel": "",
    "lat": 34.857236,
    "lng": 128.643805
  },
  {
    "name": "거제더샵아파트 103동 어린이놀이터",
    "category": "어린이놀이시설",
    "type": "어린이놀이시설",
    "address": "경상남도 거제시 제산로 86 (양정동, 거제더샵)",
    "tel": "",
    "lat": 34.886029,
    "lng": 128.644048
  },
  {
    "name": "삼도로얄맨션 1(복리동 옆)",
    "category": "어린이놀이시설",
    "type": "어린이놀이시설",
    "address": "경상남도 거제시 거제대로 3697-25 (옥포동, 삼도로얄맨션)",
    "tel": "",
    "lat": 34.886179,
    "lng": 128.689667
  },
  {
    "name": "대동다숲 103동앞 1단지1놀이터",
    "category": "어린이놀이시설",
    "type": "어린이놀이시설",
    "address": "경상남도 거제시 아주2로4길 10 (아주동, 대동다숲아파트1단지)",
    "tel": "",
    "lat": 34.870049,
    "lng": 128.682876
  },
  {
    "name": "덕산아내아파트(1차) 105동",
    "category": "어린이놀이시설",
    "type": "어린이놀이시설",
    "address": "경상남도 거제시 장평2로 19 (장평동, 덕산아내1차아파트)",
    "tel": "",
    "lat": 34.887684,
    "lng": 128.609841
  },
  {
    "name": "덕산아내아파트(1차) 복리동",
    "category": "어린이놀이시설",
    "type": "어린이놀이시설",
    "address": "경상남도 거제시 장평2로 19 (장평동, 덕산아내1차아파트)",
    "tel": "",
    "lat": 34.888064,
    "lng": 128.611491
  },
  {
    "name": "덕산아내아파트(2차) 201동",
    "category": "어린이놀이시설",
    "type": "어린이놀이시설",
    "address": "경상남도 거제시 장평2로2길 10 (장평동, 덕산아내2차아파트)",
    "tel": "",
    "lat": 34.88802,
    "lng": 128.60794
  },
  {
    "name": "덕산아내아파트(1차) 107동",
    "category": "어린이놀이시설",
    "type": "어린이놀이시설",
    "address": "경상남도 거제시 장평2로 19 (장평동, 덕산아내1차아파트)",
    "tel": "",
    "lat": 34.88697,
    "lng": 128.610328
  },
  {
    "name": "고려4차아파트 503동 놀이터",
    "category": "어린이놀이시설",
    "type": "어린이놀이시설",
    "address": "경상남도 거제시 중곡로2길 25 (고현동, 고려4차아파트)",
    "tel": "",
    "lat": 34.894612,
    "lng": 128.632157
  },
  {
    "name": "국산초등 병설유치원 놀이시설",
    "category": "어린이놀이시설",
    "type": "어린이놀이시설",
    "address": "경상남도 거제시 국산1길 2 (옥포동)",
    "tel": "",
    "lat": 34.896559,
    "lng": 128.693414
  },
  {
    "name": "오량초등 병설유치원 놀이시설",
    "category": "어린이놀이시설",
    "type": "어린이놀이시설",
    "address": "경상남도 거제시 사등면 거제남서로 5405",
    "tel": "",
    "lat": 34.886811,
    "lng": 128.482614
  },
  {
    "name": "장승포초등 병설유치원 놀이시설",
    "category": "어린이놀이시설",
    "type": "어린이놀이시설",
    "address": "경상남도 거제시 신부로1길 19 (장승포동)",
    "tel": "",
    "lat": 34.869883,
    "lng": 128.728842
  },
  {
    "name": "칠천초등 병설유치원 놀이시설",
    "category": "어린이놀이시설",
    "type": "어린이놀이시설",
    "address": "경상남도 거제시 하청면 칠천로 372",
    "tel": "",
    "lat": 34.984177,
    "lng": 128.625186
  },
  {
    "name": "마전어린이집 놀이터",
    "category": "어린이놀이시설",
    "type": "어린이놀이시설",
    "address": "경상남도 거제시 장승로 79-1 (장승포동)",
    "tel": "",
    "lat": 34.862176,
    "lng": 128.723662
  },
  {
    "name": "제니스타운 APT 놀이터",
    "category": "어린이놀이시설",
    "type": "어린이놀이시설",
    "address": "경상남도 거제시 장평3로3길 3 (장평동)",
    "tel": "",
    "lat": 34.889497,
    "lng": 128.60845
  },
  {
    "name": "덕산아내아파트(1차) 102동",
    "category": "어린이놀이시설",
    "type": "어린이놀이시설",
    "address": "경상남도 거제시 장평2로 19 (장평동, 덕산아내1차아파트)",
    "tel": "",
    "lat": 34.888165,
    "lng": 128.610291
  },
  {
    "name": "지세어린이집 놀이터",
    "category": "어린이놀이시설",
    "type": "어린이놀이시설",
    "address": "경상남도 거제시 일운면 지세포해안로 76",
    "tel": "",
    "lat": 34.830586,
    "lng": 128.703725
  },
  {
    "name": "일운주공아파트 어린이놀이터 3 (101동)",
    "category": "어린이놀이시설",
    "type": "어린이놀이시설",
    "address": "경상남도 거제시 일운면 거제대로 2591 (일운주공아파트)",
    "tel": "",
    "lat": 34.837728,
    "lng": 128.695728
  },
  {
    "name": "일운주공아파트 어린이놀이터 2(유아놀이터)",
    "category": "어린이놀이시설",
    "type": "어린이놀이시설",
    "address": "경상남도 거제시 일운면 거제대로 2591 (일운주공아파트)",
    "tel": "",
    "lat": 34.837728,
    "lng": 128.695728
  },
  {
    "name": "사등초등 병설유치원 놀이시설",
    "category": "어린이놀이시설",
    "type": "어린이놀이시설",
    "address": "경상남도 거제시 사등면 성포로 21",
    "tel": "",
    "lat": 34.913034,
    "lng": 128.515835
  },
  {
    "name": "신현2어린이공원(조합,바닥재만 검사)",
    "category": "어린이놀이시설",
    "type": "어린이놀이시설",
    "address": "경상남도 거제시 서문로6길 1 (고현동)",
    "tel": "",
    "lat": 34.889576,
    "lng": 128.619483
  },
  {
    "name": "옥포2근린공원(옥포혜성아파트 위)",
    "category": "어린이놀이시설",
    "type": "어린이놀이시설",
    "address": "경상남도 거제시 성산로 54 (옥포동, 혜성아파트)",
    "tel": "",
    "lat": 34.901792,
    "lng": 128.696827
  },
  {
    "name": "대동다숲 106동앞 1단지2놀이터",
    "category": "어린이놀이시설",
    "type": "어린이놀이시설",
    "address": "경상남도 거제시 아주2로4길 10 (아주동, 대동다숲아파트1단지)",
    "tel": "",
    "lat": 34.869697,
    "lng": 128.683365
  },
  {
    "name": "대동다숲 203동앞 2단지1놀이터",
    "category": "어린이놀이시설",
    "type": "어린이놀이시설",
    "address": "경상남도 거제시 아주2로2길 13 (아주동, 대동다숲아파트2단지)",
    "tel": "",
    "lat": 34.869232,
    "lng": 128.684939
  },
  {
    "name": "대동다숲 206동앞 2단지2놀이터",
    "category": "어린이놀이시설",
    "type": "어린이놀이시설",
    "address": "경상남도 거제시 아주2로2길 13 (아주동, 대동다숲아파트2단지)",
    "tel": "",
    "lat": 34.869232,
    "lng": 128.684939
  },
  {
    "name": "엘리유리안아파트",
    "category": "어린이놀이시설",
    "type": "어린이놀이시설",
    "address": "경상남도 거제시 해명로 3-8 (수월동, 엘리유리안아파트)",
    "tel": "",
    "lat": 34.896375,
    "lng": 128.64381
  },
  {
    "name": "고려3차아파트 어린이 놀이터(중곡동)",
    "category": "어린이놀이시설",
    "type": "어린이놀이시설",
    "address": "경상남도 거제시 중곡로 14 (고현동, 고려아파트)",
    "tel": "",
    "lat": 34.893856,
    "lng": 128.630663
  },
  {
    "name": "옥포1어린이공원",
    "category": "어린이놀이시설",
    "type": "어린이놀이시설",
    "address": "경상남도 거제시 옥포로27길 11 (옥포동)",
    "tel": "",
    "lat": 34.896714,
    "lng": 128.688768
  },
  {
    "name": "옥포3어린이공원",
    "category": "어린이놀이시설",
    "type": "어린이놀이시설",
    "address": "경상남도 거제시 옥포로23길 19 (옥포동)",
    "tel": "",
    "lat": 34.895137,
    "lng": 128.688425
  },
  {
    "name": "옥포제6어린이공원 놀이터",
    "category": "어린이놀이시설",
    "type": "어린이놀이시설",
    "address": "경상남도 거제시 옥포로22길 38 (옥포동)",
    "tel": "",
    "lat": 34.895469,
    "lng": 128.694851
  },
  {
    "name": "옥포제7어린이공원 놀이터",
    "category": "어린이놀이시설",
    "type": "어린이놀이시설",
    "address": "경상남도 거제시 옥포대첩로1길 20 (옥포동)",
    "tel": "",
    "lat": 34.895002,
    "lng": 128.688107
  },
  {
    "name": "옥포8어린이공원",
    "category": "어린이놀이시설",
    "type": "어린이놀이시설",
    "address": "경상남도 거제시 옥포로17길 13 (옥포동)",
    "tel": "",
    "lat": 34.892812,
    "lng": 128.689725
  },
  {
    "name": "옥포9어린이공원",
    "category": "어린이놀이시설",
    "type": "어린이놀이시설",
    "address": "경상남도 거제시 옥포로16길 18-1 (옥포동)",
    "tel": "",
    "lat": 34.892841,
    "lng": 128.693396
  },
  {
    "name": "옥포10어린이공원",
    "category": "어린이놀이시설",
    "type": "어린이놀이시설",
    "address": "경상남도 거제시 옥포대첩로2길 59 (옥포동)",
    "tel": "",
    "lat": 34.888796,
    "lng": 128.692716
  },
  {
    "name": "옥포36어린이공원",
    "category": "어린이놀이시설",
    "type": "어린이놀이시설",
    "address": "경상남도 거제시 옥포성안로4길 12 (옥포동, 동우빌라)",
    "tel": "",
    "lat": 34.893192,
    "lng": 128.69628
  },
  {
    "name": "고현1근린공원",
    "category": "어린이놀이시설",
    "type": "어린이놀이시설",
    "address": "경상남도 거제시 중곡로2길 29 (고현동, 고려2차아파트)",
    "tel": "",
    "lat": 34.89524,
    "lng": 128.630924
  },
  {
    "name": "신현6어린이공원",
    "category": "어린이놀이시설",
    "type": "어린이놀이시설",
    "address": "경상남도 거제시 장평로 9 (장평동)",
    "tel": "",
    "lat": 34.89063,
    "lng": 128.615795
  },
  {
    "name": "신현9어린이공원",
    "category": "어린이놀이시설",
    "type": "어린이놀이시설",
    "address": "경상남도 거제시 거제중앙로5길 28-2 (고현동, 해송뜨레빌)",
    "tel": "",
    "lat": 34.877482,
    "lng": 128.626203
  },
  {
    "name": "아주7어린이공원",
    "category": "어린이놀이시설",
    "type": "어린이놀이시설",
    "address": "경상남도 거제시 용소3길 16 (아주동, 신아그린아파트)",
    "tel": "",
    "lat": 34.875426,
    "lng": 128.690354
  },
  {
    "name": "일운주공아파트 어린이놀이터 1 (104동)",
    "category": "어린이놀이시설",
    "type": "어린이놀이시설",
    "address": "경상남도 거제시 일운면 거제대로 2591 (일운주공아파트)",
    "tel": "",
    "lat": 34.837683,
    "lng": 128.695397
  },
  {
    "name": "장목초등학교 놀이시설",
    "category": "어린이놀이시설",
    "type": "어린이놀이시설",
    "address": "경상남도 거제시 장목면 거제북로 1220",
    "tel": "",
    "lat": 34.992693,
    "lng": 128.682255
  },
  {
    "name": "동부초등 병설유치원 놀이시설",
    "category": "어린이놀이시설",
    "type": "어린이놀이시설",
    "address": "경상남도 거제시 동부면 동부로 27",
    "tel": "",
    "lat": 34.821169,
    "lng": 128.609867
  },
  {
    "name": "장목초등학교 병설유치원 놀이시설",
    "category": "어린이놀이시설",
    "type": "어린이놀이시설",
    "address": "경상남도 거제시 장목면 거제북로 1220",
    "tel": "",
    "lat": 34.992693,
    "lng": 128.682255
  },
  {
    "name": "숭덕초등학교병설유치원 놀이시설",
    "category": "어린이놀이시설",
    "type": "어린이놀이시설",
    "address": "경상남도 거제시 둔덕면 거제남서로 4720",
    "tel": "",
    "lat": 34.836198,
    "lng": 128.496427
  },
  {
    "name": "아주초등학교 병설유치원 놀이터",
    "category": "어린이놀이시설",
    "type": "어린이놀이시설",
    "address": "경상남도 거제시 탑곡로4길 24 (아주동)",
    "tel": "",
    "lat": 34.86419,
    "lng": 128.692862
  },
  {
    "name": "장평초등 병설유치원 놀이시설",
    "category": "어린이놀이시설",
    "type": "어린이놀이시설",
    "address": "경상남도 거제시 장평1로 116 (장평동)",
    "tel": "",
    "lat": 34.893845,
    "lng": 128.60714
  },
  {
    "name": "명사초등 병설유치원 놀이시설",
    "category": "어린이놀이시설",
    "type": "어린이놀이시설",
    "address": "경상남도 거제시 남부면 명사해수욕장길 11",
    "tel": "",
    "lat": 34.72569,
    "lng": 128.603732
  },
  {
    "name": "송정초등 병설유치원 놀이시설",
    "category": "어린이놀이시설",
    "type": "어린이놀이시설",
    "address": "경상남도 거제시 연초면 송정이목로 47",
    "tel": "",
    "lat": 34.918161,
    "lng": 128.673596
  },
  {
    "name": "제산초등 병설유치원 놀이시설",
    "category": "어린이놀이시설",
    "type": "어린이놀이시설",
    "address": "경상남도 거제시 제산로 70 (양정동)",
    "tel": "",
    "lat": 34.887404,
    "lng": 128.641585
  },
  {
    "name": "국산초등학교 놀이시설(1)",
    "category": "어린이놀이시설",
    "type": "어린이놀이시설",
    "address": "경상남도 거제시 국산1길 2 (옥포동)",
    "tel": "",
    "lat": 34.896559,
    "lng": 128.693414
  },
  {
    "name": "능포초등 병설유치원 놀이시설",
    "category": "어린이놀이시설",
    "type": "어린이놀이시설",
    "address": "경상남도 거제시 능포로 208 (능포동)",
    "tel": "",
    "lat": 34.881311,
    "lng": 128.73657
  },
  {
    "name": "이솝유치원 놀이시설",
    "category": "어린이놀이시설",
    "type": "어린이놀이시설",
    "address": "경상남도 거제시 수양1길 152 (수월동)",
    "tel": "",
    "lat": 34.894148,
    "lng": 128.661143
  },
  {
    "name": "해달별유치원 놀이시설",
    "category": "어린이놀이시설",
    "type": "어린이놀이시설",
    "address": "경상남도 거제시 문동4길 15-1 (문동동)",
    "tel": "",
    "lat": 34.862658,
    "lng": 128.649951
  },
  {
    "name": "서강유치원 놀이터",
    "category": "어린이놀이시설",
    "type": "어린이놀이시설",
    "address": "경상남도 거제시 덕포2길 132-12 (덕포동)",
    "tel": "",
    "lat": 34.917888,
    "lng": 128.6938
  },
  {
    "name": "고현유치원 놀이시설",
    "category": "어린이놀이시설",
    "type": "어린이놀이시설",
    "address": "경상남도 거제시 계룡로11길 15 (고현동)",
    "tel": "",
    "lat": 34.882179,
    "lng": 128.619345
  },
  {
    "name": "예인유치원 놀이시설",
    "category": "어린이놀이시설",
    "type": "어린이놀이시설",
    "address": "경상남도 거제시 중곡1로 138 (고현동)",
    "tel": "",
    "lat": 34.897322,
    "lng": 128.633569
  },
  {
    "name": "무궁화유치원 놀이시설",
    "category": "어린이놀이시설",
    "type": "어린이놀이시설",
    "address": "경상남도 거제시 옥포대첩로7길 46 (옥포동)",
    "tel": "",
    "lat": 34.89615,
    "lng": 128.693985
  },
  {
    "name": "세종유치원 놀이시설",
    "category": "어린이놀이시설",
    "type": "어린이놀이시설",
    "address": "경상남도 거제시 문동폭포길 17 (문동동)",
    "tel": "",
    "lat": 34.855706,
    "lng": 128.651408
  },
  {
    "name": "룸비니유치원 놀이시설",
    "category": "어린이놀이시설",
    "type": "어린이놀이시설",
    "address": "경상남도 거제시 문동폭포길 12-22 (문동동)",
    "tel": "",
    "lat": 34.853828,
    "lng": 128.65215
  },
  {
    "name": "일운초등학교 병설유치원 놀이시설",
    "category": "어린이놀이시설",
    "type": "어린이놀이시설",
    "address": "경상남도 거제시 일운면 지세포로 74",
    "tel": "",
    "lat": 34.82862,
    "lng": 128.705807
  },
  {
    "name": "오비초등학교 병설유치원 놀이시설",
    "category": "어린이놀이시설",
    "type": "어린이놀이시설",
    "address": "경상남도 거제시 연초면 오비5길 21",
    "tel": "",
    "lat": 34.9227,
    "lng": 128.622137
  },
  {
    "name": "송정초등학교 놀이시설",
    "category": "어린이놀이시설",
    "type": "어린이놀이시설",
    "address": "경상남도 거제시 연초면 송정이목로 47",
    "tel": "",
    "lat": 34.918161,
    "lng": 128.673596
  },
  {
    "name": "하청초등학교(병설유치원 겸용) 놀이시설",
    "category": "어린이놀이시설",
    "type": "어린이놀이시설",
    "address": "경상남도 거제시 하청면 하청로 22",
    "tel": "",
    "lat": 34.956406,
    "lng": 128.655321
  },
  {
    "name": "능포초등학교 놀이시설",
    "category": "어린이놀이시설",
    "type": "어린이놀이시설",
    "address": "경상남도 거제시 능포로 208 (능포동)",
    "tel": "",
    "lat": 34.881097,
    "lng": 128.736395
  },
  {
    "name": "마전초등학교 놀이시설",
    "category": "어린이놀이시설",
    "type": "어린이놀이시설",
    "address": "경상남도 거제시 마전2길 3-4 (장승포동)",
    "tel": "",
    "lat": 34.860041,
    "lng": 128.720342
  },
  {
    "name": "거제고현초등학교 놀이시설",
    "category": "어린이놀이시설",
    "type": "어린이놀이시설",
    "address": "경상남도 거제시 계룡로 25 (상동동)",
    "tel": "",
    "lat": 34.873939,
    "lng": 128.628963
  },
  {
    "name": "삼룡초등학교 놀이시설",
    "category": "어린이놀이시설",
    "type": "어린이놀이시설",
    "address": "경상남도 거제시 거제중앙로 1548 (문동동)",
    "tel": "",
    "lat": 34.861823,
    "lng": 128.644287
  },
  {
    "name": "아주초등학교 놀이시설",
    "category": "어린이놀이시설",
    "type": "어린이놀이시설",
    "address": "경상남도 거제시 탑곡로4길 24 (아주동)",
    "tel": "",
    "lat": 34.86419,
    "lng": 128.692862
  },
  {
    "name": "양지초등학교 놀이시설",
    "category": "어린이놀이시설",
    "type": "어린이놀이시설",
    "address": "경상남도 거제시 장평1로 170 (장평동)",
    "tel": "",
    "lat": 34.891387,
    "lng": 128.60229
  },
  {
    "name": "제산초등학교 놀이시설",
    "category": "어린이놀이시설",
    "type": "어린이놀이시설",
    "address": "경상남도 거제시 제산로 70 (양정동)",
    "tel": "",
    "lat": 34.887404,
    "lng": 128.641585
  },
  {
    "name": "수월초등학교 놀이시설(병설유치원겸용)",
    "category": "어린이놀이시설",
    "type": "어린이놀이시설",
    "address": "경상남도 거제시 수양로 420 (수월동)",
    "tel": "",
    "lat": 34.890376,
    "lng": 128.643624
  },
  {
    "name": "연초초등학교 어린이놀이시설",
    "category": "어린이놀이시설",
    "type": "어린이놀이시설",
    "address": "경상남도 거제시 연초면 거제대로 4280",
    "tel": "",
    "lat": 34.912395,
    "lng": 128.65201
  },
  {
    "name": "거제중앙초등학교 놀이시설",
    "category": "어린이놀이시설",
    "type": "어린이놀이시설",
    "address": "경상남도 거제시 중곡로2길 45 (고현동)",
    "tel": "",
    "lat": 34.895648,
    "lng": 128.634485
  },
  {
    "name": "숭덕초등학교 놀이시설",
    "category": "어린이놀이시설",
    "type": "어린이놀이시설",
    "address": "경상남도 거제시 둔덕면 거제남서로 4720",
    "tel": "",
    "lat": 34.836198,
    "lng": 128.496427
  },
  {
    "name": "명사초등학교 놀이시설",
    "category": "어린이놀이시설",
    "type": "어린이놀이시설",
    "address": "경상남도 거제시 남부면 명사해수욕장길 11",
    "tel": "",
    "lat": 34.72569,
    "lng": 128.603732
  },
  {
    "name": "일운초등학교 놀이시설",
    "category": "어린이놀이시설",
    "type": "어린이놀이시설",
    "address": "경상남도 거제시 일운면 지세포로 74",
    "tel": "",
    "lat": 34.82862,
    "lng": 128.705807
  },
  {
    "name": "대우초등학교 놀이시설",
    "category": "어린이놀이시설",
    "type": "어린이놀이시설",
    "address": "경상남도 거제시 아주로3길 63 (아주동)",
    "tel": "",
    "lat": 34.860708,
    "lng": 128.685721
  },
  {
    "name": "동부초등학교 율포분교 놀이시설",
    "category": "어린이놀이시설",
    "type": "어린이놀이시설",
    "address": "경상남도 거제시 동부면 율포4길 1",
    "tel": "",
    "lat": 34.778704,
    "lng": 128.593741
  },
  {
    "name": "동부초등학교 놀이시설",
    "category": "어린이놀이시설",
    "type": "어린이놀이시설",
    "address": "경상남도 거제시 동부면 동부로 27",
    "tel": "",
    "lat": 34.821169,
    "lng": 128.609867
  },
  {
    "name": "창호초등학교 놀이시설",
    "category": "어린이놀이시설",
    "type": "어린이놀이시설",
    "address": "경상남도 거제시 사등면 가조로 1281-16",
    "tel": "",
    "lat": 34.955568,
    "lng": 128.520401
  },
  {
    "name": "미루유치원 놀이터",
    "category": "어린이놀이시설",
    "type": "어린이놀이시설",
    "address": "경상남도 거제시 수양로 78 (문동동)",
    "tel": "",
    "lat": 34.865115,
    "lng": 128.649049
  },
  {
    "name": "한마음유치원 놀이시설",
    "category": "어린이놀이시설",
    "type": "어린이놀이시설",
    "address": "경상남도 거제시 장평3로3길 80 (장평동)",
    "tel": "",
    "lat": 34.890419,
    "lng": 128.600642
  },
  {
    "name": "큰별유치원 놀이시설",
    "category": "어린이놀이시설",
    "type": "어린이놀이시설",
    "address": "경상남도 거제시 상동7길 68-6 (상동동)",
    "tel": "",
    "lat": 34.866826,
    "lng": 128.630371
  },
  {
    "name": "창호초등 병설유치원 놀이시설",
    "category": "어린이놀이시설",
    "type": "어린이놀이시설",
    "address": "경상남도 거제시 사등면 가조로 1281-16",
    "tel": "",
    "lat": 34.955568,
    "lng": 128.520401
  },
  {
    "name": "소리숲유치원 놀이시설",
    "category": "어린이놀이시설",
    "type": "어린이놀이시설",
    "address": "경상남도 거제시 수양2길 31-12 (수월동)",
    "tel": "",
    "lat": 34.891435,
    "lng": 128.65403
  },
  {
    "name": "거제 현진에버빌 아파트 102동 앞 놀이터",
    "category": "어린이놀이시설",
    "type": "어린이놀이시설",
    "address": "경상남도 거제시 용소1길 85 (아주동, 현진에버빌)",
    "tel": "",
    "lat": 34.875665,
    "lng": 128.690994
  },
  {
    "name": "거제 현진에버빌 아파트 104동 앞 놀이터",
    "category": "어린이놀이시설",
    "type": "어린이놀이시설",
    "address": "경상남도 거제시 용소1길 85 (아주동, 현진에버빌)",
    "tel": "",
    "lat": 34.875922,
    "lng": 128.690367
  },
  {
    "name": "성은아파트 놀이터",
    "category": "어린이놀이시설",
    "type": "어린이놀이시설",
    "address": "경상남도 거제시 옥포로 315-2 (옥포동, 성은아파트)",
    "tel": "",
    "lat": 34.902729,
    "lng": 128.683859
  },
  {
    "name": "대한1차아파트 놀이터",
    "category": "어린이놀이시설",
    "type": "어린이놀이시설",
    "address": "경상남도 거제시 장평로6길 23 (장평동, 대한아파트)",
    "tel": "",
    "lat": 34.893326,
    "lng": 128.612799
  },
  {
    "name": "거제초등 병설유치원 놀이시설",
    "category": "어린이놀이시설",
    "type": "어린이놀이시설",
    "address": "경상남도 거제시 거제면 읍내로2길 20",
    "tel": "",
    "lat": 34.851569,
    "lng": 128.59142
  },
  {
    "name": "옥포초등학교 놀이시설(병설유치원 겸용)",
    "category": "어린이놀이시설",
    "type": "어린이놀이시설",
    "address": "경상남도 거제시 옥포로13길 12 (옥포동)",
    "tel": "",
    "lat": 34.892356,
    "lng": 128.690164
  },
  {
    "name": "장평초등학교 놀이시설",
    "category": "어린이놀이시설",
    "type": "어린이놀이시설",
    "address": "경상남도 거제시 장평1로 116 (장평동)",
    "tel": "",
    "lat": 34.893845,
    "lng": 128.60714
  },
  {
    "name": "나다나엘어린이집",
    "category": "어린이놀이시설",
    "type": "어린이놀이시설",
    "address": "경상남도 거제시 상동7길 30 (상동동, 대동다숲아파트)",
    "tel": "",
    "lat": 34.868711,
    "lng": 128.630005
  },
  {
    "name": "외간초등학교 어린이놀이시설",
    "category": "어린이놀이시설",
    "type": "어린이놀이시설",
    "address": "경상남도 거제시 거제면 외간옥산1길 10",
    "tel": "",
    "lat": 34.86026,
    "lng": 128.575823
  },
  {
    "name": "계룡초등학교(병설유치원통합) 놀이시설",
    "category": "어린이놀이시설",
    "type": "어린이놀이시설",
    "address": "경상남도 거제시 거제중앙로 1821-7 (고현동)",
    "tel": "",
    "lat": 34.88128,
    "lng": 128.625076
  },
  {
    "name": "미진무지개아파트 놀이터",
    "category": "어린이놀이시설",
    "type": "어린이놀이시설",
    "address": "경상남도 거제시 옥포대첩로 85 (옥포동, 미진무지개아파트)",
    "tel": "",
    "lat": 34.894988,
    "lng": 128.697315
  },
  {
    "name": "덕진휴먼빌 아파트 놀이터",
    "category": "어린이놀이시설",
    "type": "어린이놀이시설",
    "address": "경상남도 거제시 중곡로5길 11 (고현동, 덕진휴먼빌)",
    "tel": "",
    "lat": 34.895819,
    "lng": 128.628062
  },
  {
    "name": "진영에이스타운 놀이터",
    "category": "어린이놀이시설",
    "type": "어린이놀이시설",
    "address": "경상남도 거제시 진목로 19 (옥포동, 진영에이스타운)",
    "tel": "",
    "lat": 34.89718,
    "lng": 128.686082
  },
  {
    "name": "장승포주공아파트1 놀이터",
    "category": "어린이놀이시설",
    "type": "어린이놀이시설",
    "address": "경상남도 거제시 장승로 26 (장승포동, 장승포주공아파트)",
    "tel": "",
    "lat": 34.858228,
    "lng": 128.72124
  },
  {
    "name": "장승포주공아파트2 놀이터",
    "category": "어린이놀이시설",
    "type": "어린이놀이시설",
    "address": "경상남도 거제시 장승로 26 (장승포동, 장승포주공아파트)",
    "tel": "",
    "lat": 34.858228,
    "lng": 128.72124
  },
  {
    "name": "장승포주공아파트3 놀이터",
    "category": "어린이놀이시설",
    "type": "어린이놀이시설",
    "address": "경상남도 거제시 장승로 26 (장승포동, 장승포주공아파트)",
    "tel": "",
    "lat": 34.858228,
    "lng": 128.72124
  },
  {
    "name": "협동아름아파트",
    "category": "어린이놀이시설",
    "type": "어린이놀이시설",
    "address": "경상남도 거제시 성산로4길 15 (옥포동, 협동아름아파트)",
    "tel": "",
    "lat": 34.897478,
    "lng": 128.697894
  },
  {
    "name": "옥포4어린이공원(양지마을)",
    "category": "어린이놀이시설",
    "type": "어린이놀이시설",
    "address": "경상남도 거제시 성산로4길 20 (옥포동)",
    "tel": "",
    "lat": 34.896865,
    "lng": 128.697297
  },
  {
    "name": "거제서정어린이공원 놀이시설",
    "category": "어린이놀이시설",
    "type": "어린이놀이시설",
    "address": "경상남도 거제시 거제면 거제남서로 3452",
    "tel": "",
    "lat": 34.848995,
    "lng": 128.587503
  },
  {
    "name": "대동다숲아파트 105동",
    "category": "어린이놀이시설",
    "type": "어린이놀이시설",
    "address": "경상남도 거제시 상동7길 30 (상동동, 대동다숲아파트)",
    "tel": "",
    "lat": 34.865542,
    "lng": 128.630477
  },
  {
    "name": "대동다숲아파트 109동",
    "category": "어린이놀이시설",
    "type": "어린이놀이시설",
    "address": "경상남도 거제시 상동7길 30 (상동동, 대동다숲아파트)",
    "tel": "",
    "lat": 34.868535,
    "lng": 128.629962
  },
  {
    "name": "대동다숲아파트 111동",
    "category": "어린이놀이시설",
    "type": "어린이놀이시설",
    "address": "경상남도 거제시 상동7길 30 (상동동, 대동다숲아파트)",
    "tel": "",
    "lat": 34.868711,
    "lng": 128.630005
  },
  {
    "name": "대동다숲아파트 107동",
    "category": "어린이놀이시설",
    "type": "어린이놀이시설",
    "address": "경상남도 거제시 상동7길 30 (상동동, 대동다숲아파트)",
    "tel": "",
    "lat": 34.868711,
    "lng": 128.630005
  },
  {
    "name": "대동다숲아파트 119동",
    "category": "어린이놀이시설",
    "type": "어린이놀이시설",
    "address": "경상남도 거제시 상동7길 30 (상동동, 대동다숲아파트)",
    "tel": "",
    "lat": 34.868711,
    "lng": 128.630005
  },
  {
    "name": "애드미럴레지던스",
    "category": "어린이놀이시설",
    "type": "어린이놀이시설",
    "address": "경상남도 거제시 서간도길 9-10 (옥포동, 애드미럴레지던스)",
    "tel": "",
    "lat": 34.887918,
    "lng": 128.688995
  },
  {
    "name": "거송보라맨션",
    "category": "어린이놀이시설",
    "type": "어린이놀이시설",
    "address": "경상남도 거제시 진목2길 82 (옥포동, 거송보라맨션)",
    "tel": "",
    "lat": 34.901368,
    "lng": 128.683127
  },
  {
    "name": "옥포5차덕산타운1 (501동 앞)",
    "category": "어린이놀이시설",
    "type": "어린이놀이시설",
    "address": "경상남도 거제시 옥포로 315 (옥포동, 덕산5차아파트)",
    "tel": "",
    "lat": 34.902332,
    "lng": 128.684789
  },
  {
    "name": "옥포5차덕산타운2 (507동 옆)",
    "category": "어린이놀이시설",
    "type": "어린이놀이시설",
    "address": "경상남도 거제시 옥포로 315 (옥포동, 덕산5차아파트)",
    "tel": "",
    "lat": 34.902357,
    "lng": 128.687278
  },
  {
    "name": "옥포한신아파트1 (8동 뒤)",
    "category": "어린이놀이시설",
    "type": "어린이놀이시설",
    "address": "경상남도 거제시 옥포로 260 (옥포동, 한신아파트)",
    "tel": "",
    "lat": 34.898627,
    "lng": 128.688571
  },
  {
    "name": "덕산1차아파트 놀이터",
    "category": "어린이놀이시설",
    "type": "어린이놀이시설",
    "address": "경상남도 거제시 진목1길 6 (옥포동, 덕산1차아파트)",
    "tel": "",
    "lat": 34.898216,
    "lng": 128.685339
  },
  {
    "name": "신원심포니하우스",
    "category": "어린이놀이시설",
    "type": "어린이놀이시설",
    "address": "경상남도 거제시 옥포로 365 (옥포동, 신원심포니하우스)",
    "tel": "",
    "lat": 34.903201,
    "lng": 128.685707
  },
  {
    "name": "라인라데팡스아파트 어린이놀이시설",
    "category": "어린이놀이시설",
    "type": "어린이놀이시설",
    "address": "경상남도 거제시 능포로4길 23 (능포동, 라인라데팡스아파트)",
    "tel": "",
    "lat": 34.872701,
    "lng": 128.733321
  },
  {
    "name": "한신비취맨션",
    "category": "어린이놀이시설",
    "type": "어린이놀이시설",
    "address": "경상남도 거제시 사등면 거제남서로 5310",
    "tel": "",
    "lat": 34.880428,
    "lng": 128.477369
  },
  {
    "name": "덕진휴먼빌2차",
    "category": "어린이놀이시설",
    "type": "어린이놀이시설",
    "address": "경상남도 거제시 장평1로16길 65 (장평동, 덕진2차 휴먼빌)",
    "tel": "",
    "lat": 34.892833,
    "lng": 128.601159
  },
  {
    "name": "샘터어린이집",
    "category": "어린이놀이시설",
    "type": "어린이놀이시설",
    "address": "경상남도 거제시 거제면 기성로5길 18-1",
    "tel": "",
    "lat": 34.852164,
    "lng": 128.587902
  },
  {
    "name": "덕진봄아파트",
    "category": "어린이놀이시설",
    "type": "어린이놀이시설",
    "address": "경상남도 거제시 사등면 지석2길 47 (덕진봄아파트)",
    "tel": "",
    "lat": 34.907686,
    "lng": 128.511957
  },
  {
    "name": "플레이그라운드어린이집",
    "category": "어린이놀이시설",
    "type": "어린이놀이시설",
    "address": "경상남도 거제시 옥포로 122 (옥포동)",
    "tel": "",
    "lat": 34.889099,
    "lng": 128.695342
  },
  {
    "name": "국산초등학교 놀이시설(2)",
    "category": "어린이놀이시설",
    "type": "어린이놀이시설",
    "address": "경상남도 거제시 국산1길 2 (옥포동)",
    "tel": "",
    "lat": 34.896559,
    "lng": 128.693414
  },
  {
    "name": "사등초등학교 놀이터",
    "category": "어린이놀이시설",
    "type": "어린이놀이시설",
    "address": "경상남도 거제시 사등면 성포로 21",
    "tel": "",
    "lat": 34.913034,
    "lng": 128.515835
  },
  {
    "name": "장승포초등학교 놀이시설",
    "category": "어린이놀이시설",
    "type": "어린이놀이시설",
    "address": "경상남도 거제시 신부로1길 19 (장승포동)",
    "tel": "",
    "lat": 34.869883,
    "lng": 128.728842
  },
  {
    "name": "오량초등학교 놀이시설",
    "category": "어린이놀이시설",
    "type": "어린이놀이시설",
    "address": "경상남도 거제시 사등면 거제남서로 5405",
    "tel": "",
    "lat": 34.886811,
    "lng": 128.482614
  },
  {
    "name": "거제초등학교 놀이터",
    "category": "어린이놀이시설",
    "type": "어린이놀이시설",
    "address": "경상남도 거제시 거제면 읍내로2길 20",
    "tel": "",
    "lat": 34.851569,
    "lng": 128.59142
  },
  {
    "name": "신현초등 병설유치원 놀이시설",
    "category": "어린이놀이시설",
    "type": "어린이놀이시설",
    "address": "경상남도 거제시 서문로1길 7 (고현동)",
    "tel": "",
    "lat": 34.888463,
    "lng": 128.616814
  },
  {
    "name": "신현초등학교 놀이시설",
    "category": "어린이놀이시설",
    "type": "어린이놀이시설",
    "address": "경상남도 거제시 서문로1길 7 (고현동)",
    "tel": "",
    "lat": 34.888463,
    "lng": 128.616814
  },
  {
    "name": "꾸러기어린이집",
    "category": "어린이놀이시설",
    "type": "어린이놀이시설",
    "address": "경상남도 거제시 옥포로25길 15 (옥포동)",
    "tel": "",
    "lat": 34.896329,
    "lng": 128.688426
  },
  {
    "name": "거제스포츠파크 놀이터",
    "category": "어린이놀이시설",
    "type": "어린이놀이시설",
    "address": "경상남도 거제시 거제면 거제남서로 3485-17",
    "tel": "",
    "lat": 34.851997,
    "lng": 128.582649
  },
  {
    "name": "힐스테이트아파트 104동 놀이터",
    "category": "어린이놀이시설",
    "type": "어린이놀이시설",
    "address": "경상남도 거제시 제산로 51 (양정동, 거제수월힐스테이트)",
    "tel": "",
    "lat": 34.889674,
    "lng": 128.641435
  },
  {
    "name": "힐스테이트아파트 106동 놀이터",
    "category": "어린이놀이시설",
    "type": "어린이놀이시설",
    "address": "경상남도 거제시 제산로 51 (양정동, 거제수월힐스테이트)",
    "tel": "",
    "lat": 34.889674,
    "lng": 128.641435
  },
  {
    "name": "힐스테이트아파트 107동 놀이터",
    "category": "어린이놀이시설",
    "type": "어린이놀이시설",
    "address": "경상남도 거제시 제산로 51 (양정동, 거제수월힐스테이트)",
    "tel": "",
    "lat": 34.889674,
    "lng": 128.641435
  },
  {
    "name": "힐스테이트아파트 보육실 옆 놀이터",
    "category": "어린이놀이시설",
    "type": "어린이놀이시설",
    "address": "경상남도 거제시 제산로 51 (양정동, 거제수월힐스테이트)",
    "tel": "",
    "lat": 34.889674,
    "lng": 128.641435
  },
  {
    "name": "삼성빌리지",
    "category": "어린이놀이시설",
    "type": "어린이놀이시설",
    "address": "경상남도 거제시 장평1로 86 (장평동, 삼성빌리지)",
    "tel": "",
    "lat": 34.895242,
    "lng": 128.613508
  },
  {
    "name": "무지개타운",
    "category": "어린이놀이시설",
    "type": "어린이놀이시설",
    "address": "경상남도 거제시 성산로 20 (옥포동, 무지개타운)",
    "tel": "",
    "lat": 34.898404,
    "lng": 128.696926
  },
  {
    "name": "롤리폴리 옥포점",
    "category": "어린이놀이시설",
    "type": "어린이놀이시설",
    "address": "경상남도 거제시 옥포로 250 (옥포동)",
    "tel": "",
    "lat": 34.896965,
    "lng": 128.689811
  },
  {
    "name": "아이샘터유치원 어린이놀이시설",
    "category": "어린이놀이시설",
    "type": "어린이놀이시설",
    "address": "경상남도 거제시 양정2길 85 (양정동)",
    "tel": "",
    "lat": 34.871968,
    "lng": 128.645202
  },
  {
    "name": "거제더샵아파트 관리실 놀이터(실내)",
    "category": "어린이놀이시설",
    "type": "어린이놀이시설",
    "address": "경상남도 거제시 제산로 86 (양정동, 거제더샵)",
    "tel": "",
    "lat": 34.886029,
    "lng": 128.644048
  },
  {
    "name": "덕산아내프리미엄1차 108동 피로티",
    "category": "어린이놀이시설",
    "type": "어린이놀이시설",
    "address": "경상남도 거제시 아주로 100-10 (아주동, 거제덕산아내프리미엄)",
    "tel": "",
    "lat": 34.865915,
    "lng": 128.685006
  },
  {
    "name": "덕산아내프리미엄1차 108동 뒤",
    "category": "어린이놀이시설",
    "type": "어린이놀이시설",
    "address": "경상남도 거제시 아주로 100-10 (아주동, 거제덕산아내프리미엄)",
    "tel": "",
    "lat": 34.86579,
    "lng": 128.6851
  },
  {
    "name": "덕산아내프리미엄1차 106동 뒤",
    "category": "어린이놀이시설",
    "type": "어린이놀이시설",
    "address": "경상남도 거제시 아주로 100-10 (아주동, 거제덕산아내프리미엄)",
    "tel": "",
    "lat": 34.865501,
    "lng": 128.686119
  },
  {
    "name": "덕산아내프리미엄1차 110동 뒤",
    "category": "어린이놀이시설",
    "type": "어린이놀이시설",
    "address": "경상남도 거제시 아주로 100-10 (아주동, 거제덕산아내프리미엄)",
    "tel": "",
    "lat": 34.866131,
    "lng": 128.685786
  },
  {
    "name": "진목어린이집",
    "category": "어린이놀이시설",
    "type": "어린이놀이시설",
    "address": "경상남도 거제시 진목2길 62 (옥포동)",
    "tel": "",
    "lat": 34.899923,
    "lng": 128.684038
  },
  {
    "name": "성포어린이공원",
    "category": "어린이놀이시설",
    "type": "어린이놀이시설",
    "address": null,
    "tel": "",
    "lat": 0.0,
    "lng": 0.0
  },
  {
    "name": "아델하임 어린이놀이터",
    "category": "어린이놀이시설",
    "type": "어린이놀이시설",
    "address": "경상남도 거제시 고현천로 227 (상동동, 아델하임)",
    "tel": "",
    "lat": 34.874048,
    "lng": 128.637565
  },
  {
    "name": "사과나무어린이집",
    "category": "어린이놀이시설",
    "type": "어린이놀이시설",
    "address": "경상남도 거제시 수양2길 55 (수월동)",
    "tel": "",
    "lat": 34.888209,
    "lng": 128.653255
  },
  {
    "name": "영진자이온2단지아파트 놀이터2",
    "category": "어린이놀이시설",
    "type": "어린이놀이시설",
    "address": "경상남도 거제시 사등면 두동로 54-40 (사곡영진자이온2단지)",
    "tel": "",
    "lat": 34.894218,
    "lng": 128.567539
  },
  {
    "name": "영진자이온2단지아파트 놀이터1",
    "category": "어린이놀이시설",
    "type": "어린이놀이시설",
    "address": "경상남도 거제시 사등면 두동로 54-40 (사곡영진자이온2단지)",
    "tel": "",
    "lat": 34.894218,
    "lng": 128.567539
  },
  {
    "name": "이레어린이집",
    "category": "어린이놀이시설",
    "type": "어린이놀이시설",
    "address": "경상남도 거제시 사등면 두동로2길 13-3",
    "tel": "",
    "lat": 34.890498,
    "lng": 128.570977
  },
  {
    "name": "더베이사이드비치",
    "category": "어린이놀이시설",
    "type": "어린이놀이시설",
    "address": "경상남도 거제시 옥포대첩로 472 (덕포동, 아메리칸힐)",
    "tel": "",
    "lat": 34.910982,
    "lng": 128.719326
  },
  {
    "name": "벽산e솔렌스힐아파트 놀이시설",
    "category": "어린이놀이시설",
    "type": "어린이놀이시설",
    "address": "경상남도 거제시 상동5길 75-40 (상동동, 벽산e-솔렌스힐 1차)",
    "tel": "",
    "lat": 34.861431,
    "lng": 128.632126
  },
  {
    "name": "덕산베스트타운 119동 놀이터",
    "category": "어린이놀이시설",
    "type": "어린이놀이시설",
    "address": "경상남도 거제시 중곡로 42 (고현동, 덕산베스트타운)",
    "tel": "",
    "lat": 34.896951,
    "lng": 128.631848
  },
  {
    "name": "윤슬유치원 어린이놀이시설",
    "category": "어린이놀이시설",
    "type": "어린이놀이시설",
    "address": "경상남도 거제시 문동4길 35-5 (문동동)",
    "tel": "",
    "lat": 34.862613,
    "lng": 128.651087
  },
  {
    "name": "사등유치원 놀이터",
    "category": "어린이놀이시설",
    "type": "어린이놀이시설",
    "address": "경상남도 거제시 사등면 언양로 555",
    "tel": "",
    "lat": 34.901898,
    "lng": 128.552682
  },
  {
    "name": "덕포어린이집",
    "category": "어린이놀이시설",
    "type": "어린이놀이시설",
    "address": "경상남도 거제시 옥포대첩로 397 (덕포동)",
    "tel": "",
    "lat": 34.913883,
    "lng": 128.711497
  },
  {
    "name": "능포미진그린타워",
    "category": "어린이놀이시설",
    "type": "어린이놀이시설",
    "address": "경상남도 거제시 장승포해안로 306 (능포동, 미진그린타워)",
    "tel": "",
    "lat": 34.878159,
    "lng": 128.734748
  },
  {
    "name": "거제삼성어린이집 실내놀이터1",
    "category": "어린이놀이시설",
    "type": "어린이놀이시설",
    "address": "경상남도 거제시 장평1로 86 (장평동, 삼성중공업사원아파트)",
    "tel": "",
    "lat": 34.894742,
    "lng": 128.613086
  },
  {
    "name": "거제삼성어린이집 실내놀이터2",
    "category": "어린이놀이시설",
    "type": "어린이놀이시설",
    "address": "경상남도 거제시 장평1로 86 (장평동, 삼성중공업사원아파트)",
    "tel": "",
    "lat": 34.894742,
    "lng": 128.613086
  },
  {
    "name": "화인아트빌라 C동 놀이터",
    "category": "어린이놀이시설",
    "type": "어린이놀이시설",
    "address": "경상남도 거제시 서문로3길 8 (고현동, 화인아트빌라)",
    "tel": "",
    "lat": 34.888851,
    "lng": 128.61845
  },
  {
    "name": "통큰아이유치원 놀이시설",
    "category": "어린이놀이시설",
    "type": "어린이놀이시설",
    "address": "경상남도 거제시 제산로5길 7 (양정동)",
    "tel": "",
    "lat": 34.886864,
    "lng": 128.644548
  },
  {
    "name": "웰빙공원물놀이장",
    "category": "어린이놀이시설",
    "type": "어린이놀이시설",
    "address": "경남 거제시 고현천로 181",
    "tel": "",
    "lat": 34.879211,
    "lng": 128.633248
  },
  {
    "name": "천상갈비",
    "category": "어린이놀이시설",
    "type": "어린이놀이시설",
    "address": "경상남도 거제시 장평로8길 12 (장평동)",
    "tel": "",
    "lat": 34.891886,
    "lng": 128.611209
  },
  {
    "name": "거제 성균관 유치원 놀이터",
    "category": "어린이놀이시설",
    "type": "어린이놀이시설",
    "address": "경상남도 거제시 마전4길 5 (장승포동)",
    "tel": "",
    "lat": 34.860979,
    "lng": 128.72235
  },
  {
    "name": "e편한세상2단지 201동 놀이터2",
    "category": "어린이놀이시설",
    "type": "어린이놀이시설",
    "address": "경상남도 거제시 아주2로 137 (아주동, 아주e편한세상2단지)",
    "tel": "",
    "lat": 34.868511,
    "lng": 128.677852
  },
  {
    "name": "e편한세상2단지 208동 놀이터1",
    "category": "어린이놀이시설",
    "type": "어린이놀이시설",
    "address": "경상남도 거제시 아주2로 137 (아주동, 아주e편한세상2단지)",
    "tel": "",
    "lat": 34.868511,
    "lng": 128.677852
  },
  {
    "name": "e편한세상1단지 102동 놀이터2",
    "category": "어린이놀이시설",
    "type": "어린이놀이시설",
    "address": "경상남도 거제시 아주2로 138 (아주동, 아주e편한세상1단지)",
    "tel": "",
    "lat": 34.869807,
    "lng": 128.676276
  },
  {
    "name": "e편한세상1단지 106동 놀이터1",
    "category": "어린이놀이시설",
    "type": "어린이놀이시설",
    "address": "경상남도 거제시 아주2로 138 (아주동, 아주e편한세상1단지)",
    "tel": "",
    "lat": 34.869807,
    "lng": 128.676276
  },
  {
    "name": "영진자이온1단지아파트 놀이시설1",
    "category": "어린이놀이시설",
    "type": "어린이놀이시설",
    "address": "경상남도 거제시 사등면 두동로 54-42 (사곡영진자이온1단지)",
    "tel": "",
    "lat": 34.891921,
    "lng": 128.567783
  },
  {
    "name": "영진자이온1단지아파트 놀이시설2",
    "category": "어린이놀이시설",
    "type": "어린이놀이시설",
    "address": "경상남도 거제시 사등면 두동로 54-42 (사곡영진자이온1단지)",
    "tel": "",
    "lat": 34.891775,
    "lng": 128.567553
  },
  {
    "name": "둔덕가족생활체육공원 어린이놀이터",
    "category": "어린이놀이시설",
    "type": "어린이놀이시설",
    "address": "경상남도 거제시 둔덕면 거제남서로 4557",
    "tel": "",
    "lat": 34.832842,
    "lng": 128.504012
  },
  {
    "name": "덕포어린이집 (옥상)",
    "category": "어린이놀이시설",
    "type": "어린이놀이시설",
    "address": "경상남도 거제시 옥포대첩로 397 (덕포동)",
    "tel": "",
    "lat": 34.913883,
    "lng": 128.711497
  },
  {
    "name": "거제고현 e-편한세상 103동 어린이놀이시설",
    "category": "어린이놀이시설",
    "type": "어린이놀이시설",
    "address": "경상남도 거제시 거제대로 4500-45 (고현동, e편한세상 고현)",
    "tel": "",
    "lat": 34.895366,
    "lng": 128.640439
  },
  {
    "name": "거제고현 e-편한세상 104동 어린이놀이시설",
    "category": "어린이놀이시설",
    "type": "어린이놀이시설",
    "address": "경상남도 거제시 거제대로 4500-45 (고현동, e편한세상 고현)",
    "tel": "",
    "lat": 34.895366,
    "lng": 128.640439
  },
  {
    "name": "거제고현 e-편한세상 105동 어린이놀이시설",
    "category": "어린이놀이시설",
    "type": "어린이놀이시설",
    "address": "경상남도 거제시 거제대로 4500-45 (고현동, e편한세상 고현)",
    "tel": "",
    "lat": 34.895366,
    "lng": 128.640439
  },
  {
    "name": "덕산아내프리미엄3차",
    "category": "어린이놀이시설",
    "type": "어린이놀이시설",
    "address": "경상남도 거제시 아주로 116-7 (아주동, 덕산아내프리미엄3차)",
    "tel": "",
    "lat": 34.866777,
    "lng": 128.682016
  },
  {
    "name": "덕산아내프리미엄2차 204동",
    "category": "어린이놀이시설",
    "type": "어린이놀이시설",
    "address": "경상남도 거제시 아주로 100-11 (아주동, 덕산아내프리미엄2차)",
    "tel": "",
    "lat": 34.866401,
    "lng": 128.683491
  },
  {
    "name": "덕산아내프리미엄2차 201동",
    "category": "어린이놀이시설",
    "type": "어린이놀이시설",
    "address": "경상남도 거제시 아주로 100-11 (아주동, 덕산아내프리미엄2차)",
    "tel": "",
    "lat": 34.866401,
    "lng": 128.683491
  },
  {
    "name": "덕산5차아파트 실내놀이터",
    "category": "어린이놀이시설",
    "type": "어린이놀이시설",
    "address": "경상남도 거제시 옥포로 315 (옥포동, 덕산5차아파트)",
    "tel": "",
    "lat": 34.901515,
    "lng": 128.686772
  },
  {
    "name": "롯데캐슬아일랜드(윗동) 어린이놀이시설",
    "category": "어린이놀이시설",
    "type": "어린이놀이시설",
    "address": "경상남도 거제시 능포로2길 62 (능포동, 롯데캐슬아일랜드)",
    "tel": "",
    "lat": 34.876639,
    "lng": 128.734477
  },
  {
    "name": "벽산e 솔렌스힐아파트 201동 놀이시설",
    "category": "어린이놀이시설",
    "type": "어린이놀이시설",
    "address": "경상남도 거제시 상동5길 117-16 (상동동, 벽산e-솔렌스힐 2차)",
    "tel": "",
    "lat": 34.860164,
    "lng": 128.629989
  },
  {
    "name": "벽산e 솔렌스힐아파트 203동 놀이시설",
    "category": "어린이놀이시설",
    "type": "어린이놀이시설",
    "address": "경상남도 거제시 상동5길 117-16 (상동동, 벽산e-솔렌스힐 2차)",
    "tel": "",
    "lat": 34.860164,
    "lng": 128.629989
  },
  {
    "name": "미진타워펠리스  어린이놀이시설",
    "category": "어린이놀이시설",
    "type": "어린이놀이시설",
    "address": "경상남도 거제시 거제대로 3696 (옥포동, 미진 타워 펠리스)",
    "tel": "",
    "lat": 34.887315,
    "lng": 128.693221
  },
  {
    "name": "거제벽산e솔렌스힐 301동 놀이시설",
    "category": "어린이놀이시설",
    "type": "어린이놀이시설",
    "address": "경상남도 거제시 상동5길 117-50 (상동동, 벽산 e-솔렌스힐 3차)",
    "tel": "",
    "lat": 34.85953,
    "lng": 128.634263
  },
  {
    "name": "거제벽산e솔렌스힐 305동 놀이시설",
    "category": "어린이놀이시설",
    "type": "어린이놀이시설",
    "address": "경상남도 거제시 상동5길 117-50 (상동동, 벽산 e-솔렌스힐 3차)",
    "tel": "",
    "lat": 34.85953,
    "lng": 128.634263
  },
  {
    "name": "스타힐스센트럴아파트 유아놀이터",
    "category": "어린이놀이시설",
    "type": "어린이놀이시설",
    "address": "경상남도 거제시 고현로 138-37 (고현동, 스타힐스 센트럴)",
    "tel": "",
    "lat": 34.89183,
    "lng": 128.630216
  },
  {
    "name": "스타힐스센트럴아파트 어린이놀이터",
    "category": "어린이놀이시설",
    "type": "어린이놀이시설",
    "address": "경상남도 거제시 고현로 138-37 (고현동, 스타힐스 센트럴)",
    "tel": "",
    "lat": 34.891933,
    "lng": 128.632451
  },
  {
    "name": "엘크루 랜드마크 104동옆 2층 유아놀이터",
    "category": "어린이놀이시설",
    "type": "어린이놀이시설",
    "address": "경상남도 거제시 서간도길 9-9 (옥포동, 거제엘크루랜드마크)",
    "tel": "",
    "lat": 34.888563,
    "lng": 128.6908
  },
  {
    "name": "엘크루 랜드마크 101동옆 놀이터",
    "category": "어린이놀이시설",
    "type": "어린이놀이시설",
    "address": "경상남도 거제시 서간도길 9-9 (옥포동, 거제엘크루랜드마크)",
    "tel": "",
    "lat": 34.888563,
    "lng": 128.6908
  },
  {
    "name": "엘크루 랜드마크 103동옆 놀이터",
    "category": "어린이놀이시설",
    "type": "어린이놀이시설",
    "address": "경상남도 거제시 서간도길 9-9 (옥포동, 거제엘크루랜드마크)",
    "tel": "",
    "lat": 34.888563,
    "lng": 128.6908
  },
  {
    "name": "덕진봄아파트 놀이터1",
    "category": "어린이놀이시설",
    "type": "어린이놀이시설",
    "address": "경상남도 거제시 아주2로 110 (아주동, 아주덕진봄아파트)",
    "tel": "",
    "lat": 34.870798,
    "lng": 128.68053
  },
  {
    "name": "덕진봄아파트 놀이터2",
    "category": "어린이놀이시설",
    "type": "어린이놀이시설",
    "address": "경상남도 거제시 아주2로 110 (아주동, 아주덕진봄아파트)",
    "tel": "",
    "lat": 34.870798,
    "lng": 128.68053
  },
  {
    "name": "거제마린푸르지오 2단지 어린이놀이터",
    "category": "어린이놀이시설",
    "type": "어린이놀이시설",
    "address": "경상남도 거제시 용소1길 17-7 (아주동, 마린푸르지오2단지)",
    "tel": "",
    "lat": 34.872857,
    "lng": 128.689886
  },
  {
    "name": "거제마린푸르지오 1단지 유아놀이터",
    "category": "어린이놀이시설",
    "type": "어린이놀이시설",
    "address": "경상남도 거제시 용소1길 17-17 (아주동, 마린푸르지오1단지)",
    "tel": "",
    "lat": 34.871694,
    "lng": 128.689331
  },
  {
    "name": "거제마린푸르지오 1단지 어린이놀이터2",
    "category": "어린이놀이시설",
    "type": "어린이놀이시설",
    "address": "경상남도 거제시 용소1길 17-17 (아주동, 마린푸르지오1단지)",
    "tel": "",
    "lat": 34.871694,
    "lng": 128.689331
  },
  {
    "name": "거제마린푸르지오 1단지 어린이놀이터1",
    "category": "어린이놀이시설",
    "type": "어린이놀이시설",
    "address": "경상남도 거제시 용소1길 17-17 (아주동, 마린푸르지오1단지)",
    "tel": "",
    "lat": 34.871694,
    "lng": 128.689331
  },
  {
    "name": "애플블럭 롯데마트 거제점",
    "category": "어린이놀이시설",
    "type": "어린이놀이시설",
    "address": "경상남도 거제시 서간도길 9-9 (옥포동)",
    "tel": "",
    "lat": 34.888563,
    "lng": 128.6908
  },
  {
    "name": "거제리우 야외놀이시설",
    "category": "어린이놀이시설",
    "type": "어린이놀이시설",
    "address": "경상남도 거제시 일운면 옥림3길 30",
    "tel": "",
    "lat": 34.852405,
    "lng": 128.719316
  },
  {
    "name": "내곡초등학교 어린이놀이시설",
    "category": "어린이놀이시설",
    "type": "어린이놀이시설",
    "address": "경상남도 거제시 아주2로 112 (아주동)",
    "tel": "",
    "lat": 34.871024,
    "lng": 128.678489
  },
  {
    "name": "장평어린이공원",
    "category": "어린이놀이시설",
    "type": "어린이놀이시설",
    "address": null,
    "tel": "",
    "lat": 34.888161,
    "lng": 128.604605
  },
  {
    "name": "엘리유리안 2차아파트 놀이시설",
    "category": "어린이놀이시설",
    "type": "어린이놀이시설",
    "address": "경상남도 거제시 해명로4길 8 (수월동, 엘리유리안2차)",
    "tel": "",
    "lat": 34.894136,
    "lng": 128.644377
  },
  {
    "name": "수양어린이집 어린이놀이시설",
    "category": "어린이놀이시설",
    "type": "어린이놀이시설",
    "address": "경상남도 거제시 제산로5길 26 (양정동)",
    "tel": "",
    "lat": 34.88765,
    "lng": 128.646943
  },
  {
    "name": "LH주택공사 거제하청지구(103동앞) 놀이터",
    "category": "어린이놀이시설",
    "type": "어린이놀이시설",
    "address": "경상남도 거제시 하청면 하청로 12-7",
    "tel": "",
    "lat": 34.957719,
    "lng": 128.658293
  },
  {
    "name": "LH주택공사 거제하청지구 유아놀이터",
    "category": "어린이놀이시설",
    "type": "어린이놀이시설",
    "address": "경상남도 거제시 하청면 하청로 12-7",
    "tel": "",
    "lat": 34.957445,
    "lng": 128.657449
  },
  {
    "name": "하청어린이집 놀이터",
    "category": "어린이놀이시설",
    "type": "어린이놀이시설",
    "address": "경상남도 거제시 하청면 거제북로 555-6",
    "tel": "",
    "lat": 34.957493,
    "lng": 128.655955
  },
  {
    "name": "아주늘푸른공원",
    "category": "어린이놀이시설",
    "type": "어린이놀이시설",
    "address": "경상남도 거제시 아주동",
    "tel": "",
    "lat": 34.862204,
    "lng": 128.690564
  },
  {
    "name": "아주제2어린이공원",
    "category": "어린이놀이시설",
    "type": "어린이놀이시설",
    "address": null,
    "tel": "",
    "lat": 34.867314,
    "lng": 128.684282
  },
  {
    "name": "아주해오름공원",
    "category": "어린이놀이시설",
    "type": "어린이놀이시설",
    "address": "경상남도 거제시 아주동",
    "tel": "",
    "lat": 34.862204,
    "lng": 128.690564
  },
  {
    "name": "거제장평지구 도시개발사업 내 소공원 1",
    "category": "어린이놀이시설",
    "type": "어린이놀이시설",
    "address": null,
    "tel": "",
    "lat": 34.886318,
    "lng": 128.604691
  },
  {
    "name": "거제장평지구 도시개발사업 내 소공원 2",
    "category": "어린이놀이시설",
    "type": "어린이놀이시설",
    "address": null,
    "tel": "",
    "lat": 34.885042,
    "lng": 128.607083
  },
  {
    "name": "경남아너스빌아파트 103동 앞 놀이터",
    "category": "어린이놀이시설",
    "type": "어린이놀이시설",
    "address": null,
    "tel": "",
    "lat": 34.8965,
    "lng": 128.5737
  },
  {
    "name": "경남아너스빌아파트 107동 앞 놀이터",
    "category": "어린이놀이시설",
    "type": "어린이놀이시설",
    "address": null,
    "tel": "",
    "lat": 34.8965,
    "lng": 128.5737
  },
  {
    "name": "경남아너스빌아파트 113동 앞 놀이터",
    "category": "어린이놀이시설",
    "type": "어린이놀이시설",
    "address": null,
    "tel": "",
    "lat": 34.8965,
    "lng": 128.5737
  },
  {
    "name": "하임힐 어린이놀이시설",
    "category": "어린이놀이시설",
    "type": "어린이놀이시설",
    "address": "경상남도 거제시 상동5길 117-46 (상동동)",
    "tel": "",
    "lat": 34.860351,
    "lng": 128.633655
  },
  {
    "name": "거제엘크루랜드마크 실내놀이터",
    "category": "어린이놀이시설",
    "type": "어린이놀이시설",
    "address": "경상남도 거제시 서간도길 9-9 (옥포동, 거제엘크루랜드마크)",
    "tel": "",
    "lat": 34.888563,
    "lng": 128.6908
  },
  {
    "name": "거제리우 실내놀이시설",
    "category": "어린이놀이시설",
    "type": "어린이놀이시설",
    "address": "경상남도 거제시 일운면 옥림3길 30",
    "tel": "",
    "lat": 34.852405,
    "lng": 128.719316
  },
  {
    "name": "거제상동초등학교어린이놀이시설",
    "category": "어린이놀이시설",
    "type": "어린이놀이시설",
    "address": "경상남도 거제시 상동5길 75-41 (상동동)",
    "tel": "",
    "lat": 34.861804,
    "lng": 128.634079
  },
  {
    "name": "옥포제5어린이공원",
    "category": "어린이놀이시설",
    "type": "어린이놀이시설",
    "address": "경상남도 거제시 옥포중앙로 52 (옥포동)",
    "tel": "",
    "lat": 34.896107,
    "lng": 128.691337
  },
  {
    "name": "거제마리나아파트 어린이놀이터",
    "category": "어린이놀이시설",
    "type": "어린이놀이시설",
    "address": "경상남도 거제시 옥포대첩로1길 7 (옥포동, 옥포마리나아파트)",
    "tel": "",
    "lat": 34.89383,
    "lng": 128.687604
  },
  {
    "name": "미래골든빌",
    "category": "어린이놀이시설",
    "type": "어린이놀이시설",
    "address": null,
    "tel": "",
    "lat": 34.9161,
    "lng": 128.5276
  },
  {
    "name": "덕진휴먼빌 3차 아파트 어린이놀이시설",
    "category": "어린이놀이시설",
    "type": "어린이놀이시설",
    "address": "경상남도 거제시 탑곡로4길 7 (아주동, 덕진3차휴먼빌)",
    "tel": "",
    "lat": 34.862628,
    "lng": 128.691943
  },
  {
    "name": "e편한세상 아파트 101동 뒤 어린이놀이터",
    "category": "어린이놀이시설",
    "type": "어린이놀이시설",
    "address": "경상남도 거제시 성산로4길 29 (옥포동)",
    "tel": "",
    "lat": 34.899042,
    "lng": 128.695409
  },
  {
    "name": "e편한세상 아파트 104동 앞 유아놀이터",
    "category": "어린이놀이시설",
    "type": "어린이놀이시설",
    "address": "경상남도 거제시 성산로4길 29 (옥포동)",
    "tel": "",
    "lat": 34.899077,
    "lng": 128.695516
  },
  {
    "name": "e편한세상 아파트 104동 뒤 어린이놀이터",
    "category": "어린이놀이시설",
    "type": "어린이놀이시설",
    "address": "경상남도 거제시 성산로4길 29 (옥포동)",
    "tel": "",
    "lat": 34.899183,
    "lng": 128.695774
  },
  {
    "name": "e편한세상 아파트 201동 뒤 어린이놀이터",
    "category": "어린이놀이시설",
    "type": "어린이놀이시설",
    "address": "경상남도 거제시 성산로 42 (옥포동)",
    "tel": "",
    "lat": 34.899686,
    "lng": 128.696457
  },
  {
    "name": "섬김의교회 어린이놀이시설",
    "category": "어린이놀이시설",
    "type": "어린이놀이시설",
    "address": "경상남도 거제시 옥포대첩로 106 (옥포동)",
    "tel": "",
    "lat": 34.894461,
    "lng": 128.699643
  },
  {
    "name": "e편한세상 커뮤니티센터 실내놀이시설",
    "category": "어린이놀이시설",
    "type": "어린이놀이시설",
    "address": "경상남도 거제시 성산로 42 (옥포동)",
    "tel": "",
    "lat": 34.899686,
    "lng": 128.696457
  },
  {
    "name": "풍경어린이집",
    "category": "어린이놀이시설",
    "type": "어린이놀이시설",
    "address": "경상남도 거제시 해명로2길 26 (수월동)",
    "tel": "",
    "lat": 34.895605,
    "lng": 128.645592
  },
  {
    "name": "거제아주KCC스위첸 어린이놀이터",
    "category": "어린이놀이시설",
    "type": "어린이놀이시설",
    "address": null,
    "tel": "",
    "lat": 34.873665,
    "lng": 128.688332
  },
  {
    "name": "거제아주KCC스위첸 유아놀이터",
    "category": "어린이놀이시설",
    "type": "어린이놀이시설",
    "address": null,
    "tel": "",
    "lat": 34.873647,
    "lng": 128.688139
  },
  {
    "name": "거제아주KCC스위첸 실내놀이터",
    "category": "어린이놀이시설",
    "type": "어린이놀이시설",
    "address": null,
    "tel": "",
    "lat": 34.873612,
    "lng": 128.688161
  },
  {
    "name": "본가 거제고현점 어린이놀이시설",
    "category": "어린이놀이시설",
    "type": "어린이놀이시설",
    "address": "경상남도 거제시 고현로 146 (고현동)",
    "tel": "",
    "lat": 34.890095,
    "lng": 128.627814
  },
  {
    "name": "거제아이파크 106동 앞 놀이시설",
    "category": "어린이놀이시설",
    "type": "어린이놀이시설",
    "address": null,
    "tel": "",
    "lat": 34.873813,
    "lng": 128.647757
  },
  {
    "name": "거제아이파크 유치원 앞 놀이시설",
    "category": "어린이놀이시설",
    "type": "어린이놀이시설",
    "address": null,
    "tel": "",
    "lat": 34.873918,
    "lng": 128.647779
  },
  {
    "name": "거제아이파크 105동 앞 어린이놀이터2",
    "category": "어린이놀이시설",
    "type": "어린이놀이시설",
    "address": null,
    "tel": "",
    "lat": 34.873848,
    "lng": 128.647736
  },
  {
    "name": "거제아이파크 111동 앞 어린이놀이터3",
    "category": "어린이놀이시설",
    "type": "어린이놀이시설",
    "address": null,
    "tel": "",
    "lat": 34.873587,
    "lng": 128.6479
  },
  {
    "name": "거제 장평 노르웨이숲 아파트 관리사무소 옆",
    "category": "어린이놀이시설",
    "type": "어린이놀이시설",
    "address": "경상남도 거제시 장평1로 7 (장평동)",
    "tel": "",
    "lat": 34.891216,
    "lng": 128.617458
  },
  {
    "name": "거제 장평 노르웨이숲 아파트 보육원 옆",
    "category": "어린이놀이시설",
    "type": "어린이놀이시설",
    "address": "경상남도 거제시 장평1로 7 (장평동)",
    "tel": "",
    "lat": 34.891216,
    "lng": 128.617458
  },
  {
    "name": "옥포도뮤토 1단지 아파트",
    "category": "어린이놀이시설",
    "type": "어린이놀이시설",
    "address": null,
    "tel": "",
    "lat": 34.9152,
    "lng": 128.7032
  },
  {
    "name": "옥포도뮤토 2단지 아파트 202동 옆",
    "category": "어린이놀이시설",
    "type": "어린이놀이시설",
    "address": null,
    "tel": "",
    "lat": 34.9152,
    "lng": 128.7032
  },
  {
    "name": "옥포도뮤토 2단지 아파트 205동 옆",
    "category": "어린이놀이시설",
    "type": "어린이놀이시설",
    "address": null,
    "tel": "",
    "lat": 34.9152,
    "lng": 128.7032
  },
  {
    "name": "신현8 어린이공원",
    "category": "어린이놀이시설",
    "type": "어린이놀이시설",
    "address": null,
    "tel": "",
    "lat": 34.893123,
    "lng": 128.615011
  },
  {
    "name": "거제보듬이나눔이 장평어린이집 어린이놀이시설",
    "category": "어린이놀이시설",
    "type": "어린이놀이시설",
    "address": "경상남도 거제시 장평2로4길 20 (장평동)",
    "tel": "",
    "lat": 34.885296,
    "lng": 128.607629
  },
  {
    "name": "거제 옥포 자이온 더퍼스트",
    "category": "어린이놀이시설",
    "type": "어린이놀이시설",
    "address": "경상남도 거제시 국산로 191 (옥포동)",
    "tel": "",
    "lat": 34.901668,
    "lng": 128.695478
  },
  {
    "name": "미진이지비아 아파트",
    "category": "어린이놀이시설",
    "type": "어린이놀이시설",
    "address": "경상남도 거제시 아주로 63 (아주동, 미진이지비아)",
    "tel": "",
    "lat": 34.864325,
    "lng": 128.688578
  },
  {
    "name": "거제오션 파크 자이 아파트 110동 앞 어린이놀이시설",
    "category": "어린이놀이시설",
    "type": "어린이놀이시설",
    "address": null,
    "tel": "",
    "lat": 34.8738,
    "lng": 128.5811
  },
  {
    "name": "거제오션 파크 자이 아파트 101동 뒤편 어린이놀이시설2",
    "category": "어린이놀이시설",
    "type": "어린이놀이시설",
    "address": null,
    "tel": "",
    "lat": 34.8738,
    "lng": 128.5811
  },
  {
    "name": "거제오션 파크 자이 아파트 108동 앞 어린이놀이시설3",
    "category": "어린이놀이시설",
    "type": "어린이놀이시설",
    "address": null,
    "tel": "",
    "lat": 34.8738,
    "lng": 128.5811
  },
  {
    "name": "기성초등학교 놀이시설",
    "category": "어린이놀이시설",
    "type": "어린이놀이시설",
    "address": "경상남도 거제시 사등면 언양로 541",
    "tel": "",
    "lat": 34.901135,
    "lng": 128.551595
  },
  {
    "name": "기성초등병설 유치원놀이시설",
    "category": "어린이놀이시설",
    "type": "어린이놀이시설",
    "address": "경상남도 거제시 사등면 언양로 541",
    "tel": "",
    "lat": 34.901135,
    "lng": 128.551595
  },
  {
    "name": "거제 더샵블루시티, 키즈룸",
    "category": "어린이놀이시설",
    "type": "어린이놀이시설",
    "address": "경상남도 거제시 상동5길 100 (상동동, 거제 더샵 블루시티)",
    "tel": "",
    "lat": 34.863362,
    "lng": 128.629473
  },
  {
    "name": "거제 더샵 블루시티 아파트 103동 놀이터",
    "category": "어린이놀이시설",
    "type": "어린이놀이시설",
    "address": "경상남도 거제시 상동5길 100 (상동동, 거제 더샵 블루시티)",
    "tel": "",
    "lat": 34.863362,
    "lng": 128.629473
  },
  {
    "name": "거제 더샵 블루시티 아파트 108동 놀이터",
    "category": "어린이놀이시설",
    "type": "어린이놀이시설",
    "address": "경상남도 거제시 상동5길 100 (상동동, 거제 더샵 블루시티)",
    "tel": "",
    "lat": 34.863362,
    "lng": 128.629473
  },
  {
    "name": "거제 더샵 블루시티 아파트 109동 놀이터",
    "category": "어린이놀이시설",
    "type": "어린이놀이시설",
    "address": "경상남도 거제시 상동5길 100 (상동동, 거제 더샵 블루시티)",
    "tel": "",
    "lat": 34.863362,
    "lng": 128.629473
  },
  {
    "name": "거제 라푸름 아파트 어린이놀이터",
    "category": "어린이놀이시설",
    "type": "어린이놀이시설",
    "address": null,
    "tel": "",
    "lat": 34.865778,
    "lng": 128.629985
  },
  {
    "name": "거제 벽산e 블루밍 어린이 놀이터 1",
    "category": "어린이놀이시설",
    "type": "어린이놀이시설",
    "address": null,
    "tel": "",
    "lat": 34.861932,
    "lng": 128.635562
  },
  {
    "name": "거제 벽산e 블루밍 어린이 놀이터 2",
    "category": "어린이놀이시설",
    "type": "어린이놀이시설",
    "address": null,
    "tel": "",
    "lat": 34.861042,
    "lng": 128.635614
  },
  {
    "name": "장목새싹어린이집",
    "category": "어린이놀이시설",
    "type": "어린이놀이시설",
    "address": "경상남도 거제시 장목면 옥포대첩로 1555",
    "tel": "",
    "lat": 34.982861,
    "lng": 128.683291
  },
  {
    "name": "거제센트럴푸르지오 112동 앞 어린이놀이터 1",
    "category": "어린이놀이시설",
    "type": "어린이놀이시설",
    "address": null,
    "tel": "",
    "lat": 34.859574,
    "lng": 128.641585
  },
  {
    "name": "거제센트럴푸르지오 108동 앞 어린이놀이터 2",
    "category": "어린이놀이시설",
    "type": "어린이놀이시설",
    "address": null,
    "tel": "",
    "lat": 34.858051,
    "lng": 128.642165
  },
  {
    "name": "거제센트럴푸르지오 110동 앞 어린이놀이터 3",
    "category": "어린이놀이시설",
    "type": "어린이놀이시설",
    "address": null,
    "tel": "",
    "lat": 34.860178,
    "lng": 128.641957
  },
  {
    "name": "거제센트럴푸르지오 104동 앞 어린이놀이터 4",
    "category": "어린이놀이시설",
    "type": "어린이놀이시설",
    "address": null,
    "tel": "",
    "lat": 34.858855,
    "lng": 128.642769
  },
  {
    "name": "거제센트럴푸르지오 109동 앞 유아놀이터",
    "category": "어린이놀이시설",
    "type": "어린이놀이시설",
    "address": null,
    "tel": "",
    "lat": 34.859368,
    "lng": 128.642043
  },
  {
    "name": "연초면 일성유수안 아파트 놀이터",
    "category": "어린이놀이시설",
    "type": "어린이놀이시설",
    "address": null,
    "tel": "",
    "lat": 34.911249,
    "lng": 128.661275
  },
  {
    "name": "코오롱 하늘채 아파트 103동 유아놀이터",
    "category": "어린이놀이시설",
    "type": "어린이놀이시설",
    "address": "경상남도 거제시 아주2로2길 10 (아주동, 아주 코오롱하늘채)",
    "tel": "",
    "lat": 34.868499,
    "lng": 128.686403
  },
  {
    "name": "거제아주코오롱하늘채 어린이놀이터",
    "category": "어린이놀이시설",
    "type": "어린이놀이시설",
    "address": null,
    "tel": "",
    "lat": 34.862204,
    "lng": 128.690564
  },
  {
    "name": "문동수변공원 물놀이장",
    "category": "어린이놀이시설",
    "type": "어린이놀이시설",
    "address": "경남 거제시 문동동",
    "tel": "",
    "lat": 34.858265,
    "lng": 128.643494
  },
  {
    "name": "힐스테이트거제아파트 107동앞 어린이놀이터3",
    "category": "어린이놀이시설",
    "type": "어린이놀이시설",
    "address": null,
    "tel": "",
    "lat": 34.865476,
    "lng": 128.637033
  },
  {
    "name": "힐스테이트거제아파트 108동 앞 어린이놀이터2",
    "category": "어린이놀이시설",
    "type": "어린이놀이시설",
    "address": null,
    "tel": "",
    "lat": 34.865289,
    "lng": 128.636204
  },
  {
    "name": "힐스테이트거제아파트 109동 뒤 어린이놀이터1",
    "category": "어린이놀이시설",
    "type": "어린이놀이시설",
    "address": null,
    "tel": "",
    "lat": 34.864708,
    "lng": 128.635574
  },
  {
    "name": "아주교회 실외놀이시설",
    "category": "어린이놀이시설",
    "type": "어린이놀이시설",
    "address": "경상남도 거제시 아주2로2길 20 (아주동)",
    "tel": "",
    "lat": 34.86942,
    "lng": 128.686662
  },
  {
    "name": "거제2차아이파크1단지 201동 뒤 어린이놀이터 1",
    "category": "어린이놀이시설",
    "type": "어린이놀이시설",
    "address": null,
    "tel": "",
    "lat": 34.858103,
    "lng": 128.655387
  },
  {
    "name": "거제2차아이파크1단지 203동 뒤 어린이놀이터 2",
    "category": "어린이놀이시설",
    "type": "어린이놀이시설",
    "address": null,
    "tel": "",
    "lat": 34.858103,
    "lng": 128.655387
  },
  {
    "name": "거제2차 아이파크 2단지 어린이놀이터1(301동 앞)",
    "category": "어린이놀이시설",
    "type": "어린이놀이시설",
    "address": null,
    "tel": "",
    "lat": 34.858103,
    "lng": 128.655387
  },
  {
    "name": "거제2차 아이파크 2단지 어린이놀이터2(303동 앞)",
    "category": "어린이놀이시설",
    "type": "어린이놀이시설",
    "address": null,
    "tel": "",
    "lat": 34.858103,
    "lng": 128.655387
  },
  {
    "name": "거제 아이파크 어린이공원 물놀이장",
    "category": "어린이놀이시설",
    "type": "어린이놀이시설",
    "address": "경남 거제시 수양로 102",
    "tel": "",
    "lat": 34.865267,
    "lng": 128.651414
  },
  {
    "name": "바운스 트램펄린파크",
    "category": "어린이놀이시설",
    "type": "어린이놀이시설",
    "address": null,
    "tel": "",
    "lat": 35.015851,
    "lng": 128.705145
  },
  {
    "name": "거제코아루 파크드림 어린이놀이터1(108동 뒤)",
    "category": "어린이놀이시설",
    "type": "어린이놀이시설",
    "address": "경상남도 거제시 일운면 지세포1길 27 (거제 코아루 파크드림)",
    "tel": "",
    "lat": 34.82614,
    "lng": 128.702873
  },
  {
    "name": "거제코아루 파크드림 어린이놀이터2(102동 뒤)",
    "category": "어린이놀이시설",
    "type": "어린이놀이시설",
    "address": "경상남도 거제시 일운면 지세포1길 27 (거제 코아루 파크드림)",
    "tel": "",
    "lat": 34.82614,
    "lng": 128.702873
  },
  {
    "name": "거제코아루 파크드림 어린이놀이터3(104동 뒤)",
    "category": "어린이놀이시설",
    "type": "어린이놀이시설",
    "address": "경상남도 거제시 일운면 지세포1길 27 (거제 코아루 파크드림)",
    "tel": "",
    "lat": 34.82614,
    "lng": 128.702873
  },
  {
    "name": "한화리조트 거제 벨버디어 뽀로로키즈카페",
    "category": "어린이놀이시설",
    "type": "어린이놀이시설",
    "address": "경상남도 거제시 장목면 농소리",
    "tel": "",
    "lat": 35.0158,
    "lng": 128.7052
  },
  {
    "name": "섬김의 교회 씨앗센터(1층)",
    "category": "어린이놀이시설",
    "type": "어린이놀이시설",
    "address": "경상남도 거제시 옥포대첩로 112 (옥포동)",
    "tel": "",
    "lat": 34.894558,
    "lng": 128.699617
  },
  {
    "name": "거제양정초등학교 어린이 놀이시설",
    "category": "어린이놀이시설",
    "type": "어린이놀이시설",
    "address": "경상남도 거제시 양정2길 15 (양정동)",
    "tel": "",
    "lat": 34.871251,
    "lng": 128.651104
  },
  {
    "name": "갈비만 고현점 놀이시설",
    "category": "어린이놀이시설",
    "type": "어린이놀이시설",
    "address": "경상남도 거제시 거제중앙로31길 22 (고현동)",
    "tel": "",
    "lat": 34.89022,
    "lng": 128.619717
  },
  {
    "name": "상문동 문화센터 놀이방",
    "category": "어린이놀이시설",
    "type": "어린이놀이시설",
    "address": "경상남도 거제시 거제중앙로 1641 (상동동)",
    "tel": "",
    "lat": 34.86809,
    "lng": 128.637944
  },
  {
    "name": "도담도담어린이집 놀이시설",
    "category": "어린이놀이시설",
    "type": "어린이놀이시설",
    "address": "경상남도 거제시 사등면 모래실길 58-50",
    "tel": "",
    "lat": 34.898543,
    "lng": 128.57962
  },
  {
    "name": "거제장평 유림노르웨이숲 어린이놀이시설",
    "category": "어린이놀이시설",
    "type": "어린이놀이시설",
    "address": "경상남도 거제시 장평1로 7 (장평동, 거제 장평 유림노르웨이숲)",
    "tel": "",
    "lat": 34.891216,
    "lng": 128.617458
  },
  {
    "name": "임혜정 어린이집 놀이터",
    "category": "어린이놀이시설",
    "type": "어린이놀이시설",
    "address": null,
    "tel": "",
    "lat": 34.835021,
    "lng": 128.697705
  },
  {
    "name": "두동근린공원",
    "category": "어린이놀이시설",
    "type": "어린이놀이시설",
    "address": null,
    "tel": "",
    "lat": 34.893134,
    "lng": 128.566967
  },
  {
    "name": "거제서희스타힐스아파트1(107동 108동 사이)",
    "category": "어린이놀이시설",
    "type": "어린이놀이시설",
    "address": null,
    "tel": "",
    "lat": 34.84174,
    "lng": 128.695962
  },
  {
    "name": "거제서희스타힐스아파트2(106동 107동 사이)",
    "category": "어린이놀이시설",
    "type": "어린이놀이시설",
    "address": null,
    "tel": "",
    "lat": 34.841582,
    "lng": 128.695962
  },
  {
    "name": "거제서희스타힐스아파트3(105동 뒤)",
    "category": "어린이놀이시설",
    "type": "어린이놀이시설",
    "address": null,
    "tel": "",
    "lat": 34.841652,
    "lng": 128.695962
  },
  {
    "name": "거제서희스타힐스아파트4(101동 103동 사이)",
    "category": "어린이놀이시설",
    "type": "어린이놀이시설",
    "address": null,
    "tel": "",
    "lat": 34.841617,
    "lng": 128.695962
  },
  {
    "name": "아주하나어린이집",
    "category": "어린이놀이시설",
    "type": "어린이놀이시설",
    "address": null,
    "tel": "",
    "lat": 34.864697,
    "lng": 128.690913
  },
  {
    "name": "거제아이파크 1차 아파트 복리동 내 영유아시설",
    "category": "어린이놀이시설",
    "type": "어린이놀이시설",
    "address": "경상남도 거제시 양정5길 36 (양정동, 거제아이파크1차)",
    "tel": "",
    "lat": 34.873789,
    "lng": 128.647745
  },
  {
    "name": "거제양정초등학교 병설유치원 놀이시설",
    "category": "어린이놀이시설",
    "type": "어린이놀이시설",
    "address": "경상남도 거제시 양정2길 15 (양정동)",
    "tel": "",
    "lat": 34.871251,
    "lng": 128.651104
  },
  {
    "name": "가람어린이집 놀이시설",
    "category": "어린이놀이시설",
    "type": "어린이놀이시설",
    "address": "경상남도 거제시 배골길 18 (아주동)",
    "tel": "",
    "lat": 34.870261,
    "lng": 128.681775
  },
  {
    "name": "뽀로로키즈카페 거제디큐브시티점",
    "category": "어린이놀이시설",
    "type": "어린이놀이시설",
    "address": "경상남도 거제시 장평로 12 (장평동)",
    "tel": "",
    "lat": 34.890759,
    "lng": 128.616472
  },
  {
    "name": "세종유치원 물놀이 시설",
    "category": "어린이놀이시설",
    "type": "어린이놀이시설",
    "address": "경상남도 거제시 문동폭포길 17 (문동동)",
    "tel": "",
    "lat": 34.855728,
    "lng": 128.651402
  },
  {
    "name": "신현교회 내 사랑나무동산옆",
    "category": "어린이놀이시설",
    "type": "어린이놀이시설",
    "address": "경상남도 거제시 고현로 138-30 (고현동)",
    "tel": "",
    "lat": 34.889929,
    "lng": 128.630247
  },
  {
    "name": "대패생각 거제중곡점 내 실내놀이시설",
    "category": "어린이놀이시설",
    "type": "어린이놀이시설",
    "address": "경상남도 거제시 중곡로1길 47 (고현동)",
    "tel": "",
    "lat": 34.892376,
    "lng": 128.625528
  },
  {
    "name": "해뜰안애아파트 103동 앞 어린이놀이터",
    "category": "어린이놀이시설",
    "type": "어린이놀이시설",
    "address": "경상남도 거제시 수양로 104 (양정동, 해뜰안애)",
    "tel": "",
    "lat": 34.865465,
    "lng": 128.652367
  },
  {
    "name": "해뜰안애아파트 101동 뒤 유아놀이터",
    "category": "어린이놀이시설",
    "type": "어린이놀이시설",
    "address": "경상남도 거제시 수양로 104 (양정동, 해뜰안애)",
    "tel": "",
    "lat": 34.865486,
    "lng": 128.652344
  },
  {
    "name": "옥포중앙공원 어린이물놀이장",
    "category": "어린이놀이시설",
    "type": "어린이놀이시설",
    "address": "경남 거제시 옥포대첩로 128",
    "tel": "",
    "lat": 34.893756,
    "lng": 128.702813
  },
  {
    "name": "미소본갈비",
    "category": "어린이놀이시설",
    "type": "어린이놀이시설",
    "address": "경상남도 거제시 고현천로 52 (고현동)",
    "tel": "",
    "lat": 34.887398,
    "lng": 128.625819
  },
  {
    "name": "덕포교회 실내놀이터",
    "category": "어린이놀이시설",
    "type": "어린이놀이시설",
    "address": "경상남도 거제시 성산로 184-24 (덕포동)",
    "tel": "",
    "lat": 34.908798,
    "lng": 128.701563
  },
  {
    "name": "서상농촌테마공원",
    "category": "어린이놀이시설",
    "type": "어린이놀이시설",
    "address": null,
    "tel": "",
    "lat": 34.857191,
    "lng": 128.604728
  },
  {
    "name": "염광교회 실내놀이시설",
    "category": "어린이놀이시설",
    "type": "어린이놀이시설",
    "address": "경상남도 거제시 아주동",
    "tel": "",
    "lat": 34.862204,
    "lng": 128.690564
  },
  {
    "name": "거제유치원",
    "category": "어린이놀이시설",
    "type": "어린이놀이시설",
    "address": null,
    "tel": "",
    "lat": 34.890121,
    "lng": 128.696017
  },
  {
    "name": "거제 장평포레나 101동 뒤 놀이터",
    "category": "어린이놀이시설",
    "type": "어린이놀이시설",
    "address": "경상남도 거제시 장평3로4길 41-1 (장평동)",
    "tel": "",
    "lat": 34.891904,
    "lng": 128.607436
  },
  {
    "name": "거제 장평포레나 103동 뒤 놀이터",
    "category": "어린이놀이시설",
    "type": "어린이놀이시설",
    "address": "경상남도 거제시 장평3로4길 41-1 (장평동)",
    "tel": "",
    "lat": 34.892081,
    "lng": 128.608162
  },
  {
    "name": "거제 장평포레나 104동 뒤 놀이터",
    "category": "어린이놀이시설",
    "type": "어린이놀이시설",
    "address": "경상남도 거제시 장평3로4길 41-1 (장평동)",
    "tel": "",
    "lat": 34.891993,
    "lng": 128.608012
  },
  {
    "name": "거제 장평포레나 106동 뒤 놀이터",
    "category": "어린이놀이시설",
    "type": "어린이놀이시설",
    "address": "경상남도 거제시 장평3로4길 41-1 (장평동)",
    "tel": "",
    "lat": 34.8918,
    "lng": 128.608119
  },
  {
    "name": "거제 장평포레나 107동 뒤 놀이터",
    "category": "어린이놀이시설",
    "type": "어린이놀이시설",
    "address": "경상남도 거제시 장평3로4길 41-1 (장평동)",
    "tel": "",
    "lat": 34.892134,
    "lng": 128.608184
  },
  {
    "name": "스타힐스오션시티 실내놀이터",
    "category": "어린이놀이시설",
    "type": "어린이놀이시설",
    "address": "경상남도 거제시 일운면 소동8길 11 (스타힐스 오션시티)",
    "tel": "",
    "lat": 34.841685,
    "lng": 128.695978
  },
  {
    "name": "거제시청 어린이집(신규)",
    "category": "어린이놀이시설",
    "type": "어린이놀이시설",
    "address": "경상남도 거제시 계룡로 125 (고현동)",
    "tel": "",
    "lat": 34.879699,
    "lng": 128.621452
  },
  {
    "name": "거제용소초등학교 어린이 놀이시설",
    "category": "어린이놀이시설",
    "type": "어린이놀이시설",
    "address": null,
    "tel": "",
    "lat": 34.873178,
    "lng": 128.687282
  },
  {
    "name": "거제 목재문화체험장 실내놀이시설",
    "category": "어린이놀이시설",
    "type": "어린이놀이시설",
    "address": "경상남도 거제시 동부면 거제중앙로 325",
    "tel": "",
    "lat": 34.785699,
    "lng": 128.625943
  },
  {
    "name": "거제교회 놀이터",
    "category": "어린이놀이시설",
    "type": "어린이놀이시설",
    "address": "경상남도 거제시 사등면 지석2길 33",
    "tel": "",
    "lat": 34.906717,
    "lng": 128.513547
  },
  {
    "name": "거제 자연휴양림 숲속놀이터",
    "category": "어린이놀이시설",
    "type": "어린이놀이시설",
    "address": "경상남도 거제시 동부면 거제중앙로 325",
    "tel": "",
    "lat": 34.785699,
    "lng": 128.625943
  },
  {
    "name": "하모니 어린이집 실내놀이터",
    "category": "어린이놀이시설",
    "type": "어린이놀이시설",
    "address": "경상남도 거제시 옥포로 122 (옥포동)",
    "tel": "",
    "lat": 34.887863,
    "lng": 128.695429
  },
  {
    "name": "사랑샘어린이집 놀이터",
    "category": "어린이놀이시설",
    "type": "어린이놀이시설",
    "address": null,
    "tel": "",
    "lat": 34.865778,
    "lng": 128.629985
  },
  {
    "name": "E편한세상거제유로아일랜드 어린이놀이터3(105동)",
    "category": "어린이놀이시설",
    "type": "어린이놀이시설",
    "address": "경상남도 거제시 고현동",
    "tel": "",
    "lat": 34.882599,
    "lng": 128.623325
  },
  {
    "name": "E편한세상거제유로아일랜드 유아놀이터(103동,보육)",
    "category": "어린이놀이시설",
    "type": "어린이놀이시설",
    "address": null,
    "tel": "",
    "lat": 34.882599,
    "lng": 128.623325
  },
  {
    "name": "거제옥포하나어린이집",
    "category": "어린이놀이시설",
    "type": "어린이놀이시설",
    "address": null,
    "tel": "",
    "lat": 34.890121,
    "lng": 128.696017
  },
  {
    "name": "e편한세상 거제 유로 아일랜드 101동앞 어린이놀이터1",
    "category": "어린이놀이시설",
    "type": "어린이놀이시설",
    "address": null,
    "tel": "",
    "lat": 34.882599,
    "lng": 128.623325
  },
  {
    "name": "e편한세상 거제유로아일랜드 103동 뒤 어린이놀이터",
    "category": "어린이놀이시설",
    "type": "어린이놀이시설",
    "address": null,
    "tel": "",
    "lat": 34.882599,
    "lng": 128.623325
  },
  {
    "name": "장승포장난감도서관 실내놀이터",
    "category": "어린이놀이시설",
    "type": "어린이놀이시설",
    "address": "경상남도 거제시 장승포로7길 8 (장승포동)",
    "tel": "",
    "lat": 34.86581,
    "lng": 128.730565
  },
  {
    "name": "대패생각 옥포점 어린이놀이시설",
    "category": "어린이놀이시설",
    "type": "어린이놀이시설",
    "address": null,
    "tel": "",
    "lat": 34.890121,
    "lng": 128.696017
  },
  {
    "name": "능포 파랑새 가족공원",
    "category": "어린이놀이시설",
    "type": "어린이놀이시설",
    "address": null,
    "tel": "",
    "lat": 34.882973,
    "lng": 128.737903
  },
  {
    "name": "갈비만 거제점",
    "category": "어린이놀이시설",
    "type": "어린이놀이시설",
    "address": "경상남도 거제시 상동5길 113 (상동동)",
    "tel": "",
    "lat": 34.861379,
    "lng": 128.629511
  },
  {
    "name": "복골캠핌장 실외놀이터",
    "category": "어린이놀이시설",
    "type": "어린이놀이시설",
    "address": null,
    "tel": "",
    "lat": 34.848379,
    "lng": 128.654201
  },
  {
    "name": "죽도국가산업단지 어린이공원",
    "category": "어린이놀이시설",
    "type": "어린이놀이시설",
    "address": null,
    "tel": "",
    "lat": 34.893297,
    "lng": 128.604409
  },
  {
    "name": "불멍",
    "category": "어린이놀이시설",
    "type": "어린이놀이시설",
    "address": null,
    "tel": "",
    "lat": 34.8413,
    "lng": 128.6868
  },
  {
    "name": "한내 시온 숲속의아침뷰 2동, 3동 옆",
    "category": "어린이놀이시설",
    "type": "어린이놀이시설",
    "address": null,
    "tel": "",
    "lat": 34.929966,
    "lng": 128.612556
  },
  {
    "name": "한내 시온 숲속의아침뷰",
    "category": "어린이놀이시설",
    "type": "어린이놀이시설",
    "address": "경상남도 거제시 연초면 한내리",
    "tel": "",
    "lat": 34.929669,
    "lng": 128.613199
  },
  {
    "name": "한내 시온 숲속의아침뷰 5동 뒤",
    "category": "어린이놀이시설",
    "type": "어린이놀이시설",
    "address": null,
    "tel": "",
    "lat": 34.929128,
    "lng": 128.609728
  },
  {
    "name": "한내 시온 숲속의아침뷰 6동 지하",
    "category": "어린이놀이시설",
    "type": "어린이놀이시설",
    "address": null,
    "tel": "",
    "lat": 34.929515,
    "lng": 128.611498
  },
  {
    "name": "한내 시온 숲속의아침뷰 8동 앞",
    "category": "어린이놀이시설",
    "type": "어린이놀이시설",
    "address": null,
    "tel": "",
    "lat": 34.92997,
    "lng": 128.612556
  },
  {
    "name": "e편한세상 거제유로스카이 207동 앞 어린이놀이터",
    "category": "어린이놀이시설",
    "type": "어린이놀이시설",
    "address": "경남 거제시 거제대로 4500-45",
    "tel": "",
    "lat": 0.0,
    "lng": 0.0
  },
  {
    "name": "e편한세상 거제유로스카이 어린이놀이터1(201동)",
    "category": "어린이놀이시설",
    "type": "어린이놀이시설",
    "address": "경남 거제시 고현항2로 52",
    "tel": "",
    "lat": 0.0,
    "lng": 0.0
  },
  {
    "name": "e편한세상 거제유로스카이 유아놀이터(205동.보육)",
    "category": "어린이놀이시설",
    "type": "어린이놀이시설",
    "address": "경남 거제시 고현항2로 52",
    "tel": "",
    "lat": 0.0,
    "lng": 0.0
  },
  {
    "name": "거제반도유보라아파트 어린이놀이시설1",
    "category": "어린이놀이시설",
    "type": "어린이놀이시설",
    "address": "경남 거제시 서간도길 9-10",
    "tel": "",
    "lat": 0.0,
    "lng": 0.0
  },
  {
    "name": "거제반도유보라아파트 어린이놀이시설2",
    "category": "어린이놀이시설",
    "type": "어린이놀이시설",
    "address": "경상남도 거제시 옥포동",
    "tel": "",
    "lat": 0.0,
    "lng": 0.0
  },
  {
    "name": "학동자동차야영장 어린이놀이터",
    "category": "어린이놀이시설",
    "type": "어린이놀이시설",
    "address": "경남 거제시 동부면 거제대로 987-13",
    "tel": "",
    "lat": 0.0,
    "lng": 0.0
  },
  {
    "name": "신우스위트빌1차아파트(103동 앞)",
    "category": "어린이놀이시설",
    "type": "어린이놀이시설",
    "address": "경상남도 거제시 상동1길 31 (상동동, 신우스위트1차아파트)",
    "tel": "",
    "lat": 34.863924,
    "lng": 128.638197
  },
  {
    "name": "덕산3차 베스트타운 1 (302동 옆)",
    "category": "어린이놀이시설",
    "type": "어린이놀이시설",
    "address": "경상남도 거제시 상동1길 15-9 (상동동, 덕산3차베스트타운)",
    "tel": "",
    "lat": 34.862522,
    "lng": 128.64029
  },
  {
    "name": "덕산3차 베스트타운 2 (307동 옆)",
    "category": "어린이놀이시설",
    "type": "어린이놀이시설",
    "address": "경상남도 거제시 상동1길 15-9 (상동동, 덕산3차베스트타운)",
    "tel": "",
    "lat": 34.862522,
    "lng": 128.64029
  },
  {
    "name": "덕산3차 베스트타운 3 (307동 뒤)",
    "category": "어린이놀이시설",
    "type": "어린이놀이시설",
    "address": "경상남도 거제시 상동1길 15-9 (상동동, 덕산3차베스트타운)",
    "tel": "",
    "lat": 34.862522,
    "lng": 128.64029
  },
  {
    "name": "성내아파트",
    "category": "어린이놀이시설",
    "type": "어린이놀이시설",
    "address": "경상남도 거제시 거제중앙로13길 31-1 (고현동, 성내아파트)",
    "tel": "",
    "lat": 34.881397,
    "lng": 128.623601
  },
  {
    "name": "주영에이스빌",
    "category": "어린이놀이시설",
    "type": "어린이놀이시설",
    "address": "경상남도 거제시 거제중앙로7길 18 (고현동, 주영에이스빌)",
    "tel": "",
    "lat": 34.87897,
    "lng": 128.626127
  },
  {
    "name": "고현삼도아파트",
    "category": "어린이놀이시설",
    "type": "어린이놀이시설",
    "address": "경상남도 거제시 계룡로8길 8 (고현동)",
    "tel": "",
    "lat": 34.87891,
    "lng": 128.624346
  },
  {
    "name": "동헌아파트",
    "category": "어린이놀이시설",
    "type": "어린이놀이시설",
    "address": "경상남도 거제시 중곡2로4길 5-8 (고현동)",
    "tel": "",
    "lat": 34.895164,
    "lng": 128.628404
  },
  {
    "name": "고려5차아파트 601동",
    "category": "어린이놀이시설",
    "type": "어린이놀이시설",
    "address": "경상남도 거제시 중곡로2길 31 (고현동, 고려5차아파트)",
    "tel": "",
    "lat": 34.894705,
    "lng": 128.633461
  },
  {
    "name": "고려5차아파트(B) 605동",
    "category": "어린이놀이시설",
    "type": "어린이놀이시설",
    "address": "경상남도 거제시 중곡로2길 22 (고현동, 고려5차아파트)",
    "tel": "",
    "lat": 34.8945,
    "lng": 128.633368
  },
  {
    "name": "덕산2차베스트타운 206동",
    "category": "어린이놀이시설",
    "type": "어린이놀이시설",
    "address": "경상남도 거제시 중곡2로 89 (고현동, 거제2차덕산베스트타운)",
    "tel": "",
    "lat": 34.89666,
    "lng": 128.636479
  },
  {
    "name": "덕산2차베스트타운 209동",
    "category": "어린이놀이시설",
    "type": "어린이놀이시설",
    "address": "경상남도 거제시 중곡2로 89 (고현동, 거제2차덕산베스트타운)",
    "tel": "",
    "lat": 34.89666,
    "lng": 128.636479
  },
  {
    "name": "장평2차주공아파트 1(202동 옆)",
    "category": "어린이놀이시설",
    "type": "어린이놀이시설",
    "address": "경상남도 거제시 장평1로 143 (장평동, 장평2차주공아파트)",
    "tel": "",
    "lat": 34.891376,
    "lng": 128.604811
  },
  {
    "name": "장평2차주공아파트 2(206동 옆)",
    "category": "어린이놀이시설",
    "type": "어린이놀이시설",
    "address": "경상남도 거제시 장평1로 143 (장평동, 장평2차주공아파트)",
    "tel": "",
    "lat": 34.890927,
    "lng": 128.605731
  },
  {
    "name": "그린파크",
    "category": "어린이놀이시설",
    "type": "어린이놀이시설",
    "address": "경상남도 거제시 거제대로 3697-19 (옥포동, 그린파크)",
    "tel": "",
    "lat": 34.88619,
    "lng": 128.690996
  },
  {
    "name": "덕산3차아파트(302동과 303동사이)",
    "category": "어린이놀이시설",
    "type": "어린이놀이시설",
    "address": "경상남도 거제시 옥포로 293-1 (옥포동, 덕산3차아파트)",
    "tel": "",
    "lat": 34.898688,
    "lng": 128.685727
  },
  {
    "name": "영진자이온아파트",
    "category": "어린이놀이시설",
    "type": "어린이놀이시설",
    "address": "경상남도 거제시 옥포대첩로 115 (옥포동, 영진자이온)",
    "tel": "",
    "lat": 34.895462,
    "lng": 128.699471
  },
  {
    "name": "숲속의아침 아파트 102동놀이터",
    "category": "어린이놀이시설",
    "type": "어린이놀이시설",
    "address": "경상남도 거제시 용소7길 20 (아주동, 숲속의아침)",
    "tel": "",
    "lat": 34.878716,
    "lng": 128.690637
  },
  {
    "name": "성수아파트",
    "category": "어린이놀이시설",
    "type": "어린이놀이시설",
    "address": "경상남도 거제시 옥수로8길 31 (능포동, 성수아파트)",
    "tel": "",
    "lat": 34.877574,
    "lng": 128.729117
  },
  {
    "name": "은아아파트",
    "category": "어린이놀이시설",
    "type": "어린이놀이시설",
    "address": "경상남도 거제시 마전3길 30-4 (장승포동, 은아아파트)",
    "tel": "",
    "lat": 34.859703,
    "lng": 128.723546
  },
  {
    "name": "대호레비앙",
    "category": "어린이놀이시설",
    "type": "어린이놀이시설",
    "address": "경상남도 거제시 장승로 17 (장승포동, 대호레비앙)",
    "tel": "",
    "lat": 34.857517,
    "lng": 128.719893
  },
  {
    "name": "옥성삼화비취맨션",
    "category": "어린이놀이시설",
    "type": "어린이놀이시설",
    "address": "경상남도 거제시 사등면 사곡1길 10",
    "tel": "",
    "lat": 34.900138,
    "lng": 128.564268
  },
  {
    "name": "덕산2차베스트타운 205동",
    "category": "어린이놀이시설",
    "type": "어린이놀이시설",
    "address": "경상남도 거제시 중곡2로 89 (고현동, 거제2차덕산베스트타운)",
    "tel": "",
    "lat": 34.89666,
    "lng": 128.636479
  },
  {
    "name": "덕산2차베스트타운 복리동",
    "category": "어린이놀이시설",
    "type": "어린이놀이시설",
    "address": "경상남도 거제시 중곡2로 89 (고현동, 거제2차덕산베스트타운)",
    "tel": "",
    "lat": 34.89666,
    "lng": 128.636479
  },
  {
    "name": "미진비치힐아파트",
    "category": "어린이놀이시설",
    "type": "어린이놀이시설",
    "address": "경상남도 거제시 거제대로 3679-6 (옥포동, 미진비치힐아파트)",
    "tel": "",
    "lat": 34.886435,
    "lng": 128.692594
  },
  {
    "name": "삼도하이츠아파트",
    "category": "어린이놀이시설",
    "type": "어린이놀이시설",
    "address": "경상남도 거제시 옥포중앙로 125 (옥포동, 삼도하이츠아파트)",
    "tel": "",
    "lat": 34.895747,
    "lng": 128.70021
  },
  {
    "name": "대원아파트",
    "category": "어린이놀이시설",
    "type": "어린이놀이시설",
    "address": "경상남도 거제시 거제대로 3801 (옥포동, 대원아파트)",
    "tel": "",
    "lat": 34.894509,
    "lng": 128.68587
  },
  {
    "name": "미진참사랑아파트",
    "category": "어린이놀이시설",
    "type": "어린이놀이시설",
    "address": "경상남도 거제시 탑곡로2길 17 (아주동, 미진참사랑아파트)",
    "tel": "",
    "lat": 34.86396,
    "lng": 128.694414
  },
  {
    "name": "석호해와루아파트 2",
    "category": "어린이놀이시설",
    "type": "어린이놀이시설",
    "address": "경상남도 거제시 아주로 73 (아주동, 석호해와루아파트)",
    "tel": "",
    "lat": 34.864164,
    "lng": 128.686806
  },
  {
    "name": "능포대우아파트 2(9동)",
    "category": "어린이놀이시설",
    "type": "어린이놀이시설",
    "address": "경상남도 거제시 능포로 199 (능포동, 능포아파트)",
    "tel": "",
    "lat": 34.882695,
    "lng": 128.73422
  },
  {
    "name": "동성그린아파트 1(101동 옆)",
    "category": "어린이놀이시설",
    "type": "어린이놀이시설",
    "address": "경상남도 거제시 일운면 반송재로 481-9 (동성그린아파트)",
    "tel": "",
    "lat": 34.838401,
    "lng": 128.689052
  },
  {
    "name": "동성그린아파트 2(103동 옆)",
    "category": "어린이놀이시설",
    "type": "어린이놀이시설",
    "address": "경상남도 거제시 일운면 반송재로 481-9 (동성그린아파트)",
    "tel": "",
    "lat": 34.838401,
    "lng": 128.689052
  },
  {
    "name": "일성수월아리채",
    "category": "어린이놀이시설",
    "type": "어린이놀이시설",
    "address": "경상남도 거제시 중곡2로 107 (고현동, 일성수월아리채)",
    "tel": "",
    "lat": 34.895172,
    "lng": 128.637145
  },
  {
    "name": "신우스위트빌2차아파트 놀이시설",
    "category": "어린이놀이시설",
    "type": "어린이놀이시설",
    "address": "경상남도 거제시 거제중앙로 1581 (상동동, 신우스위트빌2차)",
    "tel": "",
    "lat": 34.863868,
    "lng": 128.641536
  },
  {
    "name": "동하파로스빌",
    "category": "어린이놀이시설",
    "type": "어린이놀이시설",
    "address": "경상남도 거제시 거제중앙로 1782 (상동동, 동하 파로스빌)",
    "tel": "",
    "lat": 34.878456,
    "lng": 128.628972
  },
  {
    "name": "대한2차아파트",
    "category": "어린이놀이시설",
    "type": "어린이놀이시설",
    "address": "경상남도 거제시 장평로6길 20 (장평동, 대한2차아파트)",
    "tel": "",
    "lat": 34.892121,
    "lng": 128.613781
  },
  {
    "name": "성원아파트 1(1동 뒤)",
    "category": "어린이놀이시설",
    "type": "어린이놀이시설",
    "address": "경상남도 거제시 장평로6길 13 (장평동, 성원아파트)",
    "tel": "",
    "lat": 34.892423,
    "lng": 128.612896
  },
  {
    "name": "성원아파트 2(3동 뒤)",
    "category": "어린이놀이시설",
    "type": "어린이놀이시설",
    "address": "경상남도 거제시 장평로6길 13 (장평동, 성원아파트)",
    "tel": "",
    "lat": 34.892458,
    "lng": 128.611946
  },
  {
    "name": "성원아파트 3(6동 앞)",
    "category": "어린이놀이시설",
    "type": "어린이놀이시설",
    "address": "경상남도 거제시 장평로6길 13 (장평동, 성원아파트)",
    "tel": "",
    "lat": 34.893378,
    "lng": 128.613754
  },
  {
    "name": "옥포혜성아파트 102동 놀이시설",
    "category": "어린이놀이시설",
    "type": "어린이놀이시설",
    "address": "경상남도 거제시 성산로 54 (옥포동, 혜성아파트)",
    "tel": "",
    "lat": 34.900718,
    "lng": 128.697407
  },
  {
    "name": "옥포혜성아파트 112동 놀이시설",
    "category": "어린이놀이시설",
    "type": "어린이놀이시설",
    "address": "경상남도 거제시 성산로 54 (옥포동, 혜성아파트)",
    "tel": "",
    "lat": 34.900718,
    "lng": 128.697407
  },
  {
    "name": "시영아파트",
    "category": "어린이놀이시설",
    "type": "어린이놀이시설",
    "address": "경상남도 거제시 탑곡로4길 15 (아주동, 시영아파트)",
    "tel": "",
    "lat": 34.863997,
    "lng": 128.691944
  },
  {
    "name": "혜성골든타운 1",
    "category": "어린이놀이시설",
    "type": "어린이놀이시설",
    "address": "경상남도 거제시 탑곡로 80 (아주동, 혜성골든타운)",
    "tel": "",
    "lat": 34.863161,
    "lng": 128.69142
  },
  {
    "name": "옥명대우아파트 1 101동 앞",
    "category": "어린이놀이시설",
    "type": "어린이놀이시설",
    "address": "경상남도 거제시 능포로2길 38 (능포동, 옥명대우아파트)",
    "tel": "",
    "lat": 34.874521,
    "lng": 128.732747
  },
  {
    "name": "SK-뷰 2(110동 놀이터)",
    "category": "어린이놀이시설",
    "type": "어린이놀이시설",
    "address": "경상남도 거제시 상동1길 39 (상동동, SK뷰아파트)",
    "tel": "",
    "lat": 34.86251,
    "lng": 128.637031
  },
  {
    "name": "덕산4차아파트",
    "category": "어린이놀이시설",
    "type": "어린이놀이시설",
    "address": "경상남도 거제시 옥포로 305 (옥포동, 덕산4차아파트)",
    "tel": "",
    "lat": 34.900169,
    "lng": 128.685042
  },
  {
    "name": "옥명대우아파트 2 105동 옆",
    "category": "어린이놀이시설",
    "type": "어린이놀이시설",
    "address": "경상남도 거제시 능포로2길 38 (능포동, 옥명대우아파트)",
    "tel": "",
    "lat": 34.874521,
    "lng": 128.732747
  },
  {
    "name": "옥명대우아파트 4 113동 뒤",
    "category": "어린이놀이시설",
    "type": "어린이놀이시설",
    "address": "경상남도 거제시 능포로2길 38 (능포동, 옥명대우아파트)",
    "tel": "",
    "lat": 34.874521,
    "lng": 128.732747
  },
  {
    "name": "영승한마음타운",
    "category": "어린이놀이시설",
    "type": "어린이놀이시설",
    "address": "경상남도 거제시 마전5길 8-2 (장승포동, 영승한마음타운)",
    "tel": "",
    "lat": 34.862059,
    "lng": 128.722164
  },
  {
    "name": "장평코아루아파트 1(105동 앞)",
    "category": "어린이놀이시설",
    "type": "어린이놀이시설",
    "address": "경상남도 거제시 장평3로3길 25 (장평동, 장평코아루아파트)",
    "tel": "",
    "lat": 34.889953,
    "lng": 128.606454
  },