[
  {
    "name": "거제읍내시장",
    "category": "전통시장",
    "type": "상설장+3일장",
    "address": "경상남도 거제시 거제면 읍내로2길 28",
    "tel": "055-634-0239",
    "lat": 34.850559,
    "lng": 128.590304
  },
  {
    "name": "장평종합시장",
    "category": "전통시장",
    "type": "상설장",
    "address": "경상남도 거제시 장평로37",
    "tel": "055-637-2197",
    "lat": 34.890864,
    "lng": 128.613111
  },
  {
    "name": "거제고현시장",
    "category": "전통시장",
    "type": "상설장",
    "address": "경상남도 거제시 거제중앙로17길 6",
    "tel": "055-358-2265",
    "lat": 34.885429,
    "lng": 128.624008
  },
  {
    "name": "신부시장",
    "category": "전통시장",
    "type": "상설장",
    "address": "경상남도 거제시 장승포로 49",
    "tel": "055-682-2317",
    "lat": 34.867723,
    "lng": 128.729545
  },
  {
    "name": "옥현상가",
    "category": "전통시장",
    "type": "상설장",
    "address": "경상남도 거제시 옥포로 250",
    "tel": "055-688-1949",
    "lat": 34.896922,
    "lng": 128.689934
  },
  {
    "name": "옥포국제시장",
    "category": "전통시장",
    "type": "상설장",
    "address": "경상남도 거제시 옥포로19길 12-1",
    "tel": "055-687-3840",
    "lat": 34.894359,
    "lng": 128.689542
  },
  {
    "name": "옥수시장",
    "category": "전통시장",
    "type": "상설장",
    "address": "경상남도 거제시 옥수로2길 10",
    "tel": "",
    "lat": 34.875347,
    "lng": 128.730874
  },
  {
    "name": "옥수동새시장",
    "category": "전통시장",
    "type": "상설장",
    "address": "경상남도 거제시 능포로134-2",
    "tel": "",
    "lat": 34.875397,
    "lng": 128.731914
  },
  {
    "name": "한라프라자",
    "category": "전통시장",
    "type": "상설장",
    "address": "경상남도 거제시 거제중앙로 1906",
    "tel": "055-637-1195",
    "lat": 34.888202,
    "lng": 128.623559
  }
]