[
  {
    "name": "일죽우체국",
    "category": "관공서",
    "type": "관공서",
    "address": "(임시청사) 경기도 안성시 일죽면 금일로505. 가동 104호",
    "tel": "031-672-2500",
    "lat": 35.272258,
    "lng": 128.408184
  },
  {
    "name": "함안우체국",
    "category": "관공서",
    "type": "관공서",
    "address": "경상남도 함안군 가야읍 함안대로 523",
    "tel": "055-582-0310",
    "lat": 35.273615,
    "lng": 128.407301
  },
  {
    "name": "군북우체국",
    "category": "관공서",
    "type": "관공서",
    "address": "경상남도 함안군 군북면 중암7길 6",
    "tel": "055-585-5001",
    "lat": 35.261688,
    "lng": 128.345703
  },
  {
    "name": "칠원우체국",
    "category": "관공서",
    "type": "관공서",
    "address": "경상남도 함안군 칠원읍 용산1길 39",
    "tel": "055-587-0001",
    "lat": 35.309255,
    "lng": 128.516641
  },
  {
    "name": "함읍우체국",
    "category": "관공서",
    "type": "관공서",
    "address": "경상남도 함안군 북촌2길 50-21",
    "tel": "055-582-1400",
    "lat": 35.2425,
    "lng": 128.422788
  },
  {
    "name": "함안대산우체국",
    "category": "관공서",
    "type": "관공서",
    "address": "경상남도 함안군 대산면 대산중앙로 187",
    "tel": "055-582-8001",
    "lat": 35.350686,
    "lng": 128.430264
  },
  {
    "name": "함안법수우체국",
    "category": "관공서",
    "type": "관공서",
    "address": "경상남도 함안군 법수면 우거북길 24",
    "tel": "055-582-4001",
    "lat": 35.315566,
    "lng": 128.35501
  },
  {
    "name": "함안산인우체국",
    "category": "관공서",
    "type": "관공서",
    "address": "경상남도 함안군 산인면 가야로 221",
    "tel": "055-582-1900",
    "lat": 35.278912,
    "lng": 128.425269
  },
  {
    "name": "함안칠북우체국",
    "category": "관공서",
    "type": "관공서",
    "address": "경상남도 함안군 칠북면 칠북로 31 ",
    "tel": "055-587-3501",
    "lat": 35.346739,
    "lng": 128.521337
  },
  {
    "name": "함안칠서우체국",
    "category": "관공서",
    "type": "관공서",
    "address": "경상남도 함안군 칠서면 공단상가3길 20 (대치리)",
    "tel": "055-587-5001",
    "lat": 35.361213,
    "lng": 128.484348
  },
  {
    "name": "함안아라우편취급국",
    "category": "관공서",
    "type": "관공서",
    "address": "경상남도 함안군 가야읍 가야로 93",
    "tel": "055-583-3366",
    "lat": 35.278394,
    "lng": 128.411317
  },
  {
    "name": "함안월촌우편취급국",
    "category": "관공서",
    "type": "관공서",
    "address": "경상남도 함안군 군북면 월촌안길 117",
    "tel": "055-582-7500",
    "lat": 35.299677,
    "lng": 128.299054
  },
  {
    "name": "함안군청",
    "category": "관공서",
    "type": "관공서",
    "address": "경상남도 함안군 가야읍 말산로 1",
    "tel": "055-580-2114",
    "lat": 35.272488,
    "lng": 128.406539
  },
  {
    "name": "가야읍행정복지센터",
    "category": "관공서",
    "type": "관공서",
    "address": "경상남도 함안군 가야읍 함안대로 505",
    "tel": "055-580-3051",
    "lat": 35.272258,
    "lng": 128.408184
  },
  {
    "name": "칠원읍사무소",
    "category": "관공서",
    "type": "관공서",
    "address": "경상남도 함안군 칠원읍 원서로 4",
    "tel": "055-580-3751",
    "lat": 35.308839,
    "lng": 128.518557
  },
  {
    "name": "군북면사무소",
    "category": "관공서",
    "type": "관공서",
    "address": "경상남도 함안군 군북면 지두2길 15",
    "tel": "055-580-3251",
    "lat": 35.261637,
    "lng": 128.345048
  },
  {
    "name": "대산면사무소",
    "category": "관공서",
    "type": "관공서",
    "address": "경상남도 함안군 대산면 대산중앙로 176",
    "tel": "055-580-3451",
    "lat": 35.350204,
    "lng": 128.431577
  },
  {
    "name": "법수면사무소",
    "category": "관공서",
    "type": "관공서",
    "address": "경상남도 함안군 법수면 우거북길 16-3",
    "tel": "055-580-3351",
    "lat": 35.315455,
    "lng": 128.355424
  },
  {
    "name": "산인면사무소",
    "category": "관공서",
    "type": "관공서",
    "address": "경상남도 함안군 산인면 가야로 211",
    "tel": "055-580-3851",
    "lat": 35.27929,
    "lng": 128.42432
  },
  {
    "name": "여항면사무소",
    "category": "관공서",
    "type": "관공서",
    "address": "경상남도 함안군 여항면 여항로 50",
    "tel": "055-580-3951",
    "lat": 35.210166,
    "lng": 128.434515
  },
  {
    "name": "칠북면사무소",
    "category": "관공서",
    "type": "관공서",
    "address": "경상남도 함안군 칠북면 칠북로 32",
    "tel": "055-580-3651",
    "lat": 35.346752,
    "lng": 128.521706
  },
  {
    "name": "칠서면사무소",
    "category": "관공서",
    "type": "관공서",
    "address": "경상남도 함안군 칠서면 청계2길 35",
    "tel": "055-580-3551",
    "lat": 35.333553,
    "lng": 128.497941
  },
  {
    "name": "함안면사무소",
    "category": "관공서",
    "type": "관공서",
    "address": "경상남도 함안군 함안면 성산로 15",
    "tel": "055-580-3151",
    "lat": 35.242072,
    "lng": 128.42371
  },
  {
    "name": "농업기술센터",
    "category": "관공서",
    "type": "관공서",
    "address": "경상남도 함안군 가야읍 함안대로 755",
    "tel": "055-580-4401",
    "lat": 35.293525,
    "lng": 128.398914
  },
  {
    "name": "보건소",
    "category": "관공서",
    "type": "관공서",
    "address": "경상남도 함안군 가야읍 중앙남4길 10",
    "tel": "055-580-3101",
    "lat": 35.275769,
    "lng": 128.410449
  },
  {
    "name": "함주공원 유아숲체험원",
    "category": "어린이놀이시설",
    "type": "어린이놀이시설",
    "address": "경남 함안군 가야읍 함안대로 621",
    "tel": "",
    "lat": 35.281496,
    "lng": 128.40271
  },
  {
    "name": "입곡 자연생태놀이터",
    "category": "어린이놀이시설",
    "type": "어린이놀이시설",
    "address": "경상남도 함안군 산인면 입곡리 1126-1",
    "tel": "",
    "lat": 35.279262,
    "lng": 128.424347
  },
  {
    "name": "함안군어린이놀이시설(키즈팡)",
    "category": "어린이놀이시설",
    "type": "어린이놀이시설",
    "address": "경남 함안군 가야읍 중앙북길 84",
    "tel": "",
    "lat": 35.276703,
    "lng": 128.410292
  },
  {
    "name": "함안군어린이놀이시설(키즈팡-실내)",
    "category": "어린이놀이시설",
    "type": "어린이놀이시설",
    "address": "경남 함안군 가야읍 중앙북길 86",
    "tel": "",
    "lat": 35.276551,
    "lng": 128.409869
  },
  {
    "name": "검암 어린이 공원",
    "category": "어린이놀이시설",
    "type": "어린이놀이시설",
    "address": "경상남도 함안군 가야읍 중검길 78",
    "tel": "",
    "lat": 35.273071,
    "lng": 128.421459
  },
  {
    "name": "도항 2 어린이 공원",
    "category": "어린이놀이시설",
    "type": "어린이놀이시설",
    "address": "경상남도 함안군 가야읍 성내남길 51-11",
    "tel": "",
    "lat": 35.27323,
    "lng": 128.398217
  },
  {
    "name": "산인어린이집",
    "category": "어린이놀이시설",
    "type": "어린이놀이시설",
    "address": "경상남도 함안군 산인면 송정1길 38",
    "tel": "",
    "lat": 35.28489,
    "lng": 128.430044
  },
  {
    "name": "대산어린이집",
    "category": "어린이놀이시설",
    "type": "어린이놀이시설",
    "address": "경상남도 함안군 대산면 대산중앙4길 39",
    "tel": "",
    "lat": 35.351643,
    "lng": 128.428412
  },
  {
    "name": "한국아파트어린이놀이터",
    "category": "어린이놀이시설",
    "type": "어린이놀이시설",
    "address": "경상남도 함안군 가야읍 남경길 186",
    "tel": "",
    "lat": 35.280484,
    "lng": 128.417568
  },
  {
    "name": "광려천메트로자이아파트 어린이놀이터6(118동)",
    "category": "어린이놀이시설",
    "type": "어린이놀이시설",
    "address": "경상남도 함안군 칠원읍 삼호길 181 (광려천 메트로자이)",
    "tel": "",
    "lat": 35.274667,
    "lng": 128.525089
  },
  {
    "name": "광려천메트로자이아파트 어린이놀이터7(115동)",
    "category": "어린이놀이시설",
    "type": "어린이놀이시설",
    "address": "경상남도 함안군 칠원읍 삼호길 181 (광려천 메트로자이)",
    "tel": "",
    "lat": 35.271458,
    "lng": 128.526013
  },
  {
    "name": "함안초병설유치원 어린이놀이시설",
    "category": "어린이놀이시설",
    "type": "어린이놀이시설",
    "address": "경상남도 함안군 함안면 함안대로 97",
    "tel": "",
    "lat": 35.240979,
    "lng": 128.421444
  },
  {
    "name": "광려천벽산블루밍아파트(101동)",
    "category": "어린이놀이시설",
    "type": "어린이놀이시설",
    "address": "경상남도 함안군 칠원읍 오곡로 103 (광려천벽산블루밍아파트)",
    "tel": "",
    "lat": 35.275597,
    "lng": 128.51951
  },
  {
    "name": "광려천벽산블루밍아파트(109동)",
    "category": "어린이놀이시설",
    "type": "어린이놀이시설",
    "address": "경상남도 함안군 칠원읍 오곡로 103 (광려천벽산블루밍아파트)",
    "tel": "",
    "lat": 35.275597,
    "lng": 128.51951
  },
  {
    "name": "칠원 제1 놀이터",
    "category": "어린이놀이시설",
    "type": "어린이놀이시설",
    "address": "경남 함안군 칠원읍 오곡로 95-6",
    "tel": "",
    "lat": 35.275438,
    "lng": 128.520234
  },
  {
    "name": "칠원 제2 놀이터",
    "category": "어린이놀이시설",
    "type": "어린이놀이시설",
    "address": "경남 함안군 칠원읍 오곡로 121",
    "tel": "",
    "lat": 35.278606,
    "lng": 128.51242
  },
  {
    "name": "동신1차아파트놀이터",
    "category": "어린이놀이시설",
    "type": "어린이놀이시설",
    "address": "경상남도 함안군 가야읍 도항2길 55 (동신아파트)",
    "tel": "",
    "lat": 35.283462,
    "lng": 128.406357
  },
  {
    "name": "동신2차아파트놀이터",
    "category": "어린이놀이시설",
    "type": "어린이놀이시설",
    "address": "경상남도 함안군 가야읍 도항2길 55 (동신아파트)",
    "tel": "",
    "lat": 35.284025,
    "lng": 128.405879
  },
  {
    "name": "칠서에이스아파트1단지놀이터(101동)",
    "category": "어린이놀이시설",
    "type": "어린이놀이시설",
    "address": "경상남도 함안군 칠서면 칠평로 63 (칠서에이스아파트1단지)",
    "tel": "",
    "lat": 35.316273,
    "lng": 128.50599
  },
  {
    "name": "칠서에이스아파트1단지놀이터(102동)",
    "category": "어린이놀이시설",
    "type": "어린이놀이시설",
    "address": "경상남도 함안군 칠서면 칠평로 63 (칠서에이스아파트1단지)",
    "tel": "",
    "lat": 35.316273,
    "lng": 128.50599
  },
  {
    "name": "칠원대동아파트(103동)",
    "category": "어린이놀이시설",
    "type": "어린이놀이시설",
    "address": "경상남도 함안군 칠원읍 갈티길 18-3 (함안칠원대동아파트)",
    "tel": "",
    "lat": 35.293853,
    "lng": 128.53692
  },
  {
    "name": "칠원대동아파트(102동)",
    "category": "어린이놀이시설",
    "type": "어린이놀이시설",
    "address": "경상남도 함안군 칠원읍 갈티길 18-3 (함안칠원대동아파트)",
    "tel": "",
    "lat": 35.293853,
    "lng": 128.53692
  },
  {
    "name": "칠서어린이집 어린이놀이터",
    "category": "어린이놀이시설",
    "type": "어린이놀이시설",
    "address": "경상남도 함안군 칠서면 칠평로 44",
    "tel": "",
    "lat": 35.318489,
    "lng": 128.506194
  },
  {
    "name": "세라어린이집 놀이터",
    "category": "어린이놀이시설",
    "type": "어린이놀이시설",
    "address": "경상남도 함안군 가야읍 함안대로 287-2",
    "tel": "",
    "lat": 35.25651,
    "lng": 128.422737
  },
  {
    "name": "수정그린아파트 놀이터",
    "category": "어린이놀이시설",
    "type": "어린이놀이시설",
    "address": "경상남도 함안군 칠원읍 경남대로 1504-1 (수정그린아파트)",
    "tel": "",
    "lat": 35.274738,
    "lng": 128.532153
  },
  {
    "name": "키즈스쿨 자연어린이집 내 놀이터",
    "category": "어린이놀이시설",
    "type": "어린이놀이시설",
    "address": "경상남도 함안군 칠원읍 예용2길 59",
    "tel": "",
    "lat": 35.296118,
    "lng": 128.513331
  },
  {
    "name": "외암초등학교 어린이놀이시설",
    "category": "어린이놀이시설",
    "type": "어린이놀이시설",
    "address": "경상남도 함안군 여항면 여항로 62",
    "tel": "",
    "lat": 35.2093,
    "lng": 128.434051
  },
  {
    "name": "외암초등학교병설유치원 어린이놀이시설",
    "category": "어린이놀이시설",
    "type": "어린이놀이시설",
    "address": "경상남도 함안군 여항면 여항로 62",
    "tel": "",
    "lat": 35.2093,
    "lng": 128.434051
  },
  {
    "name": "월촌초등학교병설유치원 어린이놀이시설",
    "category": "어린이놀이시설",
    "type": "어린이놀이시설",
    "address": "경상남도 함안군 군북면 월촌3길 27",
    "tel": "",
    "lat": 35.291788,
    "lng": 128.303609
  },
  {
    "name": "월촌초등학교 어린이놀이시설",
    "category": "어린이놀이시설",
    "type": "어린이놀이시설",
    "address": "경상남도 함안군 군북면 월촌3길 27",
    "tel": "",
    "lat": 35.291788,
    "lng": 128.303609
  },
  {
    "name": "군북초등학교 어린이놀이시설",
    "category": "어린이놀이시설",
    "type": "어린이놀이시설",
    "address": "경상남도 함안군 군북면 덕대길 26-16",
    "tel": "",
    "lat": 35.258304,
    "lng": 128.346662
  },
  {
    "name": "군북초등학교병설유치원 어린이놀이시설",
    "category": "어린이놀이시설",
    "type": "어린이놀이시설",
    "address": "경상남도 함안군 군북면 덕대길 26-16",
    "tel": "",
    "lat": 35.258304,
    "lng": 128.346662
  },
  {
    "name": "산인초등학교 어린이놀이시설",
    "category": "어린이놀이시설",
    "type": "어린이놀이시설",
    "address": "경상남도 함안군 산인면 송산로 136-20",
    "tel": "",
    "lat": 35.28955,
    "lng": 128.432357
  },
  {
    "name": "가야초등학교 어린이놀이시설",
    "category": "어린이놀이시설",
    "type": "어린이놀이시설",
    "address": "경상남도 함안군 가야읍 충무길 54",
    "tel": "",
    "lat": 35.278516,
    "lng": 128.402803
  },
  {
    "name": "법수초등학교 어린이놀이시설",
    "category": "어린이놀이시설",
    "type": "어린이놀이시설",
    "address": "경상남도 함안군 법수면 석무길 41",
    "tel": "",
    "lat": 35.317685,
    "lng": 128.379862
  },
  {
    "name": "법수초등학교병설유치원 어린이놀이시설",
    "category": "어린이놀이시설",
    "type": "어린이놀이시설",
    "address": "경상남도 함안군 법수면 석무길 41",
    "tel": "",
    "lat": 35.317685,
    "lng": 128.379862
  },
  {
    "name": "문암초등학교 어린이놀이시설",
    "category": "어린이놀이시설",
    "type": "어린이놀이시설",
    "address": "경상남도 함안군 산인면 모곡1길 2",
    "tel": "",
    "lat": 35.273178,
    "lng": 128.457598
  },
  {
    "name": "칠서초등학교 어린이놀이시설",
    "category": "어린이놀이시설",
    "type": "어린이놀이시설",
    "address": "경상남도 함안군 칠서면 청계2길 9",
    "tel": "",
    "lat": 35.332163,
    "lng": 128.498903
  },
  {
    "name": "칠서초등학교병설유치원 어린이놀이시설",
    "category": "어린이놀이시설",
    "type": "어린이놀이시설",
    "address": "경상남도 함안군 칠서면 청계2길 9",
    "tel": "",
    "lat": 35.332352,
    "lng": 128.499041
  },
  {
    "name": "유원초등학교 어린이놀이시설",
    "category": "어린이놀이시설",
    "type": "어린이놀이시설",
    "address": "경상남도 함안군 칠원읍 유원길 37-1",
    "tel": "",
    "lat": 35.297462,
    "lng": 128.497342
  },
  {
    "name": "유원초등학교병설유치원 어린이놀이시설",
    "category": "어린이놀이시설",
    "type": "어린이놀이시설",
    "address": "경상남도 함안군 칠원읍 유원길 37-1",
    "tel": "",
    "lat": 35.298112,
    "lng": 128.496336
  },
  {
    "name": "칠원초등학교병설유치원 어린이놀이시설",
    "category": "어린이놀이시설",
    "type": "어린이놀이시설",
    "address": "경상남도 함안군 칠원읍 성내길 32",
    "tel": "",
    "lat": 35.306814,
    "lng": 128.519625
  },
  {
    "name": "함안초등학교 어린이놀이시설",
    "category": "어린이놀이시설",
    "type": "어린이놀이시설",
    "address": "경상남도 함안군 함안면 함안대로 97",
    "tel": "",
    "lat": 35.240942,
    "lng": 128.421467
  },
  {
    "name": "대산초등학교 어린이놀이시설",
    "category": "어린이놀이시설",
    "type": "어린이놀이시설",
    "address": "경상남도 함안군 대산면 대산중앙3길 8",
    "tel": "",
    "lat": 35.351408,
    "lng": 128.431293
  },
  {
    "name": "대산초등학교 병설유치원놀이시설",
    "category": "어린이놀이시설",
    "type": "어린이놀이시설",
    "address": "경상남도 함안군 대산면 대산중앙3길 8",
    "tel": "",
    "lat": 35.351408,
    "lng": 128.431293
  },
  {
    "name": "칠원초등학교 어린이놀이시설",
    "category": "어린이놀이시설",
    "type": "어린이놀이시설",
    "address": "경상남도 함안군 칠원읍 성내길 32",
    "tel": "",
    "lat": 35.306814,
    "lng": 128.519625
  },
  {
    "name": "칠서에이스아파트2단지놀이터(201동)",
    "category": "어린이놀이시설",
    "type": "어린이놀이시설",
    "address": "경상남도 함안군 칠서면 칠평로 62 (칠서에이스아파트2단지)",
    "tel": "",
    "lat": 35.317581,
    "lng": 128.504596
  },
  {
    "name": "호암초등학교병설유치원 어린이놀이시설",
    "category": "어린이놀이시설",
    "type": "어린이놀이시설",
    "address": "경상남도 함안군 칠원읍 호암길 30",
    "tel": "",
    "lat": 35.274576,
    "lng": 128.520722
  },
  {
    "name": "함안유치원 어린이놀이시설",
    "category": "어린이놀이시설",
    "type": "어린이놀이시설",
    "address": "경상남도 함안군 가야읍 성내북길 58-7",
    "tel": "",
    "lat": 35.2767,
    "lng": 128.399782
  },
  {
    "name": "아라초등학교 어린이놀이시설",
    "category": "어린이놀이시설",
    "type": "어린이놀이시설",
    "address": "경상남도 함안군 가야읍 함안대로 491",
    "tel": "",
    "lat": 35.271411,
    "lng": 128.40885
  },
  {
    "name": "주원유치원 어린이놀이시설",
    "category": "어린이놀이시설",
    "type": "어린이놀이시설",
    "address": "경상남도 함안군 칠원읍 무기새길 55-1",
    "tel": "",
    "lat": 35.302839,
    "lng": 128.532295
  },
  {
    "name": "우리유치원 어린이놀이시설",
    "category": "어린이놀이시설",
    "type": "어린이놀이시설",
    "address": "경상남도 함안군 가야읍 중앙남길 31",
    "tel": "",
    "lat": 35.274991,
    "lng": 128.408422
  },
  {
    "name": "입곡군립공원 놀이터",
    "category": "어린이놀이시설",
    "type": "어린이놀이시설",
    "address": "경상남도 함안군 산인면 입곡공원길 246",
    "tel": "",
    "lat": 35.263955,
    "lng": 128.44861
  },
  {
    "name": "은혜어린이집 놀이터",
    "category": "어린이놀이시설",
    "type": "어린이놀이시설",
    "address": "경상남도 함안군 가야읍 함안대로 287",
    "tel": "",
    "lat": 35.2547,
    "lng": 128.4102
  },
  {
    "name": "함안 대경 파미르아파트",
    "category": "어린이놀이시설",
    "type": "어린이놀이시설",
    "address": "경상남도 함안군 가야읍 가야로 155 (대경 파미르)",
    "tel": "",
    "lat": 35.280329,
    "lng": 128.418113
  },
  {
    "name": "함안 칠원 LH아파트 어린이놀이터1(108동)",
    "category": "어린이놀이시설",
    "type": "어린이놀이시설",
    "address": "경상남도 함안군 칠원읍 구성길 141 (함안칠원엘에이치아파트)",
    "tel": "",
    "lat": 35.304031,
    "lng": 128.522952
  },
  {
    "name": "함안 칠원 LH아파트 어린이놀이터2(105동)",
    "category": "어린이놀이시설",
    "type": "어린이놀이시설",
    "address": "경상남도 함안군 칠원읍 구성길 141 (함안칠원엘에이치아파트)",
    "tel": "",
    "lat": 35.304031,
    "lng": 128.522952
  },
  {
    "name": "함안 칠원 LH아파트 유아놀이터",
    "category": "어린이놀이시설",
    "type": "어린이놀이시설",
    "address": "경상남도 함안군 칠원읍 구성길 141 (함안칠원엘에이치아파트)",
    "tel": "",
    "lat": 35.304031,
    "lng": 128.522952
  },
  {
    "name": "신나는 가야어린이집 놀이터",
    "category": "어린이놀이시설",
    "type": "어린이놀이시설",
    "address": "경상남도 함안군 가야읍 남경길 68",
    "tel": "",
    "lat": 35.279379,
    "lng": 128.41107
  },
  {
    "name": "함주공원 안심놀이터",
    "category": "어린이놀이시설",
    "type": "어린이놀이시설",
    "address": "경상남도 함안군 가야읍 함안대로 619-2",
    "tel": "",
    "lat": 35.281153,
    "lng": 128.399939
  },
  {
    "name": "아라어린이집 놀이터",
    "category": "어린이놀이시설",
    "type": "어린이놀이시설",
    "address": "경상남도 함안군 가야읍 말산로 104-19",
    "tel": "",
    "lat": 35.273885,
    "lng": 128.417809
  },
  {
    "name": "함안도항주공1단지 어린이놀이터2(112동옆)",
    "category": "어린이놀이시설",
    "type": "어린이놀이시설",
    "address": "경상남도 함안군 가야읍 성내북길 25 (함안도항주공1단지아파트)",
    "tel": "",
    "lat": 35.276012,
    "lng": 128.397462
  },
  {
    "name": "함안도항주공1단지 어린이놀이터4(105동)",
    "category": "어린이놀이시설",
    "type": "어린이놀이시설",
    "address": "경상남도 함안군 가야읍 성내북길 25 (함안도항주공1단지아파트)",
    "tel": "",
    "lat": 35.276012,
    "lng": 128.397462
  },
  {
    "name": "벽산아파트204동",
    "category": "어린이놀이시설",
    "type": "어린이놀이시설",
    "address": "경상남도 함안군 칠원읍 호암길 6 (광려천부영벽산블루밍2차아파트)",
    "tel": "",
    "lat": 35.276094,
    "lng": 128.521483
  },
  {
    "name": "함안중앙초등학교 어린이놀이시설",
    "category": "어린이놀이시설",
    "type": "어린이놀이시설",
    "address": "경상남도 함안군 가야읍 함안대로 746",
    "tel": "",
    "lat": 35.293155,
    "lng": 128.400725
  },
  {
    "name": "함안 태완 노블리안아파트어린이놀이터",
    "category": "어린이놀이시설",
    "type": "어린이놀이시설",
    "address": "경상남도 함안군 가야읍 가야18길 22 (태완노블리안아파트)",
    "tel": "",
    "lat": 35.279806,
    "lng": 128.414576
  },
  {
    "name": "칠원어린이안심놀이터",
    "category": "어린이놀이시설",
    "type": "어린이놀이시설",
    "address": "경상남도 함안군 칠원읍 용산2길 68",
    "tel": "",
    "lat": 35.310293,
    "lng": 128.516432
  },
  {
    "name": "벽산아파트 206동",
    "category": "어린이놀이시설",
    "type": "어린이놀이시설",
    "address": "경상남도 함안군 칠원읍 호암길 6 (광려천부영벽산블루밍2차아파트)",
    "tel": "",
    "lat": 35.276094,
    "lng": 128.521483
  },
  {
    "name": "예곡초등학교 어린이놀이시설(겸용)",
    "category": "어린이놀이시설",
    "type": "어린이놀이시설",
    "address": "경상남도 함안군 칠원읍 예곡2길 25",
    "tel": "",
    "lat": 35.276321,
    "lng": 128.532516
  },
  {
    "name": "대경파미르아파트 놀이터",
    "category": "어린이놀이시설",
    "type": "어린이놀이시설",
    "address": "경상남도 함안군 가야읍 성내북길 70",
    "tel": "",
    "lat": 35.276808,
    "lng": 128.400724
  },
  {
    "name": "함안군39사단놀이시설",
    "category": "어린이놀이시설",
    "type": "어린이놀이시설",
    "address": "경상남도 함안군 군북면 새남이1길 5",
    "tel": "",
    "lat": 35.261625,
    "lng": 128.345058
  },
  {
    "name": "충무어린이집 놀이터",
    "category": "어린이놀이시설",
    "type": "어린이놀이시설",
    "address": "경상남도 함안군 군북면 새남이1길 5",
    "tel": "",
    "lat": 35.261625,
    "lng": 128.345058
  },
  {
    "name": "칠서초등학교이룡분교장 어린이놀이시설",
    "category": "어린이놀이시설",
    "type": "어린이놀이시설",
    "address": "경상남도 함안군 칠서면 삼칠로 1335",
    "tel": "",
    "lat": 35.387357,
    "lng": 128.50689
  },
  {
    "name": "함안도항LH3단지 놀이터",
    "category": "어린이놀이시설",
    "type": "어린이놀이시설",
    "address": "경상남도 함안군 가야읍 성내북길 77 (함안도항LH3단지아파트)",
    "tel": "",
    "lat": 35.278252,
    "lng": 128.399702
  },
  {
    "name": "남선아파트 어린이놀이시설",
    "category": "어린이놀이시설",
    "type": "어린이놀이시설",
    "address": "경상남도 함안군 가야읍 도항2길 6 (남선아파트)",
    "tel": "",
    "lat": 35.283509,
    "lng": 128.403407
  },
  {
    "name": "숲속나라어린이집",
    "category": "어린이놀이시설",
    "type": "어린이놀이시설",
    "address": "경상남도 함안군 칠원읍 큰오곡길 51-30",
    "tel": "",
    "lat": 35.284886,
    "lng": 128.504263
  },
  {
    "name": "함안군 승마공원 어린이놀이시설",
    "category": "어린이놀이시설",
    "type": "어린이놀이시설",
    "address": "경상남도 함안군 가야읍 봉수로 478",
    "tel": "",
    "lat": 35.25325,
    "lng": 128.38951
  },
  {
    "name": "충무부대어린이공원",
    "category": "어린이놀이시설",
    "type": "어린이놀이시설",
    "address": "경상남도 함안군 군북면 함마대로 848",
    "tel": "",
    "lat": 35.263352,
    "lng": 128.349494
  },
  {
    "name": "문암초등학교병설유치원 어린이놀이시설",
    "category": "어린이놀이시설",
    "type": "어린이놀이시설",
    "address": "경상남도 함안군 산인면 모곡1길 2",
    "tel": "",
    "lat": 35.273178,
    "lng": 128.457598
  },
  {
    "name": "악양생태공원 숲속놀이터",
    "category": "어린이놀이시설",
    "type": "어린이놀이시설",
    "address": null,
    "tel": "",
    "lat": 35.337117,
    "lng": 128.39751
  },
  {
    "name": "새싹아트 어린이집",
    "category": "어린이놀이시설",
    "type": "어린이놀이시설",
    "address": "경상남도 함안군 가야읍 중앙남2길 14-8",
    "tel": "",
    "lat": 35.275308,
    "lng": 128.408357
  },
  {
    "name": "함안가야 휴니온클래식 놀이터",
    "category": "어린이놀이시설",
    "type": "어린이놀이시설",
    "address": null,
    "tel": "",
    "lat": 35.2727,
    "lng": 128.4014
  },
  {
    "name": "함안 입곡마을 물놀이장",
    "category": "어린이놀이시설",
    "type": "어린이놀이시설",
    "address": "경남 함안군 산인면 입곡리",
    "tel": "",
    "lat": 35.251915,
    "lng": 128.458561
  },
  {
    "name": "함안군 육아지원센터",
    "category": "어린이놀이시설",
    "type": "어린이놀이시설",
    "address": "경상남도 함안군 칠원읍 용산1길 28",
    "tel": "",
    "lat": 35.30886,
    "lng": 128.517428
  },
  {
    "name": "샤브 쌈주머니 함안점",
    "category": "어린이놀이시설",
    "type": "어린이놀이시설",
    "address": "경상남도 함안군 가야읍 가야로 71",
    "tel": "",
    "lat": 35.278156,
    "lng": 128.408942
  },
  {
    "name": "함안군 생활환경 숲 어린이놀이터",
    "category": "어린이놀이시설",
    "type": "어린이놀이시설",
    "address": "경상남도 함안군 가야읍 가야12길 10",
    "tel": "",
    "lat": 35.277315,
    "lng": 128.410712
  },
  {
    "name": "꿈드림 어린이집",
    "category": "어린이놀이시설",
    "type": "어린이놀이시설",
    "address": "경상남도 함안군 칠원읍 야촌2길 10",
    "tel": "",
    "lat": 35.278091,
    "lng": 128.523431
  },
  {
    "name": "함안군 경전선 폐선부지 주민상생공간 놀이시설",
    "category": "어린이놀이시설",
    "type": "어린이놀이시설",
    "address": "경상남도 함안군 군북면 지두2길 50",
    "tel": "",
    "lat": 35.259618,
    "lng": 128.345774
  },
  {
    "name": "아라가야냉면 식당내 정글짐놀이시설",
    "category": "어린이놀이시설",
    "type": "어린이놀이시설",
    "address": "경상남도 함안군 칠원읍 삼칠로 113",
    "tel": "",
    "lat": 35.306884,
    "lng": 128.521396
  },
  {
    "name": "수박한마음광장",
    "category": "어린이놀이시설",
    "type": "어린이놀이시설",
    "address": "경상남도 함안군 대산면 구암4길 185",
    "tel": "",
    "lat": 35.38339,
    "lng": 128.434735
  },
  {
    "name": "가야 어울림센터 키즈존",
    "category": "어린이놀이시설",
    "type": "어린이놀이시설",
    "address": "경상남도 함안군 가야읍 중앙북길 84",
    "tel": "",
    "lat": 35.276703,
    "lng": 128.410292
  },
  {
    "name": "남구(LH) 어린이공원",
    "category": "어린이놀이시설",
    "type": "어린이놀이시설",
    "address": "경상남도 함안군 칠원읍 구성길 141-4",
    "tel": "",
    "lat": 35.304256,
    "lng": 128.523356
  },
  {
    "name": "입곡 온새미로 공원",
    "category": "어린이놀이시설",
    "type": "어린이놀이시설",
    "address": null,
    "tel": "",
    "lat": 35.261051,
    "lng": 128.450242
  },
  {
    "name": "유아숲체험원",
    "category": "어린이놀이시설",
    "type": "어린이놀이시설",
    "address": "경상남도 함안군 대산면 하기2길 208-49",
    "tel": "",
    "lat": 35.338766,
    "lng": 128.398495
  },
  {
    "name": "함안아라캠핑장 내 실내놀이시설",
    "category": "어린이놀이시설",
    "type": "어린이놀이시설",
    "address": "경상남도 함안군 법수면 장백로 891",
    "tel": "",
    "lat": 35.341286,
    "lng": 128.330119
  },
  {
    "name": "충무어린이집 놀이터",
    "category": "어린이놀이시설",
    "type": "어린이놀이시설",
    "address": "경상남도 함안군 군북면 장신골길 70 (데시앙(APT))",
    "tel": "",
    "lat": 35.257902,
    "lng": 128.352815
  },
  {
    "name": "호국공원 실외놀이터",
    "category": "어린이놀이시설",
    "type": "어린이놀이시설",
    "address": "경상남도 함안군 칠서면 청계2길 49",
    "tel": "",
    "lat": 35.333771,
    "lng": 128.497641
  },
  {
    "name": "대산초등학교 어린이놀이시설(2)",
    "category": "어린이놀이시설",
    "type": "어린이놀이시설",
    "address": "경상남도 함안군 대산면 대산중앙3길 8",
    "tel": "",
    "lat": 35.351408,
    "lng": 128.431293
  },
  {
    "name": "도항 1 어린이 공원",
    "category": "어린이놀이시설",
    "type": "어린이놀이시설",
    "address": "경상남도 함안군 가야읍 성내북길 58-7",
    "tel": "",
    "lat": 35.2767,
    "lng": 128.399782
  },
  {
    "name": "아이랑숲이랑유치원 어린이놀이시설",
    "category": "어린이놀이시설",
    "type": "어린이놀이시설",
    "address": "경상남도 함안군 칠원읍 큰오곡길 51-24",
    "tel": "",
    "lat": 35.284408,
    "lng": 128.504074
  },
  {
    "name": "천일아라아파트1차 어린이놀이터",
    "category": "어린이놀이시설",
    "type": "어린이놀이시설",
    "address": "경상남도 함안군 가야읍 가야20길 24",
    "tel": "",
    "lat": 35.280063,
    "lng": 128.416745
  },
  {
    "name": "남경아파트 어린이놀이터",
    "category": "어린이놀이시설",
    "type": "어린이놀이시설",
    "address": "경상남도 함안군 가야읍 가야15길 26  (남경타운 아파트)",
    "tel": "",
    "lat": 35.27955,
    "lng": 128.412786
  },
  {
    "name": "함안도항주공1단지 어린이놀이터1(112동옆)",
    "category": "어린이놀이시설",
    "type": "어린이놀이시설",
    "address": "경상남도 함안군 가야읍 성내북길 25  (도항주공아파트)",
    "tel": "",
    "lat": 35.276012,
    "lng": 128.397462
  },
  {
    "name": "함안도항주공1단지 어린이놀이터3(108동)",
    "category": "어린이놀이시설",
    "type": "어린이놀이시설",
    "address": "경상남도 함안군 가야읍 성내북길 25  (도항주공아파트)",
    "tel": "",
    "lat": 35.276012,
    "lng": 128.397462
  },
  {
    "name": "함안도항주공2단지 유아놀이터(212동)",
    "category": "어린이놀이시설",
    "type": "어린이놀이시설",
    "address": "경상남도 함안군 가야읍 성내북길 57  (함안도항주공2단지 아파트)",
    "tel": "",
    "lat": 35.277371,
    "lng": 128.398395
  },
  {
    "name": "함안도항주공2단지 어린이놀이터1(204동)",
    "category": "어린이놀이시설",
    "type": "어린이놀이시설",
    "address": "경상남도 함안군 가야읍 성내북길 57  (함안도항주공2단지 아파트)",
    "tel": "",
    "lat": 35.277371,
    "lng": 128.398395
  },
  {
    "name": "함안도항주공2단지 어린이놀이터2(217동)",
    "category": "어린이놀이시설",
    "type": "어린이놀이시설",
    "address": "경상남도 함안군 가야읍 성내북길 57  (함안도항주공2단지 아파트)",
    "tel": "",
    "lat": 35.277371,
    "lng": 128.398395
  },
  {
    "name": "무학아파트 어린이놀이터(군북)",
    "category": "어린이놀이시설",
    "type": "어린이놀이시설",
    "address": "경상남도 함안군 군북면 중암4길 47-1",
    "tel": "",
    "lat": 35.263539,
    "lng": 128.345135
  },
  {
    "name": "기공아파트 어린이놀이터",
    "category": "어린이놀이시설",
    "type": "어린이놀이시설",
    "address": "경상남도 함안군 칠서면 함의로 7  (기공아파트)",
    "tel": "",
    "lat": 35.315745,
    "lng": 128.509691
  },
  {
    "name": "대륭아파트 어린이놀이터",
    "category": "어린이놀이시설",
    "type": "어린이놀이시설",
    "address": "경상남도 함안군 칠원읍 운무로 12 (대륭아트빌라)",
    "tel": "",
    "lat": 35.309535,
    "lng": 128.519774
  },
  {
    "name": "동성아파트어린이놀이터",
    "category": "어린이놀이시설",
    "type": "어린이놀이시설",
    "address": "경상남도 함안군 칠원읍 원서로 89-21 (칠원동성아파트)",
    "tel": "",
    "lat": 35.300217,
    "lng": 128.515495
  },
  {
    "name": "광려천메트로자이아파트 어린이놀이터1(102동)",
    "category": "어린이놀이시설",
    "type": "어린이놀이시설",
    "address": "경상남도 함안군 칠원읍 삼호길 181 (광려천 메트로자이)",
    "tel": "",
    "lat": 35.275578,
    "lng": 128.522892
  },
  {
    "name": "광려천메트로자이아파트 어린이놀이터2(104동)",
    "category": "어린이놀이시설",
    "type": "어린이놀이시설",
    "address": "경상남도 함안군 칠원읍 삼호길 181 (광려천 메트로자이)",
    "tel": "",
    "lat": 35.274726,
    "lng": 128.523478
  },
  {
    "name": "광려천메트로자이아파트 어린이놀이터3(108동)",
    "category": "어린이놀이시설",
    "type": "어린이놀이시설",
    "address": "경상남도 함안군 칠원읍 삼호길 181 (광려천 메트로자이)",
    "tel": "",
    "lat": 35.27468,
    "lng": 128.525106
  },
  {
    "name": "광려천메트로자이아파트 어린이놀이터4(112동)",
    "category": "어린이놀이시설",
    "type": "어린이놀이시설",
    "address": "경상남도 함안군 칠원읍 삼호길 181 (광려천 메트로자이)",
    "tel": "",
    "lat": 35.272661,
    "lng": 128.526241
  },
  {
    "name": "광려천메트로자이아파트 어린이놀이터5(121동)",
    "category": "어린이놀이시설",
    "type": "어린이놀이시설",
    "address": "경상남도 함안군 칠원읍 삼호길 181 (광려천 메트로자이)",
    "tel": "",
    "lat": 35.274014,
    "lng": 128.523136
  },
  {
    "name": "로사의집",
    "category": "약자보호시설",
    "type": "장애인편의시설",
    "address": "경상남도 함안군 산인면 입곡공원길 224-96",
    "tel": "055-582-5721",
    "lat": 35.257039,
    "lng": 128.442384
  },
  {
    "name": "함께",
    "category": "약자보호시설",
    "type": "장애인편의시설",
    "address": "경상남도 함안군 산인면 외동길 69",
    "tel": "055-585-7470",
    "lat": 35.295128,
    "lng": 128.433828
  },
  {
    "name": "햇살가득",
    "category": "약자보호시설",
    "type": "장애인편의시설",
    "address": "경상남도 함안군 가야읍 고분길 192",
    "tel": "055-585-0086",
    "lat": 35.26999,
    "lng": 128.40003
  },
  {
    "name": "행복동산",
    "category": "약자보호시설",
    "type": "장애인편의시설",
    "address": "경상남도 함안군 대산면 대부로 365",
    "tel": "055-582-7060",
    "lat": 35.36422,
    "lng": 128.464822
  },
  {
    "name": "함안군시각장애인주간보호시설",
    "category": "약자보호시설",
    "type": "장애인편의시설",
    "address": "경상남도 함안군 가야읍 중앙남길 66",
    "tel": "055-582-9322",
    "lat": 35.274999,
    "lng": 128.410411
  },
  {
    "name": "장애인생활이동지원센터",
    "category": "약자보호시설",
    "type": "장애인편의시설",
    "address": "경상남도 함안군 가야읍 중앙남길 66",
    "tel": "055-584-9320",
    "lat": 35.274999,
    "lng": 128.410411
  },
  {
    "name": "함안군수어통역센터",
    "category": "약자보호시설",
    "type": "장애인편의시설",
    "address": "경상남도 함안군 가야읍 중앙남길 70, 1층",
    "tel": "055-582-1138",
    "lat": 35.275058,
    "lng": 128.410582
  },
  {
    "name": "예그리나 장애인보호작업장",
    "category": "약자보호시설",
    "type": "장애인편의시설",
    "address": "경상남도 함안군 대산면 구암로 24",
    "tel": "055-585-8662",
    "lat": 35.356075,
    "lng": 128.428296
  },
  {
    "name": "위드에이블",
    "category": "약자보호시설",
    "type": "장애인편의시설",
    "address": "경상남도 함안군 칠원읍 유장길 433",
    "tel": "055-586-3965",
    "lat": 35.299654,
    "lng": 128.479784
  },
  {
    "name": "함안성〮가족상담소",
    "category": "약자보호시설",
    "type": "성폭력피해상담소",
    "address": "경상남도 함안군 칠원읍 용산2길 70, 1층",
    "tel": "055-587-1367",
    "lat": 35.310059,
    "lng": 128.515698
  },
  {
    "name": "함안군보건소",
    "category": "약자보호시설",
    "type": "전담의료기관",
    "address": "경상남도 함안군 가야읍 중앙남4길 10",
    "tel": "055-580-3022",
    "lat": 35.275769,
    "lng": 128.410449
  },
  {
    "name": "멋쟁이 라이브",
    "category": "우수다중시설",
    "type": "유흥주점",
    "address": "-",
    "tel": "",
    "lat": 35.261862,
    "lng": 128.346448
  },
  {
    "name": "골든픽",
    "category": "우수다중시설",
    "type": "유흥주점",
    "address": "-",
    "tel": "",
    "lat": 35.355276,
    "lng": 128.42614
  },
  {
    "name": "경남로봇고등학교",
    "category": "초중고",
    "type": "초중고",
    "address": "경상남도 함안군 대산면 평림리 955",
    "tel": "",
    "lat": 35.347956,
    "lng": 128.439223
  },
  {
    "name": "가야초등학교",
    "category": "초중고",
    "type": "초중고",
    "address": "경상남도 함안군 가야읍 도항리 88-1",
    "tel": "",
    "lat": 35.278068,
    "lng": 128.402116
  },
  {
    "name": "군북고등학교",
    "category": "초중고",
    "type": "초중고",
    "address": "경상남도 함안군 군북면 덕대리 267",
    "tel": "",
    "lat": 35.259599,
    "lng": 128.343535
  },
  {
    "name": "군북중학교",
    "category": "초중고",
    "type": "초중고",
    "address": "경상남도 함안군 군북면 덕대리 267",
    "tel": "",
    "lat": 35.260502,
    "lng": 128.343712
  },
  {
    "name": "군북초등학교",
    "category": "초중고",
    "type": "초중고",
    "address": "경상남도 함안군 군북면 덕대리 17",
    "tel": "",
    "lat": 35.257208,
    "lng": 128.34624
  },
  {
    "name": "남지고등학교",
    "category": "초중고",
    "type": "초중고",
    "address": "경상남도 창녕군 남지읍 남지리 829-10",
    "tel": "",
    "lat": 35.387209,
    "lng": 128.471641
  },
  {
    "name": "남지여자중학교",
    "category": "초중고",
    "type": "초중고",
    "address": "경상남도 창녕군 남지읍 마산리 894-6",
    "tel": "",
    "lat": 35.389746,
    "lng": 128.468773
  },
  {
    "name": "남지중학교",
    "category": "초중고",
    "type": "초중고",
    "address": "경상남도 창녕군 남지읍 마산리 894-6",
    "tel": "",
    "lat": 35.389199,
    "lng": 128.469001
  },
  {
    "name": "남지초등학교",
    "category": "초중고",
    "type": "초중고",
    "address": "경상남도 창녕군 남지읍 남지리 723",
    "tel": "",
    "lat": 35.389822,
    "lng": 128.471957
  },
  {
    "name": "대산중학교",
    "category": "초중고",
    "type": "초중고",
    "address": "경상남도 함안군 대산면 평림리 955",
    "tel": "",
    "lat": 35.347956,
    "lng": 128.439223
  },
  {
    "name": "대산초등학교",
    "category": "초중고",
    "type": "초중고",
    "address": "경상남도 함안군 대산면 구혜리 229",
    "tel": "",
    "lat": 35.351636,
    "lng": 128.431122
  },
  {
    "name": "동포초등학교",
    "category": "초중고",
    "type": "초중고",
    "address": "경상남도 창녕군 남지읍 남지리 598-2",
    "tel": "",
    "lat": 35.390956,
    "lng": 128.478912
  },
  {
    "name": "산인초등학교",
    "category": "초중고",
    "type": "초중고",
    "address": "경상남도 함안군 산인면 내인리 204",
    "tel": "",
    "lat": 35.289794,
    "lng": 128.433387
  },
  {
    "name": "법수초등학교",
    "category": "초중고",
    "type": "초중고",
    "address": "경상남도 함안군 법수면 윤외리 200",
    "tel": "",
    "lat": 35.317837,
    "lng": 128.380485
  },
  {
    "name": "명덕고등학교",
    "category": "초중고",
    "type": "초중고",
    "address": "경상남도 함안군 가야읍 도항리 463",
    "tel": "",
    "lat": 35.273451,
    "lng": 128.402476
  },
  {
    "name": "문암초등학교",
    "category": "초중고",
    "type": "초중고",
    "address": "경상남도 함안군 산인면 모곡리 510",
    "tel": "",
    "lat": 35.272058,
    "lng": 128.457535
  },
  {
    "name": "아라초등학교",
    "category": "초중고",
    "type": "초중고",
    "address": "경상남도 함안군 가야읍 말산리 257-1",
    "tel": "",
    "lat": 35.270998,
    "lng": 128.408241
  },
  {
    "name": "외암초등학교",
    "category": "초중고",
    "type": "초중고",
    "address": "경상남도 함안군 여항면 외암리 726-1",
    "tel": "",
    "lat": 35.20884,
    "lng": 128.433732
  },
  {
    "name": "유원초등학교",
    "category": "초중고",
    "type": "초중고",
    "address": "경상남도 함안군 칠원읍 유원리 374",
    "tel": "",
    "lat": 35.297771,
    "lng": 128.496315
  },
  {
    "name": "칠서초등학교",
    "category": "초중고",
    "type": "초중고",
    "address": "경상남도 함안군 칠서면 청계리 729",
    "tel": "",
    "lat": 35.332036,
    "lng": 128.498289
  },
  {
    "name": "칠서초등학교이령분교장",
    "category": "초중고",
    "type": "초중고",
    "address": "경상남도 함안군 칠북면 이령리 231-9",
    "tel": "",
    "lat": 35.36639,
    "lng": 128.539363
  },
  {
    "name": "칠원고등학교",
    "category": "초중고",
    "type": "초중고",
    "address": "경상남도 함안군 칠서면 무릉리 908",
    "tel": "",
    "lat": 35.317279,
    "lng": 128.507772
  },
  {
    "name": "칠원중학교",
    "category": "초중고",
    "type": "초중고",
    "address": "경상남도 함안군 칠서면 무릉리 908",
    "tel": "",
    "lat": 35.317279,
    "lng": 128.507772
  },
  {
    "name": "함성중학교",
    "category": "초중고",
    "type": "초중고",
    "address": "경상남도 함안군 함안면 북촌리 1002-3",
    "tel": "",
    "lat": 35.241456,
    "lng": 128.420769
  },
  {
    "name": "함안고등학교",
    "category": "초중고",
    "type": "초중고",
    "address": "경상남도 함안군 가야읍 도항리 163-4",
    "tel": "",
    "lat": 35.282133,
    "lng": 128.403303
  },
  {
    "name": "함안여자중학교",
    "category": "초중고",
    "type": "초중고",
    "address": "경상남도 함안군 가야읍 도항리 463",
    "tel": "",
    "lat": 35.273451,
    "lng": 128.402476
  },
  {
    "name": "함안중학교",
    "category": "초중고",
    "type": "초중고",
    "address": "경상남도 함안군 가야읍 도항리 163-3",
    "tel": "",
    "lat": 35.282922,
    "lng": 128.404285
  },
  {
    "name": "함안초등학교",
    "category": "초중고",
    "type": "초중고",
    "address": "경상남도 함안군 함안면 봉성리 1214",
    "tel": "",
    "lat": 35.241308,
    "lng": 128.421982
  },
  {
    "name": "이반성초등학교",
    "category": "초중고",
    "type": "초중고",
    "address": "경상남도 진주시 이반성면 하곡리 977",
    "tel": "",
    "lat": 35.173266,
    "lng": 128.330086
  },
  {
    "name": "중앙초등학교",
    "category": "초중고",
    "type": "초중고",
    "address": "경상남도 함안군 가야읍 산서리 684-390",
    "tel": "",
    "lat": 35.293049,
    "lng": 128.400225
  },
  {
    "name": "지정중학교",
    "category": "초중고",
    "type": "초중고",
    "address": "경상남도 의령군 지정면 마산리 650-2",
    "tel": "",
    "lat": 35.364861,
    "lng": 128.41497
  },
  {
    "name": "지정초등학교",
    "category": "초중고",
    "type": "초중고",
    "address": "경상남도 의령군 지정면 봉곡리 775-1",
    "tel": "",
    "lat": 35.383458,
    "lng": 128.387422
  },
  {
    "name": "아이랑숲이랑유치원",
    "category": "유아시설",
    "type": "유아시설",
    "address": "경상남도 함안군 칠원읍 오곡리 1316-1",
    "tel": "",
    "lat": 35.284408,
    "lng": 128.504076
  },
  {
    "name": "우리유치원",
    "category": "유아시설",
    "type": "유아시설",
    "address": "경상남도 함안군 가야읍 말산리 123",
    "tel": "",
    "lat": 35.27506,
    "lng": 128.408615
  },
  {
    "name": "함안유치원",
    "category": "유아시설",
    "type": "유아시설",
    "address": "경상남도 함안군 가야읍 도항리 319-1",
    "tel": "",
    "lat": 35.276619,
    "lng": 128.399802
  },
  {
    "name": "딸기어린이집",
    "category": "유아시설",
    "type": "유아시설",
    "address": "경상남도 함안군 가야읍 검암리 770",
    "tel": "",
    "lat": 35.280554,
    "lng": 128.418324
  },
  {
    "name": "대산어린이집",
    "category": "유아시설",
    "type": "유아시설",
    "address": "null",
    "tel": "",
    "lat": 35.351719,
    "lng": 128.428422
  },
  {
    "name": "더 좋은 어린이집",
    "category": "유아시설",
    "type": "유아시설",
    "address": "경상남도 함안군 가야읍 말산리 183-4",
    "tel": "",
    "lat": 35.274377,
    "lng": 128.409667
  },
  {
    "name": "금초롱어린이집",
    "category": "유아시설",
    "type": "유아시설",
    "address": "경상남도 함안군 가야읍 신음리 128",
    "tel": "",
    "lat": 35.262397,
    "lng": 128.397504
  },
  {
    "name": "남지어린이집",
    "category": "유아시설",
    "type": "유아시설",
    "address": "null",
    "tel": "",
    "lat": 35.3902,
    "lng": 128.477718
  },
  {
    "name": "뽀로로어린이집",
    "category": "유아시설",
    "type": "유아시설",
    "address": "경상남도 함안군 칠원읍 구성리 950-4",
    "tel": "",
    "lat": 35.301222,
    "lng": 128.514171
  },
  {
    "name": "사회복지법인세라어린이집",
    "category": "유아시설",
    "type": "유아시설",
    "address": "경상남도 함안군 가야읍 광정리 34-1",
    "tel": "",
    "lat": 35.256639,
    "lng": 128.422691
  },
  {
    "name": "뿡뿡이 아이돌봄이 어린이집",
    "category": "유아시설",
    "type": "유아시설",
    "address": "경상남도 함안군 칠서면 무릉리 1122",
    "tel": "",
    "lat": 35.316725,
    "lng": 128.505523
  },
  {
    "name": "새싹아트어린이집",
    "category": "유아시설",
    "type": "유아시설",
    "address": "경상남도 함안군 가야읍 말산리 121-9",
    "tel": "",
    "lat": 35.274953,
    "lng": 128.408641
  },
  {
    "name": "산인어린이집",
    "category": "유아시설",
    "type": "유아시설",
    "address": "null",
    "tel": "",
    "lat": 35.285088,
    "lng": 128.429912
  },
  {
    "name": "미래어린이집",
    "category": "유아시설",
    "type": "유아시설",
    "address": "null",
    "tel": "",
    "lat": 35.278971,
    "lng": 128.412856
  },
  {
    "name": "아라어린이집",
    "category": "유아시설",
    "type": "유아시설",
    "address": "경상남도 함안군 가야읍 검암리 1058",
    "tel": "",
    "lat": 35.274064,
    "lng": 128.417908
  },
  {
    "name": "아라어린이집",
    "category": "유아시설",
    "type": "유아시설",
    "address": "null",
    "tel": "",
    "lat": 35.273883,
    "lng": 128.417887
  },
  {
    "name": "아이미래어린이집",
    "category": "유아시설",
    "type": "유아시설",
    "address": "null",
    "tel": "",
    "lat": 35.278971,
    "lng": 128.412856
  },
  {
    "name": "아이세상어린이집",
    "category": "유아시설",
    "type": "유아시설",
    "address": "경상남도 함안군 칠서면 무릉리 1122",
    "tel": "",
    "lat": 35.327591,
    "lng": 128.520606
  },
  {
    "name": "세광어린이집",
    "category": "유아시설",
    "type": "유아시설",
    "address": "null",
    "tel": "",
    "lat": 35.390458,
    "lng": 128.477156
  },
  {
    "name": "신나는가야어린이집",
    "category": "유아시설",
    "type": "유아시설",
    "address": "null",
    "tel": "",
    "lat": 35.270608,
    "lng": 128.431776
  },
  {
    "name": "숲속나라어린이집",
    "category": "유아시설",
    "type": "유아시설",
    "address": "경상남도 함안군 칠원읍 오곡리 1306",
    "tel": "",
    "lat": 35.285163,
    "lng": 128.505123
  },
  {
    "name": "센트럴웰가어린이집",
    "category": "유아시설",
    "type": "유아시설",
    "address": "경상남도 진주시 가좌동 1981",
    "tel": "",
    "lat": 35.279701,
    "lng": 128.462886
  },
  {
    "name": "숲속엄마품어린이집",
    "category": "유아시설",
    "type": "유아시설",
    "address": "null",
    "tel": "",
    "lat": 35.264157,
    "lng": 128.493378
  },
  {
    "name": "숲속자람터어린이집",
    "category": "유아시설",
    "type": "유아시설",
    "address": "경상남도 창원시 마산회원구 내서읍 삼계리 1305",
    "tel": "",
    "lat": 35.242481,
    "lng": 128.479282
  },
  {
    "name": "슬기어린이집",
    "category": "유아시설",
    "type": "유아시설",
    "address": "경상남도 함안군 가야읍 말산리 23",
    "tel": "",
    "lat": 35.280071,
    "lng": 128.414782
  },
  {
    "name": "성모어린이집",
    "category": "유아시설",
    "type": "유아시설",
    "address": "경상남도 함안군 군북면 중암리 85-11",
    "tel": "",
    "lat": 35.261604,
    "lng": 128.34646
  },
  {
    "name": "즐거운어린이집",
    "category": "유아시설",
    "type": "유아시설",
    "address": "경상남도 함안군 산인면 송정리 1271",
    "tel": "",
    "lat": 35.287252,
    "lng": 128.428125
  },
  {
    "name": "은혜어린이집",
    "category": "유아시설",
    "type": "유아시설",
    "address": "경상남도 함안군 가야읍 광정리 14",
    "tel": "",
    "lat": 35.256569,
    "lng": 128.422913
  },
  {
    "name": "우리 어린이집",
    "category": "유아시설",
    "type": "유아시설",
    "address": "경상남도 함안군 가야읍 말산리 123",
    "tel": "",
    "lat": 35.275251,
    "lng": 128.408636
  },
  {
    "name": "에이스신나는어린이집",
    "category": "유아시설",
    "type": "유아시설",
    "address": "경상남도 함안군 칠서면 무릉리 1122",
    "tel": "",
    "lat": 35.316093,
    "lng": 128.505818
  },
  {
    "name": "충무어린이집",
    "category": "유아시설",
    "type": "유아시설",
    "address": "경상남도 함안군 군북면 소포리 1648",
    "tel": "",
    "lat": 35.258174,
    "lng": 128.352983
  },
  {
    "name": "칠서어린이집",
    "category": "유아시설",
    "type": "유아시설",
    "address": "경상남도 함안군 칠서면 무릉리 897",
    "tel": "",
    "lat": 35.318528,
    "lng": 128.506206
  },
  {
    "name": "큰꿈어린이집",
    "category": "유아시설",
    "type": "유아시설",
    "address": "경상남도 함안군 군북면 중암리 31-1",
    "tel": "",
    "lat": 35.262787,
    "lng": 128.347656
  },
  {
    "name": "함안아이자람어린이집",
    "category": "유아시설",
    "type": "유아시설",
    "address": "null",
    "tel": "",
    "lat": 35.275611,
    "lng": 128.405279
  },
  {
    "name": "해늘어린이집",
    "category": "유아시설",
    "type": "유아시설",
    "address": "경상남도 창녕군 남지읍 마산리 1005-8",
    "tel": "",
    "lat": 35.390087,
    "lng": 128.472021
  },
  {
    "name": "해동어린이집",
    "category": "유아시설",
    "type": "유아시설",
    "address": "null",
    "tel": "",
    "lat": 35.283955,
    "lng": 128.403442
  },
  {
    "name": "행복한 엔젤어린이집",
    "category": "유아시설",
    "type": "유아시설",
    "address": "경상남도 창녕군 남지읍 남지리 590-12",
    "tel": "",
    "lat": 35.389443,
    "lng": 128.47733
  },
  {
    "name": "창녕군남지읍보건지소",
    "category": "보건소",
    "type": "보건소",
    "address": "경상남도 창녕군 남지읍 남지중앙1길 84,",
    "tel": "055-530-2574",
    "lat": 35.391919,
    "lng": 128.47887
  },
  {
    "name": "성당보건진료소",
    "category": "보건소",
    "type": "보건소",
    "address": "경상남도 의령군 지정면 강변로7길 10-12, 성당보건진료소",
    "tel": "055-572-5430",
    "lat": 35.363236,
    "lng": 128.389587
  },
  {
    "name": "진주시이반성면중도보건진료소",
    "category": "보건소",
    "type": "보건소",
    "address": "경상남도 진주시 이반성면 오봉산로983번길 17  ",
    "tel": "055-749-5739",
    "lat": 35.190394,
    "lng": 128.333794
  },
  {
    "name": "의령군지정면보건지소",
    "category": "보건소",
    "type": "보건소",
    "address": "경상남도 의령군 지정면 함의로 1528",
    "tel": "055-570-4066",
    "lat": 35.383009,
    "lng": 128.386778
  },
  {
    "name": "함안군보건소",
    "category": "보건소",
    "type": "보건소",
    "address": "경상남도 함안군 가야읍 중앙남4길 10 (가야읍)",
    "tel": "055-580-3101",
    "lat": 35.277647,
    "lng": 128.408103
  },
  {
    "name": "군북면보건지소",
    "category": "보건소",
    "type": "보건소",
    "address": "경상남도 함안군 군북면 함마대로 768-3",
    "tel": "055-585-6001",
    "lat": 35.26393,
    "lng": 128.342864
  },
  {
    "name": "법수면보건지소",
    "category": "보건소",
    "type": "보건소",
    "address": "경상남도 함안군 법수면 문화마을1길 26",
    "tel": "055-580-3233",
    "lat": 35.313174,
    "lng": 128.354276
  },
  {
    "name": "칠북면보건지소",
    "category": "보건소",
    "type": "보건소",
    "address": "경상남도 함안군 칠북면 단내로 8",
    "tel": "055-580-3235",
    "lat": 35.346789,
    "lng": 128.522408
  },
  {
    "name": "칠서면보건지소",
    "category": "보건소",
    "type": "보건소",
    "address": "경상남도 함안군 칠서면 칠평로 36, 칠서 보건지소",
    "tel": "055-580-3102",
    "lat": 35.319042,
    "lng": 128.506121
  },
  {
    "name": "함안면보건지소",
    "category": "보건소",
    "type": "보건소",
    "address": "경상남도 함안군 함안면 성산로 4",
    "tel": "055-580-3231",
    "lat": 35.241459,
    "lng": 128.422635
  },
  {
    "name": "문암보건진료소",
    "category": "보건소",
    "type": "보건소",
    "address": "경상남도 함안군 산인면 모곡1길 14",
    "tel": "055-580-4098",
    "lat": 35.271341,
    "lng": 128.457152
  },
  {
    "name": "부목보건진료소",
    "category": "보건소",
    "type": "보건소",
    "address": "경상남도 함안군 대산면 대부로 371",
    "tel": "055-580-4094",
    "lat": 35.363727,
    "lng": 128.464942
  },
  {
    "name": "여항보건진료소",
    "category": "보건소",
    "type": "보건소",
    "address": "경상남도 함안군 여항면 여항로 50",
    "tel": "055-580-4099",
    "lat": 35.210482,
    "lng": 128.434729
  },
  {
    "name": "이령보건진료소",
    "category": "보건소",
    "type": "보건소",
    "address": "경상남도 함안군 칠북면 이령2길 20",
    "tel": "055-580-4097",
    "lat": 35.365549,
    "lng": 128.536335
  },
  {
    "name": "장암보건진료소",
    "category": "보건소",
    "type": "보건소",
    "address": "경상남도 함안군 대산면 구암로 142",
    "tel": "055-580-4093",
    "lat": 35.36617,
    "lng": 128.433141
  },
  {
    "name": "청계보건진료소",
    "category": "보건소",
    "type": "보건소",
    "address": "경상남도 함안군 칠서면 청계2길 25-34",
    "tel": "055-580-4095",
    "lat": 35.332369,
    "lng": 128.497559
  },
  {
    "name": "대산면보건지소",
    "category": "보건소",
    "type": "보건소",
    "address": "경상남도 함안군 대산면 함의로 996, 대산면보건지소",
    "tel": "055-580-3234",
    "lat": 35.351534,
    "lng": 128.428267
  },
  {
    "name": "의료법인학산의료재단아라한국병원",
    "category": "산재지정병원",
    "type": "산재지정병원",
    "address": "경남 함안군 산인면 학산2길 17-50 850 아라요양병원",
    "tel": "0555828088",
    "lat": 35.274276,
    "lng": 128.43172
  },
  {
    "name": "참사랑의원",
    "category": "산재지정병원",
    "type": "산재지정병원",
    "address": "경상남도 함안군 가야읍 중앙남1길 34 (가야읍)",
    "tel": "0555831929",
    "lat": 35.276141,
    "lng": 128.407237
  },
  {
    "name": "김외과의원",
    "category": "병의원",
    "type": "의원",
    "address": "경상남도 창녕군 남지읍 동포로 11",
    "tel": "055-526-5225",
    "lat": 35.390191,
    "lng": 128.481614
  },
  {
    "name": "녹십자의원",
    "category": "병의원",
    "type": "의원",
    "address": "경상남도 창녕군 남지읍 낙동로 518",
    "tel": "055-526-5879",
    "lat": 35.389036,
    "lng": 128.481053
  },
  {
    "name": "늘푸른의원",
    "category": "병의원",
    "type": "의원",
    "address": "경상남도 창녕군 남지읍 낙동로 498-2, 3층",
    "tel": "055-521-7582",
    "lat": 35.388816,
    "lng": 128.478782
  },
  {
    "name": "삼성의원",
    "category": "병의원",
    "type": "의원",
    "address": "경상남도 창녕군 남지읍 동포로 10",
    "tel": "055-526-0097",
    "lat": 35.390162,
    "lng": 128.482108
  },
  {
    "name": "시영의료재단 영동병원",
    "category": "병의원",
    "type": "병원",
    "address": "경상남도 함안군 칠원읍 용산2길 45-13",
    "tel": "055-586-2000",
    "lat": 35.308983,
    "lng": 128.515544
  },
  {
    "name": "의료법인 학산의료재단 아라한국병원",
    "category": "병의원",
    "type": "병원",
    "address": "경상남도 함안군 산인면 학산2길 17-50",
    "tel": "055-582-8088",
    "lat": 35.274268,
    "lng": 128.43174
  },
  {
    "name": "경희의원",
    "category": "병의원",
    "type": "의원",
    "address": "경상남도 함안군 대산면 대산중앙로 203 (대산면)",
    "tel": "055-582-9800",
    "lat": 35.351648,
    "lng": 128.428986
  },
  {
    "name": "고려의원",
    "category": "병의원",
    "type": "의원",
    "address": "경상남도 함안군 가야읍 함안대로 548, 1,2층",
    "tel": "055-583-2211",
    "lat": 35.275661,
    "lng": 128.406045
  },
  {
    "name": "구자운의원",
    "category": "병의원",
    "type": "의원",
    "address": "경상남도 함안군 군북면 중암7길 39 (군북면)",
    "tel": "055-585-5111",
    "lat": 35.260321,
    "lng": 128.346057
  },
  {
    "name": "늘푸른의원",
    "category": "병의원",
    "type": "의원",
    "address": "경상남도 함안군 군북면 함마대로 805, 1층",
    "tel": "055-583-7582",
    "lat": 35.262019,
    "lng": 128.345531
  },
  {
    "name": "마디튼튼의원",
    "category": "병의원",
    "type": "의원",
    "address": "경상남도 함안군 가야읍 남경길 20, 라온빌딩 1,3층",
    "tel": "0555822588",
    "lat": 35.278398,
    "lng": 128.409005
  },
  {
    "name": "명성마취통증의학과의원",
    "category": "병의원",
    "type": "의원",
    "address": "경상남도 함안군 가야읍 함마대로 1636-16 (가야읍)",
    "tel": "055-585-7500",
    "lat": 35.279334,
    "lng": 128.408926
  },
  {
    "name": "박내과의원",
    "category": "병의원",
    "type": "의원",
    "address": "경상남도 함안군 가야읍 남경길 32 (함안메디컬센터 2층)",
    "tel": "055-584-3300",
    "lat": 35.278698,
    "lng": 128.409632
  },
  {
    "name": "보람가정의학과의원",
    "category": "병의원",
    "type": "의원",
    "address": "경상남도 함안군 칠원읍 원서로 10",
    "tel": "055-586-0501",
    "lat": 35.308275,
    "lng": 128.518361
  },
  {
    "name": "복음의원",
    "category": "병의원",
    "type": "의원",
    "address": "경상남도 함안군 대산면 대산중앙로 218-2 (대산면)",
    "tel": "055-582-7533",
    "lat": 35.352918,
    "lng": 128.428313
  },
  {
    "name": "상쾌한이비인후과의원",
    "category": "병의원",
    "type": "의원",
    "address": "경상남도 함안군 가야읍 가야로 40, 2층 (가야읍)",
    "tel": "055-584-3975",
    "lat": 35.277282,
    "lng": 128.405598
  },
  {
    "name": "성심의원",
    "category": "병의원",
    "type": "의원",
    "address": "경상남도 함안군 가야읍 가야로 50, 2,3층",
    "tel": "055-585-8288",
    "lat": 35.277447,
    "lng": 128.40659
  },
  {
    "name": "아라의원",
    "category": "병의원",
    "type": "의원",
    "address": "경상남도 함안군 가야읍 방목1길 16-27",
    "tel": "055-585-8825",
    "lat": 35.277582,
    "lng": 128.4053
  },
  {
    "name": "인제의원",
    "category": "병의원",
    "type": "의원",
    "address": "경상남도 함안군 가야읍 함마대로 1636-16, 2층 (함안버스터미널)",
    "tel": "055-583-1010",
    "lat": 35.279387,
    "lng": 128.409041
  },
  {
    "name": "제일의원",
    "category": "병의원",
    "type": "의원",
    "address": "경상남도 함안군 군북면 중암8길 12-10",
    "tel": "055-585-7560",
    "lat": 35.261685,
    "lng": 128.34608
  },
  {
    "name": "참사랑의원",
    "category": "병의원",
    "type": "의원",
    "address": "경상남도 함안군 가야읍 중앙남1길 34 (참사랑의원)",
    "tel": "055-583-1929",
    "lat": 35.276154,
    "lng": 128.407231
  },
  {
    "name": "함안미래산부인과의원",
    "category": "병의원",
    "type": "의원",
    "address": "경상남도 함안군 가야읍 가야로 69, 3층 301호 (부광빌딩)",
    "tel": "055-585-8275",
    "lat": 35.278117,
    "lng": 128.40876
  },
  {
    "name": "함안성모안과의원",
    "category": "병의원",
    "type": "의원",
    "address": "경상남도 함안군 가야읍 남경길 32, 1층 103호",
    "tel": "055-582-1700",
    "lat": 35.278724,
    "lng": 128.409594
  },
  {
    "name": "회성의원",
    "category": "병의원",
    "type": "의원",
    "address": "경상남도 함안군 가야읍 가야6길 17 (가야읍)",
    "tel": "055-583-2018",
    "lat": 35.276724,
    "lng": 128.405351
  },
  {
    "name": "남지요양병원",
    "category": "요양병원",
    "type": "요양병원",
    "address": "경상남도 창녕군 남지읍 동포로 15",
    "tel": "055-526-0140",
    "lat": 35.390605,
    "lng": 128.481249
  },
  {
    "name": "의료법인케이엔의료재단경남요양병원",
    "category": "요양병원",
    "type": "요양병원",
    "address": "경상남도 창녕군 남지읍 남지중앙로 45",
    "tel": "055-526-3355",
    "lat": 35.391138,
    "lng": 128.47431
  },
  {
    "name": "의료법인 시영의료재단 함안요양병원",
    "category": "요양병원",
    "type": "요양병원",
    "address": "경상남도 함안군 칠원읍 용산2길 45-13, 4층",
    "tel": "055-586-5009",
    "lat": 35.308951,
    "lng": 128.515603
  },
  {
    "name": "거북이한의원",
    "category": "한방병의원",
    "type": "한의원",
    "address": "경상남도 창녕군 남지읍 동포로 8",
    "tel": "055-526-0021",
    "lat": 35.389886,
    "lng": 128.482057
  },
  {
    "name": "남지한의원",
    "category": "한방병의원",
    "type": "한의원",
    "address": "경상남도 창녕군 남지읍 선창길 4",
    "tel": "055-526-4912",
    "lat": 35.389002,
    "lng": 128.481761
  },
  {
    "name": "백세한의원",
    "category": "한방병의원",
    "type": "한의원",
    "address": "경상남도 창녕군 남지읍 문화길 5-1, 1층 (백세한의원)",
    "tel": "055-521-9596",
    "lat": 35.388778,
    "lng": 128.481289
  },
  {
    "name": "늘봄한의원",
    "category": "한방병의원",
    "type": "한의원",
    "address": "경상남도 함안군 가야읍 남경길 32, 502호",
    "tel": "055-585-1079",
    "lat": 35.278726,
    "lng": 128.409593
  },
  {
    "name": "대산한의원",
    "category": "한방병의원",
    "type": "한의원",
    "address": "경상남도 함안군 대산면 대산중앙로 213-1",
    "tel": "055-582-4752",
    "lat": 35.352453,
    "lng": 128.428491
  },
  {
    "name": "본가한의원",
    "category": "한방병의원",
    "type": "한의원",
    "address": "경상남도 함안군 대산면 대산중앙로 224",
    "tel": "055-583-1075",
    "lat": 35.349574,
    "lng": 128.431217
  },
  {
    "name": "본가한의원",
    "category": "한방병의원",
    "type": "한의원",
    "address": "경상남도 함안군 대산면 대산중앙로 224",
    "tel": "055-583-1075",
    "lat": 35.353218,
    "lng": 128.428073
  },
  {
    "name": "심한의원",
    "category": "한방병의원",
    "type": "한의원",
    "address": "경상남도 함안군 가야읍 함안대로 574, 2층",
    "tel": "055-585-7030",
    "lat": 35.277611,
    "lng": 128.404654
  },
  {
    "name": "영남한의원",
    "category": "한방병의원",
    "type": "한의원",
    "address": "경상남도 함안군 가야읍 가야9길 14, 2층 201호",
    "tel": "055-583-5352",
    "lat": 35.277336,
    "lng": 128.407269
  },
  {
    "name": "이태호한의원",
    "category": "한방병의원",
    "type": "한의원",
    "address": "경상남도 함안군 가야읍 가야로 76, 이태호한의원 (가야읍)",
    "tel": "055-584-2221",
    "lat": 35.27786,
    "lng": 128.409595
  },
  {
    "name": "재덕한의원",
    "category": "한방병의원",
    "type": "한의원",
    "address": "경상남도 함안군 칠원읍 용산2길 12",
    "tel": "055-587-8500",
    "lat": 35.307912,
    "lng": 128.517396
  },
  {
    "name": "제중당한의원",
    "category": "한방병의원",
    "type": "한의원",
    "address": "경상남도 함안군 군북면 함마대로 817 (군북면)",
    "tel": "055-585-3077",
    "lat": 35.26239,
    "lng": 128.346711
  },
  {
    "name": "황제한의원",
    "category": "한방병의원",
    "type": "한의원",
    "address": "경상남도 함안군 가야읍 함마대로 1636-16",
    "tel": "055-585-8838",
    "lat": 35.279365,
    "lng": 128.409058
  },
  {
    "name": "굿스마일치과의원",
    "category": "치과병의원",
    "type": "치과의원",
    "address": "경상남도 창녕군 남지읍 낙동로 519, 2층",
    "tel": "055-521-2885",
    "lat": 35.389326,
    "lng": 128.481312
  },
  {
    "name": "박치과의원",
    "category": "치과병의원",
    "type": "치과의원",
    "address": "경상남도 창녕군 남지읍 선창길 6-2",
    "tel": "055-526-5230",
    "lat": 35.388778,
    "lng": 128.481775
  },
  {
    "name": "서울민치과의원",
    "category": "치과병의원",
    "type": "치과의원",
    "address": "경상남도 창녕군 남지읍 동포로 3 (남지읍)",
    "tel": "055-521-2882",
    "lat": 35.389458,
    "lng": 128.481702
  },
  {
    "name": "79플란트치과의원",
    "category": "치과병의원",
    "type": "치과의원",
    "address": "경상남도 함안군 가야읍 가야로 60, 홍성빌딩 6층",
    "tel": "055-585-7928",
    "lat": 35.277607,
    "lng": 128.407766
  },
  {
    "name": "가야치과의원",
    "category": "치과병의원",
    "type": "치과의원",
    "address": "경상남도 함안군 가야읍 가야로 45, 2층",
    "tel": "055-583-5901",
    "lat": 35.277655,
    "lng": 128.406075
  },
  {
    "name": "군북치과의원",
    "category": "치과병의원",
    "type": "치과의원",
    "address": "경상남도 함안군 군북면 중암7길 7, 2층",
    "tel": "055-585-1875",
    "lat": 35.261862,
    "lng": 128.34603
  },
  {
    "name": "상아치과의원",
    "category": "치과병의원",
    "type": "치과의원",
    "address": "경상남도 함안군 가야읍 가야로 33-1, 2층",
    "tel": "055-585-2875",
    "lat": 35.277644,
    "lng": 128.407831
  },
  {
    "name": "서울치과의원",
    "category": "치과병의원",
    "type": "치과의원",
    "address": "경상남도 함안군 가야읍 가야6길 17",
    "tel": "055-583-2724",
    "lat": 35.27676,
    "lng": 128.405318
  },
  {
    "name": "아라치과의원",
    "category": "치과병의원",
    "type": "치과의원",
    "address": "경상남도 함안군 가야읍 함안대로 569",
    "tel": "055-583-1390",
    "lat": 35.27747,
    "lng": 128.404853
  },
  {
    "name": "연세미치과의원",
    "category": "치과병의원",
    "type": "치과의원",
    "address": "경상남도 함안군 가야읍 남경길 32, 3층 302호 (함안메디컬빌딩)",
    "tel": "055-586-2875",
    "lat": 35.278702,
    "lng": 128.409592
  },
  {
    "name": "오치과의원",
    "category": "치과병의원",
    "type": "치과의원",
    "address": "경상남도 함안군 칠원읍 서남길 3",
    "tel": "055-587-2875",
    "lat": 35.307295,
    "lng": 128.518013
  },
  {
    "name": "함안굿스마일치과의원",
    "category": "치과병의원",
    "type": "치과의원",
    "address": "경상남도 함안군 가야읍 남경길 20 (라온빌딩)",
    "tel": "055-582-5100",
    "lat": 35.27825,
    "lng": 128.409918
  },
  {
    "name": "함안우리치과의원",
    "category": "치과병의원",
    "type": "치과의원",
    "address": "경상남도 함안군 가야읍 함마대로 1494, 2층",
    "tel": "055-583-2882",
    "lat": 35.274946,
    "lng": 128.399156
  },
  {
    "name": "함안이편한치과의원",
    "category": "치과병의원",
    "type": "치과의원",
    "address": "경상남도 함안군 군북면 함마대로 826, 2층 (군북면)",
    "tel": "055-584-7700",
    "lat": 35.262346,
    "lng": 128.347804
  },
  {
    "name": "함안치과의원",
    "category": "치과병의원",
    "type": "치과의원",
    "address": "경상남도 함안군 가야읍 함마대로 1636-16 (시외버스터미널(2층))",
    "tel": "055-584-2888",
    "lat": 35.279226,
    "lng": 128.40921
  },
  {
    "name": "현대치과의원",
    "category": "치과병의원",
    "type": "치과의원",
    "address": "경상남도 함안군 칠원읍 원서로 16-2",
    "tel": "055-587-5825",
    "lat": 35.30775,
    "lng": 128.517933
  },
  {
    "name": "롯데약국",
    "category": "약국",
    "type": "약국",
    "address": "경상남도 함안군 가야읍 함안대로 564",
    "tel": "055-582-4822",
    "lat": 35.277029,
    "lng": 128.405312
  },
  {
    "name": "맑은우리들약국",
    "category": "약국",
    "type": "약국",
    "address": "경상남도 함안군 군북면 중암7길 7,",
    "tel": "055-585-0233",
    "lat": 35.261851,
    "lng": 128.345902
  },
  {
    "name": "대산복음약국",
    "category": "약국",
    "type": "약국",
    "address": "경상남도 함안군 대산면 대산중앙로 211",
    "tel": "055-585-0717",
    "lat": 35.352265,
    "lng": 128.42863
  },
  {
    "name": "성모약국",
    "category": "약국",
    "type": "약국",
    "address": "경상남도 함안군 가야읍 남경길 32",
    "tel": "055-583-7585",
    "lat": 35.27872,
    "lng": 128.409601
  },
  {
    "name": "대지약국",
    "category": "약국",
    "type": "약국",
    "address": "경상남도 함안군 대산면 대산중앙로 204",
    "tel": "055-583-8075",
    "lat": 35.351874,
    "lng": 128.429377
  },
  {
    "name": "메디팜고려약국",
    "category": "약국",
    "type": "약국",
    "address": "경상남도 함안군 가야읍 함안대로 550",
    "tel": "055-583-2990",
    "lat": 35.275757,
    "lng": 128.40587
  },
  {
    "name": "중앙약국",
    "category": "약국",
    "type": "약국",
    "address": "경상남도 함안군 가야읍 방목1길 16-27,",
    "tel": "055-583-2462",
    "lat": 35.277564,
    "lng": 128.405299
  },
  {
    "name": "함안약국",
    "category": "약국",
    "type": "약국",
    "address": "경상남도 함안군 가야읍 가야로 45",
    "tel": "055-583-2047",
    "lat": 35.277658,
    "lng": 128.406083
  },
  {
    "name": "새경남약국",
    "category": "약국",
    "type": "약국",
    "address": "경상남도 창녕군 남지읍 낙동로 518 (남지읍)",
    "tel": "055-526-2875",
    "lat": 35.389059,
    "lng": 128.481052
  },
  {
    "name": "주차장약국",
    "category": "약국",
    "type": "약국",
    "address": "경상남도 함안군 가야읍 함마대로 1636-16",
    "tel": "055-583-6566",
    "lat": 35.27935,
    "lng": 128.409076
  },
  {
    "name": "우리약국",
    "category": "약국",
    "type": "약국",
    "address": "경상남도 함안군 칠원면 용산2길 57,",
    "tel": "055-586-7122",
    "lat": 35.309474,
    "lng": 128.515833
  },
  {
    "name": "보건약국",
    "category": "약국",
    "type": "약국",
    "address": "경상남도 창녕군 남지읍 동포로 10",
    "tel": "055-526-5753",
    "lat": 35.390073,
    "lng": 128.481979
  },
  {
    "name": "평화약국",
    "category": "약국",
    "type": "약국",
    "address": "경상남도 함안군 칠원읍 용산2길 8",
    "tel": "055-587-2939",
    "lat": 35.307604,
    "lng": 128.517204
  },
  {
    "name": "태양약국",
    "category": "약국",
    "type": "약국",
    "address": "경상남도 함안군 칠원읍 원서로 10, 중앙상가",
    "tel": "055-587-5694",
    "lat": 35.307893,
    "lng": 128.518032
  },
  {
    "name": "아라큰약국",
    "category": "약국",
    "type": "약국",
    "address": "경상남도 함안군 산인면 학산2길 17-52",
    "tel": "055-585-7335",
    "lat": 35.274707,
    "lng": 128.432161
  },
  {
    "name": "조일당약국",
    "category": "약국",
    "type": "약국",
    "address": "경상남도 함안군 군북면 함마대로 805",
    "tel": "055-585-5012",
    "lat": 35.262071,
    "lng": 128.345563
  },
  {
    "name": "솔약국",
    "category": "약국",
    "type": "약국",
    "address": "경상남도 함안군 군북면 중암7길 39",
    "tel": "055-585-7787",
    "lat": 35.26003,
    "lng": 128.345621
  },
  {
    "name": "하나로약국",
    "category": "약국",
    "type": "약국",
    "address": "경상남도 창녕군 남지읍 낙동로 498-2, 2층 (남지읍)",
    "tel": "055-526-0447",
    "lat": 35.388816,
    "lng": 128.478782
  },
  {
    "name": "김약국",
    "category": "약국",
    "type": "약국",
    "address": "경상남도 창녕군 남지읍 동포로 13 (남지읍)",
    "tel": "055-526-5362",
    "lat": 35.390389,
    "lng": 128.481509
  },
  {
    "name": "대광당한약국",
    "category": "약국",
    "type": "약국",
    "address": "경상남도 함안군 함안면 함안대로 127",
    "tel": "055-582-2323",
    "lat": 35.243499,
    "lng": 128.422069
  },
  {
    "name": "법수약국",
    "category": "약국",
    "type": "약국",
    "address": "경상남도 함안군 법수면 법정로 7",
    "tel": "055-584-2922",
    "lat": 35.318299,
    "lng": 128.384016
  },
  {
    "name": "열린약국",
    "category": "약국",
    "type": "약국",
    "address": "경상남도 함안군 가야읍 함마대로 1494",
    "tel": "055-000-0000",
    "lat": 35.274946,
    "lng": 128.399156
  },
  {
    "name": "미소약국",
    "category": "약국",
    "type": "약국",
    "address": "경상남도 함안군 가야읍 가야로 40",
    "tel": "055-583-1953",
    "lat": 35.277358,
    "lng": 128.405542
  },
  {
    "name": "삼일약국",
    "category": "약국",
    "type": "약국",
    "address": "경상남도 함안군 가야읍 가야로 50,",
    "tel": "055-584-3169",
    "lat": 35.277505,
    "lng": 128.406592
  },
  {
    "name": "예림약국",
    "category": "약국",
    "type": "약국",
    "address": "경상남도 함안군 가야읍 중앙남1길 34",
    "tel": "055-582-4245",
    "lat": 35.276152,
    "lng": 128.407231
  }
]