[
  {
    "name": "남해우체국",
    "category": "관공서",
    "type": "관공서",
    "address": "경상남도 남해군 남해읍 화전로78번길 6",
    "tel": "055-863-2005",
    "lat": 34.83777,
    "lng": 127.894792
  },
  {
    "name": "남해미조우체국",
    "category": "관공서",
    "type": "관공서",
    "address": "경상남도 남해군 미조면 미송로 68",
    "tel": "055-867-6501",
    "lat": 34.711418,
    "lng": 128.046371
  },
  {
    "name": "남해이동우체국",
    "category": "관공서",
    "type": "관공서",
    "address": "경상남도 남해군 이동면 무림로 50",
    "tel": "055-862-4518",
    "lat": 34.801363,
    "lng": 127.952723
  },
  {
    "name": "남해삼동우체국",
    "category": "관공서",
    "type": "관공서",
    "address": "경상남도 남해군 삼동면 동부대로1876번길 10",
    "tel": "055-867-2005",
    "lat": 34.831332,
    "lng": 128.000911
  },
  {
    "name": "남해남면우체국",
    "category": "관공서",
    "type": "관공서",
    "address": "경상남도 남해군 남면 남서대로 779",
    "tel": "055-862-9000",
    "lat": 34.771148,
    "lng": 127.886481
  },
  {
    "name": "남해상주우체국",
    "category": "관공서",
    "type": "관공서",
    "address": "경상남도 남해군 상주면 남해대로675번길 8-7",
    "tel": "055-862-5609",
    "lat": 34.722134,
    "lng": 127.988501
  },
  {
    "name": "남해창선우체국",
    "category": "관공서",
    "type": "관공서",
    "address": "경상남도 남해군 창선면 창선로 112",
    "tel": "055-867-1001",
    "lat": 34.858812,
    "lng": 128.012405
  },
  {
    "name": "남해서면우체국",
    "category": "관공서",
    "type": "관공서",
    "address": "경상남도 남해군 서면 남서대로 1661",
    "tel": "055-862-1700",
    "lat": 34.809441,
    "lng": 127.836571
  },
  {
    "name": "남해고현우체국",
    "category": "관공서",
    "type": "관공서",
    "address": "경상남도 남해군 고현면 탑동로 53",
    "tel": "055-862-4001",
    "lat": 34.895937,
    "lng": 127.873089
  },
  {
    "name": "남해설천우체국",
    "category": "관공서",
    "type": "관공서",
    "address": "경상남도 남해군 설천로 696",
    "tel": "055-862-7088",
    "lat": 34.925074,
    "lng": 127.914718
  },
  {
    "name": "남해군청",
    "category": "관공서",
    "type": "관공서",
    "address": "경상남도 남해군 남해읍 망운로9번길 12",
    "tel": "055-860-3114",
    "lat": 34.837698,
    "lng": 127.892652
  },
  {
    "name": "남해읍사무소",
    "category": "관공서",
    "type": "관공서",
    "address": "경상남도 남해군 남해읍 화전로 81",
    "tel": "055-860-8001",
    "lat": 34.838563,
    "lng": 127.8937
  },
  {
    "name": "고현면사무소",
    "category": "관공서",
    "type": "관공서",
    "address": "경상남도 남해군 고현면 탑동로 42",
    "tel": "055-860-8351",
    "lat": 34.895825,
    "lng": 127.874339
  },
  {
    "name": "남면사무소",
    "category": "관공서",
    "type": "관공서",
    "address": "경상남도 남해군 남면 남서대로 778",
    "tel": "055-860-8251",
    "lat": 34.771447,
    "lng": 127.887086
  },
  {
    "name": "미조면사무소",
    "category": "관공서",
    "type": "관공서",
    "address": "경상남도 남해군 미조면 미송로 60",
    "tel": "055-860-8201",
    "lat": 34.712051,
    "lng": 128.04585
  },
  {
    "name": "삼동면사무소",
    "category": "관공서",
    "type": "관공서",
    "address": "경상남도 남해군 삼동면 동부대로1876번길 12",
    "tel": "055-860-8151",
    "lat": 34.830984,
    "lng": 128.000984
  },
  {
    "name": "상주면사무소",
    "category": "관공서",
    "type": "관공서",
    "address": "경상남도 남해군 상주면 남해대로 705 ",
    "tel": "055-860-8101",
    "lat": 34.723837,
    "lng": 127.985376
  },
  {
    "name": "서면사무소",
    "category": "관공서",
    "type": "관공서",
    "address": "경상남도 남해군 서면 스포츠로 676 ",
    "tel": "055-860-8301",
    "lat": 34.81006,
    "lng": 127.838327
  },
  {
    "name": "설천면사무소",
    "category": "관공서",
    "type": "관공서",
    "address": "경상남도 남해군 설천면 설천로 695",
    "tel": "055-860-8401",
    "lat": 34.925023,
    "lng": 127.913961
  },
  {
    "name": "이동면사무소",
    "category": "관공서",
    "type": "관공서",
    "address": "경상남도 남해군 이동면 무림로 76",
    "tel": "055-860-8051",
    "lat": 34.799435,
    "lng": 127.954671
  },
  {
    "name": "창선면사무소",
    "category": "관공서",
    "type": "관공서",
    "address": "경상남도 남해군 창선면 창선로97번길6",
    "tel": "055-860-8451",
    "lat": 34.857804,
    "lng": 128.012143
  },
  {
    "name": "농업기술센터",
    "category": "관공서",
    "type": "관공서",
    "address": "경상남도 남해군 이동면 남해대로 2449",
    "tel": "055-860-3905",
    "lat": 34.817617,
    "lng": 127.92319
  },
  {
    "name": "보건소",
    "category": "관공서",
    "type": "관공서",
    "address": "경상남도 남해군 남해읍 선소로 6",
    "tel": "055-860-8701",
    "lat": 34.844784,
    "lng": 127.898836
  },
  {
    "name": "고현면보건지소",
    "category": "관공서",
    "type": "관공서",
    "address": "경상남도 남해군 고현면 탑동로43",
    "tel": "055-860-8561",
    "lat": 34.895249,
    "lng": 127.873697
  },
  {
    "name": "남면보건지소",
    "category": "관공서",
    "type": "관공서",
    "address": "경상남도 남해군 남면 남서대로 778-11",
    "tel": "055-860-8541",
    "lat": 34.772152,
    "lng": 127.887085
  },
  {
    "name": "미조면보건지소",
    "category": "관공서",
    "type": "관공서",
    "address": "경상남도 남해군 미조면 미조로236번길 41",
    "tel": "055-860-8531",
    "lat": 34.712269,
    "lng": 128.047232
  },
  {
    "name": "삼동면보건지소",
    "category": "관공서",
    "type": "관공서",
    "address": "경상남도 남해군 삼동면 동부대로 1876번가길 11-9",
    "tel": "055-860-8521",
    "lat": 34.832234,
    "lng": 128.000905
  },
  {
    "name": "상주면보건지소",
    "category": "관공서",
    "type": "관공서",
    "address": "경상남도 남해군 상주면 남해대로 716",
    "tel": "055-860-8511",
    "lat": 34.724829,
    "lng": 127.986043
  },
  {
    "name": "서면보건지소",
    "category": "관공서",
    "type": "관공서",
    "address": "경상남도 남해군 서면 남서대로1687번길 28-4",
    "tel": "055-860-8551",
    "lat": 34.809025,
    "lng": 127.834759
  },
  {
    "name": "설천면보건지소",
    "category": "관공서",
    "type": "관공서",
    "address": "경상남도 남해군 설천면 설천로 654",
    "tel": "055-860-8571",
    "lat": 34.921776,
    "lng": 127.916116
  },
  {
    "name": "이동보건지소",
    "category": "관공서",
    "type": "관공서",
    "address": "경상남도 남해군 이동면 무림로 64-5",
    "tel": "055-860-8501",
    "lat": 34.799825,
    "lng": 127.953116
  },
  {
    "name": "창선면보건지소",
    "category": "관공서",
    "type": "관공서",
    "address": "경상남도 남해군 창선면 창선로 60-9",
    "tel": "055-860-8581",
    "lat": 34.85468,
    "lng": 128.01368
  },
  {
    "name": "가인포보건진료소",
    "category": "관공서",
    "type": "관공서",
    "address": "경상남도 남해군 미조면 동부대로 461",
    "tel": "055-860-8903",
    "lat": 34.751453,
    "lng": 128.050123
  },
  {
    "name": "광천보건진료소",
    "category": "관공서",
    "type": "관공서",
    "address": "경상남도 남해군 창선면 서부로 432-1",
    "tel": "055-860-8910",
    "lat": 34.855987,
    "lng": 127.965089
  },
  {
    "name": "남상보건진료소",
    "category": "관공서",
    "type": "관공서",
    "address": "경상남도 남해군 서면 남서대로2197번길 6",
    "tel": "055-860-8907",
    "lat": 34.847292,
    "lng": 127.818739
  },
  {
    "name": "노량보건진료소",
    "category": "관공서",
    "type": "관공서",
    "address": "경상남도 남해군 설천면 노량로 198",
    "tel": "055-860-8909",
    "lat": 34.939971,
    "lng": 127.87417
  },
  {
    "name": "대벽보건진료소",
    "category": "관공서",
    "type": "관공서",
    "address": "경상남도 남해군 창선면 서부로1244번길 16",
    "tel": "055-860-8912",
    "lat": 34.908888,
    "lng": 128.001196
  },
  {
    "name": "덕월보건진료소",
    "category": "관공서",
    "type": "관공서",
    "address": "경상남도 남해군 남면 남서대로1180번길 18",
    "tel": "055-860-8904",
    "lat": 34.783229,
    "lng": 127.8573
  },
  {
    "name": "동천보건진료소",
    "category": "관공서",
    "type": "관공서",
    "address": "경상남도 남해군 삼동면 동부대로 1287",
    "tel": "055-860-8902",
    "lat": 34.807718,
    "lng": 128.03496
  },
  {
    "name": "선구보건진료소",
    "category": "관공서",
    "type": "관공서",
    "address": "경상남도 남해군 남면 남면로 1163",
    "tel": "055-860-8905",
    "lat": 34.739429,
    "lng": 127.856328
  },
  {
    "name": "시문보건진료소",
    "category": "관공서",
    "type": "관공서",
    "address": "경상남도 남해군 삼동면 난음로 338",
    "tel": "055-860-8901",
    "lat": 34.808595,
    "lng": 127.981283
  },
  {
    "name": "연곡보건진료소",
    "category": "관공서",
    "type": "관공서",
    "address": "경상남도 남해군 창선면 연곡로 25",
    "tel": "055-860-8913",
    "lat": 34.869633,
    "lng": 128.042267
  },
  {
    "name": "율도보건진료소",
    "category": "관공서",
    "type": "관공서",
    "address": "경상남도 남해군 창선면 서부로1066번길 28-1",
    "tel": "055-860-8911",
    "lat": 34.89898,
    "lng": 127.993748
  },
  {
    "name": "적량보건진료소",
    "category": "관공서",
    "type": "관공서",
    "address": "경상남도 남해군 창선면 흥선로1198번길 10",
    "tel": "055-860-8915",
    "lat": 34.860727,
    "lng": 128.059882
  },
  {
    "name": "중현보건진료소",
    "category": "관공서",
    "type": "관공서",
    "address": "경상남도 남해군 서면 남서대로2618번길6",
    "tel": "055-860-8908",
    "lat": 34.87252,
    "lng": 127.830129
  },
  {
    "name": "홍현보건진료소",
    "category": "관공서",
    "type": "관공서",
    "address": "경상남도 남해군 남면 남면로 355-5",
    "tel": "055-860-8906",
    "lat": 34.744795,
    "lng": 127.907936
  },
  {
    "name": "연기면사무소",
    "category": "관공서",
    "type": "관공서",
    "address": "세종특별자치시 연기면 당산로 81 (한별리)",
    "tel": "044-301-5200",
    "lat": 34.838563,
    "lng": 127.8937
  },
  {
    "name": "연기면보건지소",
    "category": "관공서",
    "type": "관공서",
    "address": "세종특별자치시 연기면 당산로 81 (한별리)",
    "tel": "044-301-2213",
    "lat": 34.838563,
    "lng": 127.8937
  },
  {
    "name": "남해 에코촌 어린이놀이터",
    "category": "어린이놀이시설",
    "type": "어린이놀이시설",
    "address": "경남 남해군 이동면 죽방로 801",
    "tel": "",
    "lat": 34.8043,
    "lng": 127.955806
  },
  {
    "name": "남해 에코촌 물놀이장",
    "category": "어린이놀이시설",
    "type": "어린이놀이시설",
    "address": "경남 남해군 이동면 무림리 1164-104",
    "tel": "",
    "lat": 34.80477,
    "lng": 127.95487
  },
  {
    "name": "보물섬 놀이터",
    "category": "어린이놀이시설",
    "type": "어린이놀이시설",
    "address": "경남 남해군 남해읍 남해대로 2999-4",
    "tel": "",
    "lat": 34.854476,
    "lng": 127.892145
  },
  {
    "name": "행복빼빼로놀이터",
    "category": "어린이놀이시설",
    "type": "어린이놀이시설",
    "address": "경남 남해군 남해읍 화전로96번길 22-19",
    "tel": "",
    "lat": 34.839193,
    "lng": 127.897938
  },
  {
    "name": "한려해상국립공원 덕신야영장 실내놀이터",
    "category": "어린이놀이시설",
    "type": "어린이놀이시설",
    "address": "경남 남해군 설천면 남해대로 4110-9",
    "tel": "",
    "lat": 34.932924,
    "lng": 127.873924
  },
  {
    "name": "남양아파트",
    "category": "어린이놀이시설",
    "type": "어린이놀이시설",
    "address": "경상남도 남해군 남해읍 망운로 77 (남양아파트)",
    "tel": "",
    "lat": 34.838621,
    "lng": 127.885946
  },
  {
    "name": "상주초등학교 병설유치원 어린이 놀이시설",
    "category": "어린이놀이시설",
    "type": "어린이놀이시설",
    "address": "경상남도 남해군 상주면 남해대로 708",
    "tel": "",
    "lat": 34.724593,
    "lng": 127.986263
  },
  {
    "name": "지족초등학교 어린이 놀이시설",
    "category": "어린이놀이시설",
    "type": "어린이놀이시설",
    "address": "경상남도 남해군 삼동면 동부대로1858번길 4",
    "tel": "",
    "lat": 34.830599,
    "lng": 128.000798
  },
  {
    "name": "남명초등학교 어린이놀이시설",
    "category": "어린이놀이시설",
    "type": "어린이놀이시설",
    "address": "경상남도 남해군 남면 남서대로748번길 7",
    "tel": "",
    "lat": 34.77238,
    "lng": 127.890186
  },
  {
    "name": "성명초등학교 어린이 놀이시설(병설유치원 겸용)",
    "category": "어린이놀이시설",
    "type": "어린이놀이시설",
    "address": "경상남도 남해군 서면 남서대로 1630",
    "tel": "",
    "lat": 34.808408,
    "lng": 127.838991
  },
  {
    "name": "이동초등학교 병설유치원 어린이 놀이시설",
    "category": "어린이놀이시설",
    "type": "어린이놀이시설",
    "address": "경상남도 남해군 이동면 무림로 29",
    "tel": "",
    "lat": 34.803918,
    "lng": 127.952378
  },
  {
    "name": "해양초등학교 어린이 놀이시설",
    "category": "어린이놀이시설",
    "type": "어린이놀이시설",
    "address": "경상남도 남해군 남해읍 화전로 25",
    "tel": "",
    "lat": 34.834081,
    "lng": 127.895654
  },
  {
    "name": "연꽃어린이집 놀이터",
    "category": "어린이놀이시설",
    "type": "어린이놀이시설",
    "address": "경상남도 남해군 남해읍 망운로10번길 45-10",
    "tel": "",
    "lat": 34.842675,
    "lng": 127.892378
  },
  {
    "name": "(보물섬아이나라)남산생활공원 어린이놀이마당 놀이터",
    "category": "어린이놀이시설",
    "type": "어린이놀이시설",
    "address": "경상남도 남해군 남해읍 망운로21번가길 24-1",
    "tel": "",
    "lat": 34.834638,
    "lng": 127.890213
  },
  {
    "name": "남해평리아파트 놀이터1",
    "category": "어린이놀이시설",
    "type": "어린이놀이시설",
    "address": "경상남도 남해군 남해읍 스포츠로 20 (평리휴먼시아아파트)",
    "tel": "",
    "lat": 34.832972,
    "lng": 127.896416
  },
  {
    "name": "남해평리아파트 놀이터2",
    "category": "어린이놀이시설",
    "type": "어린이놀이시설",
    "address": "경상남도 남해군 남해읍 스포츠로 20 (평리휴먼시아아파트)",
    "tel": "",
    "lat": 34.832972,
    "lng": 127.896416
  },
  {
    "name": "남해평리아파트 유아놀이터",
    "category": "어린이놀이시설",
    "type": "어린이놀이시설",
    "address": "경상남도 남해군 남해읍 스포츠로 20 (평리휴먼시아아파트)",
    "tel": "",
    "lat": 34.832972,
    "lng": 127.896416
  },
  {
    "name": "남해유치원 실외 어린이 놀이시설",
    "category": "어린이놀이시설",
    "type": "어린이놀이시설",
    "address": "경상남도 남해군 남해읍 망운로61번길 44",
    "tel": "",
    "lat": 34.834483,
    "lng": 127.886474
  },
  {
    "name": "남해초등학교 어린이 놀이시설",
    "category": "어린이놀이시설",
    "type": "어린이놀이시설",
    "address": "경상남도 남해군 남해읍 망운로 14",
    "tel": "",
    "lat": 34.838835,
    "lng": 127.891975
  },
  {
    "name": "삼동초등학교 어린이 놀이시설",
    "category": "어린이놀이시설",
    "type": "어린이놀이시설",
    "address": "경상남도 남해군 삼동면 동부대로 1296",
    "tel": "",
    "lat": 34.809144,
    "lng": 128.035569
  },
  {
    "name": "상주초등학교 어린이 놀이시설",
    "category": "어린이놀이시설",
    "type": "어린이놀이시설",
    "address": "경상남도 남해군 상주면 남해대로 708",
    "tel": "",
    "lat": 34.724593,
    "lng": 127.986263
  },
  {
    "name": "설천초등학교 어린이 놀이시설",
    "category": "어린이놀이시설",
    "type": "어린이놀이시설",
    "address": "경상남도 남해군 설천면 설천로696번길 11",
    "tel": "",
    "lat": 34.926247,
    "lng": 127.914566
  },
  {
    "name": "이동초등학교 어린이 놀이시설",
    "category": "어린이놀이시설",
    "type": "어린이놀이시설",
    "address": "경상남도 남해군 이동면 무림로 29",
    "tel": "",
    "lat": 34.803918,
    "lng": 127.952378
  },
  {
    "name": "창선초등학교 병설유치원 어린이 놀이시설",
    "category": "어린이놀이시설",
    "type": "어린이놀이시설",
    "address": "경상남도 남해군 창선면 창선로97번길 16",
    "tel": "",
    "lat": 34.858638,
    "lng": 128.010609
  },
  {
    "name": "창선초등학교 어린이 놀이시설",
    "category": "어린이놀이시설",
    "type": "어린이놀이시설",
    "address": "경상남도 남해군 창선면 창선로97번길 16",
    "tel": "",
    "lat": 34.858638,
    "lng": 128.010609
  },
  {
    "name": "고현초등학교 어린이놀이시설(병설유치원 겸용)",
    "category": "어린이놀이시설",
    "type": "어린이놀이시설",
    "address": "경상남도 남해군 고현면 고설로 31",
    "tel": "",
    "lat": 34.897057,
    "lng": 127.877545
  },
  {
    "name": "남명초등학교 병설유치원 어린이놀이시설",
    "category": "어린이놀이시설",
    "type": "어린이놀이시설",
    "address": "경상남도 남해군 남면 남서대로748번길 7",
    "tel": "",
    "lat": 34.77298,
    "lng": 127.890284
  },
  {
    "name": "미조초등학교 어린이 놀이시설",
    "category": "어린이놀이시설",
    "type": "어린이놀이시설",
    "address": "경상남도 남해군 미조면 미송로2번길 8",
    "tel": "",
    "lat": 34.715666,
    "lng": 128.041572
  },
  {
    "name": "창선어린이집",
    "category": "어린이놀이시설",
    "type": "어린이놀이시설",
    "address": "경상남도 남해군 창선면 창선로131번길 20",
    "tel": "",
    "lat": 34.859877,
    "lng": 128.009543
  },
  {
    "name": "모모어린이집",
    "category": "어린이놀이시설",
    "type": "어린이놀이시설",
    "address": "경상남도 남해군 남해읍 오동로 13",
    "tel": "",
    "lat": 34.843941,
    "lng": 127.893028
  },
  {
    "name": "미조초등학교 병설유치원 어린이 놀이시설",
    "category": "어린이놀이시설",
    "type": "어린이놀이시설",
    "address": "경상남도 남해군 미조면 미송로2번길 8",
    "tel": "",
    "lat": 34.715666,
    "lng": 128.041572
  },
  {
    "name": "남해스포츠파크",
    "category": "어린이놀이시설",
    "type": "어린이놀이시설",
    "address": "경상남도 남해군 서면 스포츠파크길 15",
    "tel": "",
    "lat": 34.806361,
    "lng": 127.838575
  },
  {
    "name": "파크에비뉴아파트 놀이시설",
    "category": "어린이놀이시설",
    "type": "어린이놀이시설",
    "address": "경상남도 남해군 남해읍 화전로96번길 21 (남해파크에비뉴)",
    "tel": "",
    "lat": 34.840176,
    "lng": 127.896443
  },
  {
    "name": "미조소공원놀이시설",
    "category": "어린이놀이시설",
    "type": "어린이놀이시설",
    "address": "경상남도 남해군 미조면 미송로 61",
    "tel": "",
    "lat": 34.712144,
    "lng": 128.04693
  },
  {
    "name": "지족3리 어린이놀이터",
    "category": "어린이놀이시설",
    "type": "어린이놀이시설",
    "address": "경상남도 남해군 삼동면 동부대로1876번가길 34 (대아아파트)",
    "tel": "",
    "lat": 34.831813,
    "lng": 128.00411
  },
  {
    "name": "남산공원 놀이체험장",
    "category": "어린이놀이시설",
    "type": "어린이놀이시설",
    "address": "경상남도 남해군 남해읍 망운로9번길 42-53",
    "tel": "",
    "lat": 34.83342,
    "lng": 127.891838
  },
  {
    "name": "하늘빛어린이집",
    "category": "어린이놀이시설",
    "type": "어린이놀이시설",
    "address": "경상남도 남해군 삼동면 동부대로1809번길 21",
    "tel": "",
    "lat": 34.829019,
    "lng": 128.003492
  },
  {
    "name": "설천초등학교 병설유치원 어린이 놀이시설",
    "category": "어린이놀이시설",
    "type": "어린이놀이시설",
    "address": "경상남도 남해군 설천면 설천로696번길 11",
    "tel": "",
    "lat": 34.926247,
    "lng": 127.914566
  },
  {
    "name": "남해파크에비뉴 2차 아파트",
    "category": "어린이놀이시설",
    "type": "어린이놀이시설",
    "address": "경상남도 남해군 남해읍 망운로61번길 17",
    "tel": "",
    "lat": 34.836998,
    "lng": 127.887404
  },
  {
    "name": "봉황산 나래숲공원 놀이터",
    "category": "어린이놀이시설",
    "type": "어린이놀이시설",
    "address": null,
    "tel": "",
    "lat": 34.841605,
    "lng": 127.89048
  },
  {
    "name": "센트럴오션힐 놀이시설",
    "category": "어린이놀이시설",
    "type": "어린이놀이시설",
    "address": null,
    "tel": "",
    "lat": 34.839657,
    "lng": 127.885501
  },
  {
    "name": "동창선 다누리 플랫폼 조성사업 물놀이장",
    "category": "어린이놀이시설",
    "type": "어린이놀이시설",
    "address": "경상남도 남해군 창선면 오용리",
    "tel": "",
    "lat": 34.8652,
    "lng": 128.039
  },
  {
    "name": "남해 하나어린이집",
    "category": "어린이놀이시설",
    "type": "어린이놀이시설",
    "address": "경상남도 남해군 남해읍 망운로61번길 30-6",
    "tel": "",
    "lat": 34.835357,
    "lng": 127.885688
  },
  {
    "name": "현대어린이집",
    "category": "어린이놀이시설",
    "type": "어린이놀이시설",
    "address": "경상남도 남해군 남해읍 오동로 11",
    "tel": "",
    "lat": 34.8439,
    "lng": 127.893404
  },
  {
    "name": "남해유치원 실내 어린이 놀이시설",
    "category": "어린이놀이시설",
    "type": "어린이놀이시설",
    "address": "경상남도 남해군 남해읍 망운로61번길 44",
    "tel": "",
    "lat": 34.834483,
    "lng": 127.886474
  },
  {
    "name": "설천초등학교 어린이 놀이시설(클라이밍)",
    "category": "어린이놀이시설",
    "type": "어린이놀이시설",
    "address": "경상남도 남해군 설천면 설천로696번길 11",
    "tel": "",
    "lat": 34.926247,
    "lng": 127.914566
  },
  {
    "name": "남해군 유아숲 체험원",
    "category": "어린이놀이시설",
    "type": "어린이놀이시설",
    "address": "경남 남해군 삼동면 금암로 562-23",
    "tel": "",
    "lat": 34.757312,
    "lng": 128.010402
  },
  {
    "name": "동대만 생태공원",
    "category": "어린이놀이시설",
    "type": "어린이놀이시설",
    "address": null,
    "tel": "",
    "lat": 34.859288,
    "lng": 128.006022
  },
  {
    "name": "새우웰리스광장 어린이놀이터",
    "category": "어린이놀이시설",
    "type": "어린이놀이시설",
    "address": "경상남도 남해군 고현면 남서대로 3029",
    "tel": "",
    "lat": 34.897908,
    "lng": 127.841199
  },
  {
    "name": "도마초등학교 어린이 놀이시설(공간혁신)",
    "category": "어린이놀이시설",
    "type": "어린이놀이시설",
    "address": "경상남도 남해군 고현면 남해대로 3173",
    "tel": "",
    "lat": 34.870039,
    "lng": 127.892405
  },
  {
    "name": "남해유치원 실외 어린이 놀이시설(물놀이)",
    "category": "어린이놀이시설",
    "type": "어린이놀이시설",
    "address": "경상남도 남해군 남해읍 망운로61번길 44",
    "tel": "",
    "lat": 34.834483,
    "lng": 127.886474
  },
  {
    "name": "화전어린이도서관",
    "category": "어린이놀이시설",
    "type": "어린이놀이시설",
    "address": "경남 남해군 남해읍 망운로30번길 9",
    "tel": "",
    "lat": 0.0,
    "lng": 0.0
  },
  {
    "name": "남해스포츠파크 놀이시설",
    "category": "어린이놀이시설",
    "type": "어린이놀이시설",
    "address": "경상남도 남해군 서면 스포츠파크길 15",
    "tel": "",
    "lat": 34.806361,
    "lng": 127.838575
  },
  {
    "name": "원광어린이집",
    "category": "어린이놀이시설",
    "type": "어린이놀이시설",
    "address": "경상남도 남해군 남해읍 화전로95번길 33",
    "tel": "",
    "lat": 34.839066,
    "lng": 127.890152
  },
  {
    "name": "현대아파트",
    "category": "어린이놀이시설",
    "type": "어린이놀이시설",
    "address": "경상남도 남해군 남해읍 화전로 154 (현대아파트)",
    "tel": "",
    "lat": 34.845092,
    "lng": 127.895506
  },
  {
    "name": "신우보람아파트 어린이놀이시설",
    "category": "어린이놀이시설",
    "type": "어린이놀이시설",
    "address": "경상남도 남해군 남해읍 오동로 12 (신우보람아파트)",
    "tel": "",
    "lat": 34.844524,
    "lng": 127.893275
  },
  {
    "name": "경남도립남해대학",
    "category": "대학교",
    "type": "대학교",
    "address": "경상남도 남해군 남해읍 화전로78번길 30 (남변리, 경남도립남해대학) ",
    "tel": "055-254-2400",
    "lat": 34.837221,
    "lng": 127.896959
  },
  {
    "name": "남해소망의집",
    "category": "약자보호시설",
    "type": "장애인편의시설",
    "address": "경상남도 남해군 남해읍 스포츠로 287",
    "tel": "055-864-4192",
    "lat": 34.817044,
    "lng": 127.877986
  },
  {
    "name": "남해장애인종합복지관",
    "category": "약자보호시설",
    "type": "장애인편의시설",
    "address": "경상남도 남해군 이동면 남해대로 2364-9",
    "tel": "055-862-0012",
    "lat": 34.816501,
    "lng": 127.933437
  },
  {
    "name": "남해사랑의집",
    "category": "약자보호시설",
    "type": "장애인편의시설",
    "address": "경상남도 남해군 남해읍 남해대로 2602-19",
    "tel": "055-863-4691",
    "lat": 34.82699,
    "lng": 127.912996
  },
  {
    "name": "우리들의집",
    "category": "약자보호시설",
    "type": "장애인편의시설",
    "address": "경상남도 남해군 남해읍 망운로 77, 가동 102호(남양아파트)",
    "tel": "055-863-4601",
    "lat": 34.838619,
    "lng": 127.886045
  },
  {
    "name": "남해군장애인생활이동지원센터",
    "category": "약자보호시설",
    "type": "장애인편의시설",
    "address": "경상남도 남해군 남해읍 망운로 32",
    "tel": "055-864-6121",
    "lat": 34.838534,
    "lng": 127.89043
  },
  {
    "name": "남해군수어통역센터",
    "category": "약자보호시설",
    "type": "장애인편의시설",
    "address": "경상남도 남해군 남해읍 에코파크길 7",
    "tel": "055-864-8111",
    "lat": 34.832978,
    "lng": 127.902772
  },
  {
    "name": "남해시각장애인주간보호센터",
    "category": "약자보호시설",
    "type": "장애인편의시설",
    "address": "경상남도 남해군 남해읍 망운로 32",
    "tel": "055-864-6121",
    "lat": 34.838534,
    "lng": 127.89043
  },
  {
    "name": "가온누리",
    "category": "약자보호시설",
    "type": "장애인편의시설",
    "address": "경상남도 남해군 이동면 남해대로 2364-11",
    "tel": "055-864-2002",
    "lat": 34.816467,
    "lng": 127.933688
  },
  {
    "name": "한아름 클린",
    "category": "약자보호시설",
    "type": "장애인편의시설",
    "address": "경상남도 남해군 남해읍 에코파크길 9",
    "tel": "055-864-2993",
    "lat": 34.833166,
    "lng": 127.902542
  },
  {
    "name": "한사랑",
    "category": "약자보호시설",
    "type": "장애인편의시설",
    "address": "경상남도 남해군 남해읍 망운로 77, 가동 1305호(남양아파트)",
    "tel": "055-864-4610",
    "lat": 34.838619,
    "lng": 127.886045
  },
  {
    "name": "이경화 산부인과 의원",
    "category": "약자보호시설",
    "type": "전담의료기관",
    "address": "경상남도 남해군 남해읍 화전로 96번가길 4-2",
    "tel": "055-864-7353",
    "lat": 34.840076,
    "lng": 127.895191
  },
  {
    "name": "보물섬시네마(남해작은영화관)",
    "category": "우수다중시설",
    "type": "영화상영관",
    "address": "-",
    "tel": "",
    "lat": 34.845292,
    "lng": 127.899504
  },
  {
    "name": "경남해양과학고등학교",
    "category": "초중고",
    "type": "초중고",
    "address": "경상남도 남해군 삼동면 지족리 192-1",
    "tel": "",
    "lat": 34.830888,
    "lng": 128.004195
  },
  {
    "name": "고현초등학교",
    "category": "초중고",
    "type": "초중고",
    "address": "경상남도 남해군 고현면 대사리 618",
    "tel": "",
    "lat": 34.89732,
    "lng": 127.877736
  },
  {
    "name": "남해고등학교",
    "category": "초중고",
    "type": "초중고",
    "address": "경상남도 남해군 이동면 무림리 1315",
    "tel": "",
    "lat": 34.802641,
    "lng": 127.951542
  },
  {
    "name": "남해보물섬고등학교",
    "category": "초중고",
    "type": "초중고",
    "address": "경남 남해군 창선면 율도리 546",
    "tel": "",
    "lat": 34.897556,
    "lng": 127.993797
  },
  {
    "name": "남해여자중학교",
    "category": "초중고",
    "type": "초중고",
    "address": "경상남도 남해군 남해읍 서변리 349",
    "tel": "",
    "lat": 34.836106,
    "lng": 127.888757
  },
  {
    "name": "남해정보산업고등학교",
    "category": "초중고",
    "type": "초중고",
    "address": "경상남도 남해군 고현면 대사리 741",
    "tel": "",
    "lat": 34.896959,
    "lng": 127.874342
  },
  {
    "name": "남해제일고등학교",
    "category": "초중고",
    "type": "초중고",
    "address": "경상남도 남해군 남해읍 북변리 356",
    "tel": "",
    "lat": 34.839264,
    "lng": 127.902439
  },
  {
    "name": "남해중학교",
    "category": "초중고",
    "type": "초중고",
    "address": "경상남도 남해군 남해읍 북변리 362-2",
    "tel": "",
    "lat": 34.838971,
    "lng": 127.896782
  },
  {
    "name": "남해초등학교",
    "category": "초중고",
    "type": "초중고",
    "address": "경상남도 남해군 남해읍 북변리 141-3",
    "tel": "",
    "lat": 34.838747,
    "lng": 127.891965
  },
  {
    "name": "남해해성고등학교",
    "category": "초중고",
    "type": "초중고",
    "address": "경상남도 남해군 남면 평산리 271",
    "tel": "",
    "lat": 34.773197,
    "lng": 127.860815
  },
  {
    "name": "꽃내중학교",
    "category": "초중고",
    "type": "초중고",
    "address": "경상남도 남해군 삼동면 동천리 1100",
    "tel": "",
    "lat": 34.810107,
    "lng": 128.036394
  },
  {
    "name": "남명초등학교",
    "category": "초중고",
    "type": "초중고",
    "address": "경상남도 남해군 남면 당항리 1410",
    "tel": "",
    "lat": 34.772888,
    "lng": 127.890163
  },
  {
    "name": "미조중학교",
    "category": "초중고",
    "type": "초중고",
    "address": "경상남도 남해군 미조면 미조리 400",
    "tel": "",
    "lat": 34.716137,
    "lng": 128.03906
  },
  {
    "name": "미조초등학교",
    "category": "초중고",
    "type": "초중고",
    "address": "경상남도 남해군 미조면 미조리 465-1",
    "tel": "",
    "lat": 34.715612,
    "lng": 128.041467
  },
  {
    "name": "삼동초등학교",
    "category": "초중고",
    "type": "초중고",
    "address": "경상남도 남해군 삼동면 동천리 1104-2",
    "tel": "",
    "lat": 34.808367,
    "lng": 128.036034
  },
  {
    "name": "도마초등학교",
    "category": "초중고",
    "type": "초중고",
    "address": "경상남도 남해군 고현면 도마리 137",
    "tel": "",
    "lat": 34.870048,
    "lng": 127.892449
  },
  {
    "name": "상주중학교",
    "category": "초중고",
    "type": "초중고",
    "address": "경상남도 남해군 상주면 상주리 590-1",
    "tel": "",
    "lat": 34.720876,
    "lng": 127.992333
  },
  {
    "name": "상주초등학교",
    "category": "초중고",
    "type": "초중고",
    "address": "경상남도 남해군 상주면 상주리 1174",
    "tel": "",
    "lat": 34.724593,
    "lng": 127.985995
  },
  {
    "name": "설천중학교",
    "category": "초중고",
    "type": "초중고",
    "address": "경상남도 남해군 설천면 금음리 795",
    "tel": "",
    "lat": 34.923991,
    "lng": 127.916238
  },
  {
    "name": "설천초등학교",
    "category": "초중고",
    "type": "초중고",
    "address": "경상남도 남해군 설천면 남양리 71",
    "tel": "",
    "lat": 34.926304,
    "lng": 127.914692
  },
  {
    "name": "성명초등학교",
    "category": "초중고",
    "type": "초중고",
    "address": "경상남도 남해군 서면 서상리 655-1",
    "tel": "",
    "lat": 34.808603,
    "lng": 127.838547
  },
  {
    "name": "해성중학교",
    "category": "초중고",
    "type": "초중고",
    "address": "경상남도 남해군 남면 평산리 271",
    "tel": "",
    "lat": 34.773197,
    "lng": 127.860815
  },
  {
    "name": "해양초등학교",
    "category": "초중고",
    "type": "초중고",
    "address": "경상남도 남해군 남해읍 남변리 461-3",
    "tel": "",
    "lat": 34.834144,
    "lng": 127.89519
  },
  {
    "name": "이동중학교",
    "category": "초중고",
    "type": "초중고",
    "address": "경상남도 남해군 이동면 무림리 1315",
    "tel": "",
    "lat": 34.802641,
    "lng": 127.951542
  },
  {
    "name": "이동초등학교",
    "category": "초중고",
    "type": "초중고",
    "address": "경상남도 남해군 이동면 무림리 1190-2",
    "tel": "",
    "lat": 34.803269,
    "lng": 127.953289
  },
  {
    "name": "창선고등학교",
    "category": "초중고",
    "type": "초중고",
    "address": "경상남도 남해군 창선면 상죽리 170",
    "tel": "",
    "lat": 34.857479,
    "lng": 128.012243
  },
  {
    "name": "창선중학교",
    "category": "초중고",
    "type": "초중고",
    "address": "경상남도 남해군 창선면 상죽리 115",
    "tel": "",
    "lat": 34.857479,
    "lng": 128.012243
  },
  {
    "name": "창선초등학교",
    "category": "초중고",
    "type": "초중고",
    "address": "경상남도 남해군 창선면 상죽리 265",
    "tel": "",
    "lat": 34.858778,
    "lng": 128.010342
  },
  {
    "name": "지족초등학교",
    "category": "초중고",
    "type": "초중고",
    "address": "경상남도 남해군 삼동면 지족리 255",
    "tel": "",
    "lat": 34.830749,
    "lng": 128.000891
  },
  {
    "name": "남해유치원",
    "category": "유아시설",
    "type": "유아시설",
    "address": "경상남도 남해군 남해읍 서변리 370",
    "tel": "",
    "lat": 34.834659,
    "lng": 127.886556
  },
  {
    "name": "남해원광어린이집",
    "category": "유아시설",
    "type": "유아시설",
    "address": "경상남도 남해군 남해읍 아산리 346-1",
    "tel": "",
    "lat": 34.839308,
    "lng": 127.890088
  },
  {
    "name": "남해하나어린이집",
    "category": "유아시설",
    "type": "유아시설",
    "address": "null",
    "tel": "",
    "lat": 34.833751,
    "lng": 127.895267
  },
  {
    "name": "보물섬어린이집",
    "category": "유아시설",
    "type": "유아시설",
    "address": "경상남도 남해군 남해읍 평리 1700",
    "tel": "",
    "lat": 34.832631,
    "lng": 127.89644
  },
  {
    "name": "미조아이어린이집",
    "category": "유아시설",
    "type": "유아시설",
    "address": "경상남도 남해군 미조면 미조리 669",
    "tel": "",
    "lat": 34.716029,
    "lng": 128.043616
  },
  {
    "name": "미조하나어린이집",
    "category": "유아시설",
    "type": "유아시설",
    "address": "null",
    "tel": "",
    "lat": 34.716193,
    "lng": 128.042098
  },
  {
    "name": "법흥사연꽃어린이집",
    "category": "유아시설",
    "type": "유아시설",
    "address": "null",
    "tel": "",
    "lat": 34.842575,
    "lng": 127.892309
  },
  {
    "name": "모모어린이집",
    "category": "유아시설",
    "type": "유아시설",
    "address": "null",
    "tel": "",
    "lat": 34.844184,
    "lng": 127.893197
  },
  {
    "name": "우정어린이집",
    "category": "유아시설",
    "type": "유아시설",
    "address": "null",
    "tel": "",
    "lat": 34.835649,
    "lng": 127.896628
  },
  {
    "name": "에덴선교어린이집",
    "category": "유아시설",
    "type": "유아시설",
    "address": "경상남도 남해군 남면 당항리 1533",
    "tel": "",
    "lat": 34.774021,
    "lng": 127.891869
  },
  {
    "name": "하늘빛어린이집",
    "category": "유아시설",
    "type": "유아시설",
    "address": "경상남도 남해군 삼동면 지족리 144",
    "tel": "",
    "lat": 34.829019,
    "lng": 128.003492
  },
  {
    "name": "창선어린이집",
    "category": "유아시설",
    "type": "유아시설",
    "address": "경상남도 남해군 창선면 상신리 123",
    "tel": "",
    "lat": 34.859815,
    "lng": 128.009543
  },
  {
    "name": "현대어린이집",
    "category": "유아시설",
    "type": "유아시설",
    "address": "경상남도 남해군 남해읍 북변리 585-27",
    "tel": "",
    "lat": 34.844045,
    "lng": 127.893327
  },
  {
    "name": "남해군보건소",
    "category": "보건소",
    "type": "보건소",
    "address": "경상남도 남해군 남해읍 선소로 6",
    "tel": "055-860-8701",
    "lat": 34.844962,
    "lng": 127.898642
  },
  {
    "name": "남해군고현보건지소",
    "category": "보건소",
    "type": "보건소",
    "address": "경상남도 남해군 고현면 탑동로 43, 고현면보건지소",
    "tel": "055-862-4002",
    "lat": 34.895237,
    "lng": 127.873694
  },
  {
    "name": "남해군남면보건지소",
    "category": "보건소",
    "type": "보건소",
    "address": "경상남도 남해군 남면 남서대로 778-11, 남면보건지소",
    "tel": "055-862-9260",
    "lat": 34.772154,
    "lng": 127.887092
  },
  {
    "name": "남해군미조면보건지소",
    "category": "보건소",
    "type": "보건소",
    "address": "경상남도 남해군 미조면 미조로236번길 41",
    "tel": "055-867-6023",
    "lat": 34.711422,
    "lng": 128.04696
  },
  {
    "name": "남해군삼동보건지소",
    "category": "보건소",
    "type": "보건소",
    "address": "경상남도 남해군 삼동면 동부대로1876번가길 11-9",
    "tel": "055-860-8521",
    "lat": 34.832213,
    "lng": 128.000905
  },
  {
    "name": "남해군상주면보건지소",
    "category": "보건소",
    "type": "보건소",
    "address": "경상남도 남해군 상주면 남해대로 716",
    "tel": "055-862-5824",
    "lat": 34.724848,
    "lng": 127.986043
  },
  {
    "name": "남해군서면보건지소",
    "category": "보건소",
    "type": "보건소",
    "address": "경상남도 남해군 서면 스포츠로 671, 서면 보건지소",
    "tel": "055-862-1654",
    "lat": 34.809331,
    "lng": 127.838819
  },
  {
    "name": "남해군설천면보건지소",
    "category": "보건소",
    "type": "보건소",
    "address": "경상남도 남해군 설천면 설천로 654, 설천면보건지소",
    "tel": "055-862-6711",
    "lat": 34.921735,
    "lng": 127.916102
  },
  {
    "name": "남해군이동면보건지소",
    "category": "보건소",
    "type": "보건소",
    "address": "경상남도 남해군 이동면 무림로 64-5",
    "tel": "055-860-5301",
    "lat": 34.799794,
    "lng": 127.953103
  },
  {
    "name": "남해군창선보건지소",
    "category": "보건소",
    "type": "보건소",
    "address": "경상남도 남해군 창선면 창선로 54, 1층 (창선누리타운)",
    "tel": "055-867-1201",
    "lat": 34.854728,
    "lng": 128.013608
  },
  {
    "name": "남해군남면덕월보건진료소",
    "category": "보건소",
    "type": "보건소",
    "address": "경상남도 남해군 남면 남서대로1180번길 57",
    "tel": "055-860-8904",
    "lat": 34.782435,
    "lng": 127.861195
  },
  {
    "name": "남해군남면선구보건진료소",
    "category": "보건소",
    "type": "보건소",
    "address": "경상남도 남해군 남면 남면로 1172",
    "tel": "055-860-8905",
    "lat": 34.738718,
    "lng": 127.855975
  },
  {
    "name": "남해군남면홍현보건진료소",
    "category": "보건소",
    "type": "보건소",
    "address": "경상남도 남해군 남면 남면로 355-5",
    "tel": "055-862-9038",
    "lat": 34.744116,
    "lng": 127.907571
  },
  {
    "name": "남해군미조면가인포보건진료소",
    "category": "보건소",
    "type": "보건소",
    "address": "경상남도 남해군 미조면 동부대로 474, 보건진료",
    "tel": "055-867-6743",
    "lat": 34.751426,
    "lng": 128.050114
  },
  {
    "name": "남해군삼동면동천보건진료소",
    "category": "보건소",
    "type": "보건소",
    "address": "경상남도 남해군 삼동면 봉화로 22-8, 동천보건진료소",
    "tel": "055-867-2129",
    "lat": 34.807067,
    "lng": 128.033891
  },
  {
    "name": "남해군삼동면시문보건진료소",
    "category": "보건소",
    "type": "보건소",
    "address": "경상남도 남해군 삼동면 난음로 338",
    "tel": "055-867-0267",
    "lat": 34.808634,
    "lng": 127.981321
  },
  {
    "name": "남해군서면남상보건지료소",
    "category": "보건소",
    "type": "보건소",
    "address": "경상남도 남해군 서면 남서대로2197번길 6",
    "tel": "055-862-1426",
    "lat": 34.8466,
    "lng": 127.818312
  },
  {
    "name": "남해군서면중현보건진료소",
    "category": "보건소",
    "type": "보건소",
    "address": "경상남도 남해군 서면 남서대로2618번길 6",
    "tel": "055-862-1084",
    "lat": 34.872699,
    "lng": 127.830409
  },
  {
    "name": "남해군설천면노량보건진료소",
    "category": "보건소",
    "type": "보건소",
    "address": "경상남도 남해군 설천면 노량로 198",
    "tel": "055-862-2898",
    "lat": 34.93934,
    "lng": 127.873872
  },
  {
    "name": "남해군창선면고두보건진료소",
    "category": "보건소",
    "type": "보건소",
    "address": "경상남도 남해군 창선면 흥선로633번길 4",
    "tel": "055-867-3772",
    "lat": 34.886306,
    "lng": 128.038535
  },
  {
    "name": "남해군창선면광천보건진료소",
    "category": "보건소",
    "type": "보건소",
    "address": "경상남도 남해군 창선면 서부로 442-1",
    "tel": "055-867-2300",
    "lat": 34.856708,
    "lng": 127.965471
  },
  {
    "name": "남해군창선면대벽보건진료소",
    "category": "보건소",
    "type": "보건소",
    "address": "경상남도 남해군 창선면 서부로1244번길 16, 대벽보건진료소",
    "tel": "055-867-5356",
    "lat": 34.908158,
    "lng": 128.000881
  },
  {
    "name": "남해군창선면연곡보건진료소",
    "category": "보건소",
    "type": "보건소",
    "address": "경상남도 남해군 창선면 연곡로 25, 연곡보건진료소",
    "tel": "055-867-8158",
    "lat": 34.868913,
    "lng": 128.041821
  },
  {
    "name": "남해군창선면율도보건진료소",
    "category": "보건소",
    "type": "보건소",
    "address": "경상남도 남해군 창선면 율도로 199, 율도보건지료소",
    "tel": "055-860-8911",
    "lat": 34.86963,
    "lng": 128.042261
  },
  {
    "name": "남해군창선면적량보건진료소",
    "category": "보건소",
    "type": "보건소",
    "address": "경상남도 남해군 창선면 흥선로1198번길 10, 적량보건진료소",
    "tel": "055-867-2171",
    "lat": 34.859757,
    "lng": 128.058668
  },
  {
    "name": "참길한의원",
    "category": "산재지정병원",
    "type": "산재지정병원",
    "address": "경남 남해군 남해읍 화전로96번가길 21 201호",
    "tel": "0558625625",
    "lat": 34.841722,
    "lng": 127.894705
  },
  {
    "name": "의료법인 이도의료재단 남해병원",
    "category": "산재지정병원",
    "type": "산재지정병원",
    "address": "경남 남해군 남해읍 화전로 169 (남해병원)",
    "tel": "0558606887",
    "lat": 34.846469,
    "lng": 127.89425
  },
  {
    "name": "김내과의원",
    "category": "병의원",
    "type": "의원",
    "address": "경상남도 남해군 남해읍 화전로 82, 남해성심치과의원",
    "tel": "055-864-9393",
    "lat": 34.838496,
    "lng": 127.894258
  },
  {
    "name": "남면의원",
    "category": "병의원",
    "type": "의원",
    "address": "경상남도 남해군 남면 남서대로 784-2 (남면)",
    "tel": "055-862-2718",
    "lat": 34.77148,
    "lng": 127.886118
  },
  {
    "name": "남해금산의원",
    "category": "병의원",
    "type": "의원",
    "address": "경상남도 남해군 이동면 무림로 47-1",
    "tel": "055-863-3635",
    "lat": 34.801553,
    "lng": 127.953167
  },
  {
    "name": "남해삼성외과의원",
    "category": "병의원",
    "type": "의원",
    "address": "경상남도 남해군 남해읍 화전로 106-1, HUNTKIDS",
    "tel": "055-862-9975",
    "lat": 34.840711,
    "lng": 127.894059
  },
  {
    "name": "남해중앙메디컬의원",
    "category": "병의원",
    "type": "의원",
    "address": "경상남도 남해군 남해읍 망운로10번길 20",
    "tel": "055-864-0222",
    "lat": 34.839968,
    "lng": 127.893123
  },
  {
    "name": "남해한국의원",
    "category": "병의원",
    "type": "의원",
    "address": "경상남도 남해군 남해읍 화전로 103",
    "tel": "055-864-6900",
    "lat": 34.840423,
    "lng": 127.893708
  },
  {
    "name": "누가의원",
    "category": "병의원",
    "type": "의원",
    "address": "경상남도 남해군 남해읍 화전로96번가길 11",
    "tel": "055-864-8254",
    "lat": 34.840808,
    "lng": 127.89474
  },
  {
    "name": "미조은혜의원",
    "category": "병의원",
    "type": "의원",
    "address": "경상남도 남해군 미조면 미송로 47",
    "tel": "055-867-2500",
    "lat": 34.712738,
    "lng": 128.045661
  },
  {
    "name": "미포인트의원",
    "category": "병의원",
    "type": "의원",
    "address": "경상남도 남해군 남해읍 화전로96번가길 21, 3층",
    "tel": "055-862-0615",
    "lat": 34.841831,
    "lng": 127.894553
  },
  {
    "name": "복음내과의원",
    "category": "병의원",
    "type": "의원",
    "address": "경상남도 남해군 남해읍 망운로9번길 5",
    "tel": "055-864-5811",
    "lat": 34.837707,
    "lng": 127.893337
  },
  {
    "name": "삼동의원",
    "category": "병의원",
    "type": "의원",
    "address": "경상남도 남해군 삼동면 봉화로 4-3, 삼동의원",
    "tel": "055-867-7582",
    "lat": 34.807724,
    "lng": 128.034255
  },
  {
    "name": "상주우리의원",
    "category": "병의원",
    "type": "의원",
    "address": "경상남도 남해군 상주면 남해대로 699",
    "tel": "055-863-3337",
    "lat": 34.723417,
    "lng": 127.986252
  },
  {
    "name": "연세안과의원",
    "category": "병의원",
    "type": "의원",
    "address": "경상남도 남해군 남해읍 화전로 85, 1층",
    "tel": "055-862-0357",
    "lat": 34.838823,
    "lng": 127.89385
  },
  {
    "name": "우리들의원",
    "category": "병의원",
    "type": "의원",
    "address": "경상남도 남해군 남해읍 화전로96번가길 24 (남해읍)",
    "tel": "055-862-9205",
    "lat": 34.842031,
    "lng": 127.894891
  },
  {
    "name": "이경화산부인과의원",
    "category": "병의원",
    "type": "의원",
    "address": "경상남도 남해군 남해읍 화전로96번가길 4-2, 1층 (남해읍)",
    "tel": "055-864-7353",
    "lat": 34.84008,
    "lng": 127.895187
  },
  {
    "name": "인제의원",
    "category": "병의원",
    "type": "의원",
    "address": "경상남도 남해군 창선면 옥천로 3-1",
    "tel": "055-867-8070",
    "lat": 34.854959,
    "lng": 128.012774
  },
  {
    "name": "일등내과의원",
    "category": "병의원",
    "type": "의원",
    "address": "경상남도 남해군 남해읍 화전로96번가길 4, 국민건강보험남해센터",
    "tel": "055-863-1012",
    "lat": 34.840026,
    "lng": 127.895031
  },
  {
    "name": "창선의원",
    "category": "병의원",
    "type": "의원",
    "address": "경상남도 남해군 창선면 창선로 68",
    "tel": "055-867-0880",
    "lat": 34.855188,
    "lng": 128.01339
  },
  {
    "name": "한양신경외과의원",
    "category": "병의원",
    "type": "의원",
    "address": "경상남도 남해군 남해읍 화전로 85, 한양신경외과의원",
    "tel": "055-864-3399",
    "lat": 34.838823,
    "lng": 127.89385
  },
  {
    "name": "현대정형외과의원",
    "category": "병의원",
    "type": "의원",
    "address": "경상남도 남해군 남해읍 화전로 70-1",
    "tel": "055-864-7582",
    "lat": 34.837443,
    "lng": 127.894458
  },
  {
    "name": "의료법인 이도의료재단 남해병원",
    "category": "병의원",
    "type": "병원",
    "address": "경상남도 남해군 남해읍 화전로 169",
    "tel": "055-863-2201",
    "lat": 34.846406,
    "lng": 127.894252
  },
  {
    "name": "남해군립노인전문병원",
    "category": "요양병원",
    "type": "요양병원",
    "address": "경상남도 남해군 남해읍 화전로 173-1 (남해노인전문병원)",
    "tel": "055-864-2201",
    "lat": 34.846807,
    "lng": 127.892227
  },
  {
    "name": "경희한의원",
    "category": "한방병의원",
    "type": "한의원",
    "address": "경상남도 남해군 남해읍 화전로78번가길 12",
    "tel": "055-864-7510",
    "lat": 34.712916,
    "lng": 128.047588
  },
  {
    "name": "남해한의원",
    "category": "한방병의원",
    "type": "한의원",
    "address": "경상남도 남해군 남해읍 화전로 111-1",
    "tel": "055-863-4945",
    "lat": 34.841231,
    "lng": 127.893577
  },
  {
    "name": "소나무한의원",
    "category": "한방병의원",
    "type": "한의원",
    "address": "경상남도 남해군 남해읍 화전로 103, 주원빌딩 2층 202,203,204호",
    "tel": "055-862-1447",
    "lat": 34.84044,
    "lng": 127.89368
  },
  {
    "name": "유림한의원",
    "category": "한방병의원",
    "type": "한의원",
    "address": "경상남도 남해군 남해읍 망운로9번길 5",
    "tel": "055-863-2010",
    "lat": 34.837702,
    "lng": 127.893322
  },
  {
    "name": "참길한의원",
    "category": "한방병의원",
    "type": "한의원",
    "address": "경상남도 남해군 남해읍 화전로96번가길 21, 2층",
    "tel": "055-862-5625",
    "lat": 34.841828,
    "lng": 127.894552
  },
  {
    "name": "창선한의원",
    "category": "한방병의원",
    "type": "한의원",
    "address": "경상남도 남해군 창선면 창선로 64-1, 창선한의원",
    "tel": "055-867-4006",
    "lat": 34.854872,
    "lng": 128.013306
  },
  {
    "name": "한림한의원",
    "category": "한방병의원",
    "type": "한의원",
    "address": "경상남도 남해군 남해읍 화전로96번길 10",
    "tel": "055-862-3080",
    "lat": 34.846533,
    "lng": 127.89425
  },
  {
    "name": "한실한의원",
    "category": "한방병의원",
    "type": "한의원",
    "address": "경상남도 남해군 고현면 화방로56번길 67",
    "tel": "055-862-7575",
    "lat": 34.868039,
    "lng": 127.89183
  },
  {
    "name": "동의한의원",
    "category": "한방병의원",
    "type": "한의원",
    "address": "경상남도 남해군 남해읍 화전로96번가길 14, 동의한의원",
    "tel": "055-864-5448",
    "lat": 34.84111,
    "lng": 127.894953
  },
  {
    "name": "보은한의원",
    "category": "한방병의원",
    "type": "한의원",
    "address": "경상남도 남해군 창선면 창선로66번길 9",
    "tel": "055-867-8689",
    "lat": 34.855312,
    "lng": 128.014095
  },
  {
    "name": "김남현치과의원",
    "category": "치과병의원",
    "type": "치과의원",
    "address": "경상남도 남해군 남해읍 화전로 111",
    "tel": "055-863-1803",
    "lat": 34.841259,
    "lng": 127.89373
  },
  {
    "name": "남해치과의원",
    "category": "치과병의원",
    "type": "치과의원",
    "address": "경상남도 남해군 남해읍 화전로78번길 2",
    "tel": "055-863-2875",
    "lat": 34.837378,
    "lng": 127.893972
  },
  {
    "name": "노형섭치과의원",
    "category": "치과병의원",
    "type": "치과의원",
    "address": "경상남도 남해군 남해읍 화전로 82, 2층",
    "tel": "055-862-2845",
    "lat": 34.838494,
    "lng": 127.89419
  },
  {
    "name": "미조치과의원",
    "category": "치과병의원",
    "type": "치과의원",
    "address": "경상남도 남해군 미조면 미조로 14",
    "tel": "055-867-2804",
    "lat": 34.711927,
    "lng": 128.045991
  },
  {
    "name": "부부치과의원",
    "category": "치과병의원",
    "type": "치과의원",
    "address": "경상남도 남해군 남해읍 화전로 103",
    "tel": "055-864-7171",
    "lat": 34.840375,
    "lng": 127.893799
  },
  {
    "name": "서울우리치과의원",
    "category": "치과병의원",
    "type": "치과의원",
    "address": "경상남도 남해군 남해읍 화전로 103, 주원빌딩 5층",
    "tel": "055-812-7528",
    "lat": 34.840416,
    "lng": 127.893689
  },
  {
    "name": "서울치과의원",
    "category": "치과병의원",
    "type": "치과의원",
    "address": "경상남도 남해군 남해읍 화전로96번가길 10",
    "tel": "055-864-2875",
    "lat": 34.840718,
    "lng": 127.894995
  },
  {
    "name": "정치과의원",
    "category": "치과병의원",
    "type": "치과의원",
    "address": "경상남도 남해군 남해읍 화전로96번가길 4, 2층 (북변리)",
    "tel": "055-864-2538",
    "lat": 34.840026,
    "lng": 127.895031
  },
  {
    "name": "창선서울치과의원",
    "category": "치과병의원",
    "type": "치과의원",
    "address": "경상남도 남해군 창선면 창선로 76-1, 동양의원",
    "tel": "055-867-8220",
    "lat": 34.856089,
    "lng": 128.013501
  },
  {
    "name": "케이플란트치과의원",
    "category": "치과병의원",
    "type": "치과의원",
    "address": "경상남도 남해군 남해읍 화전로 67",
    "tel": "055-863-2866",
    "lat": 34.837163,
    "lng": 127.894095
  },
  {
    "name": "한솔약국",
    "category": "약국",
    "type": "약국",
    "address": "경상남도 남해군 남해읍 화전로 103, 주원빌딩",
    "tel": "055-864-5992",
    "lat": 34.84044,
    "lng": 127.89368
  },
  {
    "name": "인춘당약국",
    "category": "약국",
    "type": "약국",
    "address": "경상남도 남해군 삼동면 동부대로1876번길 21",
    "tel": "055-863-0275",
    "lat": 34.831368,
    "lng": 128.002147
  },
  {
    "name": "보령약국",
    "category": "약국",
    "type": "약국",
    "address": "경상남도 남해군 남면 남서대로 782-1",
    "tel": "055-862-5401",
    "lat": 34.771453,
    "lng": 127.886358
  },
  {
    "name": "건강약국",
    "category": "약국",
    "type": "약국",
    "address": "경상남도 남해군 남해읍 화전로96번가길 13-1, 건강약국",
    "tel": "055-864-7842",
    "lat": 34.841073,
    "lng": 127.894686
  },
  {
    "name": "남일약국",
    "category": "약국",
    "type": "약국",
    "address": "경상남도 남해군 창선면 창선로 67",
    "tel": "055-867-7224",
    "lat": 34.854966,
    "lng": 128.012701
  },
  {
    "name": "터미널약국",
    "category": "약국",
    "type": "약국",
    "address": "경상남도 남해군 남해읍 화전로 85-1,",
    "tel": "055-864-7503",
    "lat": 34.838931,
    "lng": 127.893882
  },
  {
    "name": "메디팜현대약국",
    "category": "약국",
    "type": "약국",
    "address": "경상남도 남해군 남해읍 망운로 4,",
    "tel": "055-864-2769",
    "lat": 34.838204,
    "lng": 127.89372
  },
  {
    "name": "청춘약국",
    "category": "약국",
    "type": "약국",
    "address": "경상남도 남해군 남해읍 화전로 88-6",
    "tel": "055-864-3377",
    "lat": 34.838708,
    "lng": 127.894339
  },
  {
    "name": "대교약국",
    "category": "약국",
    "type": "약국",
    "address": "경상남도 남해군 남해읍 화전로96번가길 4",
    "tel": "055-864-5359",
    "lat": 34.840031,
    "lng": 127.895024
  },
  {
    "name": "금산약국",
    "category": "약국",
    "type": "약국",
    "address": "경상남도 남해군 상주면 남해대로 699-3, 성림공인중개사",
    "tel": "055-863-2675",
    "lat": 34.723201,
    "lng": 127.986196
  },
  {
    "name": "제일약국",
    "category": "약국",
    "type": "약국",
    "address": "경상남도 남해군 남해읍 화전로 70",
    "tel": "055-863-3443",
    "lat": 34.837464,
    "lng": 127.894459
  },
  {
    "name": "창선약국",
    "category": "약국",
    "type": "약국",
    "address": "경상남도 남해군 창선면 창선로 68-1",
    "tel": "055-867-8875",
    "lat": 34.855321,
    "lng": 128.013465
  },
  {
    "name": "행복약국",
    "category": "약국",
    "type": "약국",
    "address": "경상남도 남해군 남해읍 망운로10번길 20",
    "tel": "055-863-3105",
    "lat": 34.839968,
    "lng": 127.893124
  },
  {
    "name": "새동천약국",
    "category": "약국",
    "type": "약국",
    "address": "경상남도 남해군 삼동면 봉화로 4",
    "tel": "055-867-4979",
    "lat": 34.808031,
    "lng": 128.034556
  },
  {
    "name": "백산약국",
    "category": "약국",
    "type": "약국",
    "address": "경상남도 남해군 남해읍 화전로 174",
    "tel": "055-863-0202",
    "lat": 34.84656,
    "lng": 127.895025
  },
  {
    "name": "조은 온누리약국",
    "category": "약국",
    "type": "약국",
    "address": "경상남도 남해군 남해읍 화전로96번가길 9, 1층",
    "tel": "055-862-7635",
    "lat": 34.840808,
    "lng": 127.894744
  },
  {
    "name": "미조약국",
    "category": "약국",
    "type": "약국",
    "address": "경상남도 남해군 미조면 미조로 8 (미조면)",
    "tel": "055-867-5766",
    "lat": 34.71269,
    "lng": 128.045294
  },
  {
    "name": "중앙약국",
    "category": "약국",
    "type": "약국",
    "address": "경상남도 남해군 남해읍 화전로78번길 2",
    "tel": "055-863-0342",
    "lat": 34.838042,
    "lng": 127.894316
  },
  {
    "name": "우리약국",
    "category": "약국",
    "type": "약국",
    "address": "경상남도 남해군 남해읍 화전로122번길 11",
    "tel": "055-862-6888",
    "lat": 34.842035,
    "lng": 127.894921
  }
]