[
  {
    "name": "하동공설시장",
    "category": "전통시장",
    "type": "상설장",
    "address": "경상남도 하동군 하동읍 시장 1길 12-2",
    "tel": "055-884-2312",
    "lat": 35.069811,
    "lng": 127.748382
  },
  {
    "name": "진교공설시장",
    "category": "전통시장",
    "type": "상설장+3일장",
    "address": "경상남도 하동군 진교면 선창길 24",
    "tel": "",
    "lat": 35.027174,
    "lng": 127.90382
  },
  {
    "name": "북천공설시장",
    "category": "전통시장",
    "type": "4일장",
    "address": "경상남도 하동군 북천면 경서대로 2439-1",
    "tel": "",
    "lat": 35.113721,
    "lng": 127.891991
  },
  {
    "name": "계천공설시장(계천시장)",
    "category": "전통시장",
    "type": "5일장",
    "address": "경상남도 하동군 금남면 섬진강대로 977-17",
    "tel": "",
    "lat": 34.995986,
    "lng": 127.809498
  },
  {
    "name": "횡천공설시장(횡천시장)",
    "category": "전통시장",
    "type": "상설장+5일장",
    "address": "경상남도 하동군 횡천면 문화2길 24",
    "tel": "",
    "lat": 35.109214,
    "lng": 127.810703
  },
  {
    "name": "화개장터",
    "category": "전통시장",
    "type": "상설장",
    "address": "경상남도 하동군 화개면 쌍계로 21",
    "tel": "055-883-5722",
    "lat": 35.188626,
    "lng": 127.624218
  }
]