[
  {
    "name": "인천숭의3동우편취급국",
    "category": "관공서",
    "type": "관공서",
    "address": "인천광역시 남구 석정로126번길 6(숭의3동)",
    "tel": "032-888-8500",
    "lat": 35.660899,
    "lng": 127.808776
  },
  {
    "name": "함양우체국",
    "category": "관공서",
    "type": "관공서",
    "address": "경상남도 함양군 함양읍 학사루길 1",
    "tel": "055-963-2008",
    "lat": 35.519992,
    "lng": 127.726329
  },
  {
    "name": "안의우체국",
    "category": "관공서",
    "type": "관공서",
    "address": "경상남도 함양군 안의면 광풍로 114",
    "tel": "055-962-0001",
    "lat": 35.626807,
    "lng": 127.811066
  },
  {
    "name": "수동우체국",
    "category": "관공서",
    "type": "관공서",
    "address": "경상남도 함양군 수동면 수동길 21",
    "tel": "055-962-1001",
    "lat": 35.522095,
    "lng": 127.787078
  },
  {
    "name": "서상우체국",
    "category": "관공서",
    "type": "관공서",
    "address": "경상남도 함양군 서상면 서상로 295-1",
    "tel": "055-963-0001",
    "lat": 35.6822,
    "lng": 127.685933
  },
  {
    "name": "마천우체국",
    "category": "관공서",
    "type": "관공서",
    "address": "경상남도 함양군 마천면 천왕봉로 1169 ",
    "tel": "055-962-5001",
    "lat": 35.396883,
    "lng": 127.665136
  },
  {
    "name": "유림우체국",
    "category": "관공서",
    "type": "관공서",
    "address": "경상남도 함양군 유림면 천왕봉로 2872-2",
    "tel": "055-962-6501",
    "lat": 35.46602,
    "lng": 127.792025
  },
  {
    "name": "함양서하우체국",
    "category": "관공서",
    "type": "관공서",
    "address": "경상남도 함양군 서하면 함양남서로 3944",
    "tel": "055-962-9001",
    "lat": 35.647824,
    "lng": 127.696202
  },
  {
    "name": "함양백전우체국",
    "category": "관공서",
    "type": "관공서",
    "address": "경상남도 함양군 백전면 함양남서로 2353",
    "tel": "055-962-8001",
    "lat": 35.552294,
    "lng": 127.636931
  },
  {
    "name": "함양지곡우체국",
    "category": "관공서",
    "type": "관공서",
    "address": "경상남도 함양군 지곡면 병곡지곡로 966-16",
    "tel": "055-962-7001",
    "lat": 35.564217,
    "lng": 127.773736
  },
  {
    "name": "함양휴천우체국",
    "category": "관공서",
    "type": "관공서",
    "address": "경상남도 함양군 휴천면 목현옥매로 26",
    "tel": "055-962-6001",
    "lat": 35.48187,
    "lng": 127.752284
  },
  {
    "name": "함양병곡우체국",
    "category": "관공서",
    "type": "관공서",
    "address": "경상남도 함양군 병곡면 함양남서로 1758",
    "tel": "055-962-2001",
    "lat": 35.528485,
    "lng": 127.681845
  },
  {
    "name": "함양천령우편취급국",
    "category": "관공서",
    "type": "관공서",
    "address": "경상남도 함양군 함양읍 용평2길 15",
    "tel": "055-962-3349",
    "lat": 35.519736,
    "lng": 127.730196
  },
  {
    "name": "함양군청",
    "category": "관공서",
    "type": "관공서",
    "address": "경상남도 함양군 함양읍 고운로 35",
    "tel": "055-960-5114",
    "lat": 35.520675,
    "lng": 127.725453
  },
  {
    "name": "함양읍사무소",
    "category": "관공서",
    "type": "관공서",
    "address": "경상남도 함양군 함양읍 학사루길 11",
    "tel": "055-960-8410",
    "lat": 35.519718,
    "lng": 127.726722
  },
  {
    "name": "마천면사무소",
    "category": "관공서",
    "type": "관공서",
    "address": "경상남도 함양군 마천면 당흥길 15",
    "tel": "055-960-8510",
    "lat": 35.396912,
    "lng": 127.663011
  },
  {
    "name": "백전면사무소",
    "category": "관공서",
    "type": "관공서",
    "address": "경상남도 함양군 백전면 구산대안로 10-3",
    "tel": "055-960-8910",
    "lat": 35.553357,
    "lng": 127.635999
  },
  {
    "name": "병곡면사무소",
    "category": "관공서",
    "type": "관공서",
    "address": "경상남도 함양군 병곡면 함양남서로 1756",
    "tel": "055-960-8960",
    "lat": 35.528462,
    "lng": 127.682128
  },
  {
    "name": "서상면사무소",
    "category": "관공서",
    "type": "관공서",
    "address": "경상남도 함양군 서상면 서상로 260",
    "tel": "055-960-8860",
    "lat": 35.67931,
    "lng": 127.688437
  },
  {
    "name": "서하면사무소",
    "category": "관공서",
    "type": "관공서",
    "address": "경상남도 함양군 서하면 함양남서로 3937",
    "tel": "055-960-8810",
    "lat": 35.647662,
    "lng": 127.695467
  },
  {
    "name": "수동면사무소",
    "category": "관공서",
    "type": "관공서",
    "address": "경상남도 함양군 수동면 수동길 27",
    "tel": "055-960-8660",
    "lat": 35.522105,
    "lng": 127.787735
  },
  {
    "name": "안의면사무소",
    "category": "관공서",
    "type": "관공서",
    "address": "경상남도 함양군 안의면 금성길 7",
    "tel": "055-960-8760",
    "lat": 35.628656,
    "lng": 127.811271
  },
  {
    "name": "유림면사무소",
    "category": "관공서",
    "type": "관공서",
    "address": "경상남도 함양군 유림면 천왕봉로 2872-3",
    "tel": "055-960-8610",
    "lat": 35.465914,
    "lng": 127.792591
  },
  {
    "name": "지곡면사무소",
    "category": "관공서",
    "type": "관공서",
    "address": "경상남도 함양군 지곡면 함양로 1882",
    "tel": "055-960-8710",
    "lat": 35.566198,
    "lng": 127.77415
  },
  {
    "name": "휴천면사무소",
    "category": "관공서",
    "type": "관공서",
    "address": "경상남도 함양군 휴천면 목현옥매로 3",
    "tel": "055-960-8560",
    "lat": 35.48068,
    "lng": 127.750214
  },
  {
    "name": "농업기술센터",
    "category": "관공서",
    "type": "관공서",
    "address": "경상남도 함양군 함양읍 함양남서로 996-76",
    "tel": "055-960-8110",
    "lat": 35.507225,
    "lng": 127.741559
  },
  {
    "name": "보건소",
    "category": "관공서",
    "type": "관공서",
    "address": "경상남도 함양군 함양읍 한들로 141",
    "tel": "055-960-8010",
    "lat": 35.519675,
    "lng": 127.731783
  },
  {
    "name": "마천보건지소",
    "category": "관공서",
    "type": "관공서",
    "address": "경상남도 함양군 마천면 천왕봉로 1144-2",
    "tel": "055-960-5360",
    "lat": 35.395649,
    "lng": 127.662681
  },
  {
    "name": "백전보건지소",
    "category": "관공서",
    "type": "관공서",
    "address": "경상남도 함양군 백전면 함양남서로 2355",
    "tel": "055-960-5368",
    "lat": 35.552457,
    "lng": 127.637018
  },
  {
    "name": "병곡보건지소",
    "category": "관공서",
    "type": "관공서",
    "address": "경상남도 함양군 병곡면 함양남서로 1737",
    "tel": "055-960-5369",
    "lat": 35.528661,
    "lng": 127.683925
  },
  {
    "name": "서상보건지소",
    "category": "관공서",
    "type": "관공서",
    "address": "경상남도 함양군 서상면 서상로 307",
    "tel": "055-960-5367",
    "lat": 35.683113,
    "lng": 127.685535
  },
  {
    "name": "서하보건지소",
    "category": "관공서",
    "type": "관공서",
    "address": "경상남도 함양군 서하면 송계앞길 7",
    "tel": "055-960-5366",
    "lat": 35.647486,
    "lng": 127.697092
  },
  {
    "name": "수동보건지소",
    "category": "관공서",
    "type": "관공서",
    "address": "경상남도 함양군 수동면 수동내동길 15",
    "tel": "055-960-5363",
    "lat": 35.522842,
    "lng": 127.789104
  },
  {
    "name": "안의보건지소",
    "category": "관공서",
    "type": "관공서",
    "address": "경상남도 함양군 안의면 금성길 16",
    "tel": "055-960-5365",
    "lat": 35.629545,
    "lng": 127.811098
  },
  {
    "name": "유림보건지소",
    "category": "관공서",
    "type": "관공서",
    "address": "경상남도 함양군 유림면 천왕봉로 2872-3",
    "tel": "055-960-5362",
    "lat": 35.465914,
    "lng": 127.792591
  },
  {
    "name": "지곡보건지소",
    "category": "관공서",
    "type": "관공서",
    "address": "경상남도 함양군 지곡면 함양로 1882-1",
    "tel": "055-960-5364",
    "lat": 35.566029,
    "lng": 127.77457
  },
  {
    "name": "휴천보건지소",
    "category": "관공서",
    "type": "관공서",
    "address": "경상남도 함양군 휴천면 함양남서로 513",
    "tel": "055-960-5361",
    "lat": 35.479974,
    "lng": 127.75046
  },
  {
    "name": "동도보건진료소",
    "category": "관공서",
    "type": "관공서",
    "address": "경상남도 함양군 안의면 황마로 934",
    "tel": "055-960-5375",
    "lat": 35.653032,
    "lng": 127.853872
  },
  {
    "name": "마평보건진료소",
    "category": "관공서",
    "type": "관공서",
    "address": "경상남도 함양군 병곡면 마평길 40-10",
    "tel": "055-960-5380",
    "lat": 35.55929,
    "lng": 127.711195
  },
  {
    "name": "백운산보건진료소",
    "category": "관공서",
    "type": "관공서",
    "address": "경상남도 함양군 백전면 운산1길 7-17",
    "tel": "055-960-5379",
    "lat": 35.584837,
    "lng": 127.635342
  },
  {
    "name": "상남보건진료소",
    "category": "관공서",
    "type": "관공서",
    "address": "경상남도 함양군 서상면 덕유월성로 371",
    "tel": "055-960-5378",
    "lat": 35.728752,
    "lng": 127.680002
  },
  {
    "name": "실덕보건진료소",
    "category": "관공서",
    "type": "관공서",
    "address": "경상남도 함양군 마천면 덕전길 327-1",
    "tel": "055-960-5372",
    "lat": 35.375035,
    "lng": 127.659606
  },
  {
    "name": "엄천보건진료소",
    "category": "관공서",
    "type": "관공서",
    "address": "경상남도 함양군 휴천면 한남안길 40",
    "tel": "055-960-5373",
    "lat": 35.441204,
    "lng": 127.745282
  },
  {
    "name": "용추보건진료소",
    "category": "관공서",
    "type": "관공서",
    "address": "경상남도 함양군 안의면 신안길 69",
    "tel": "055-960-5376",
    "lat": 35.652005,
    "lng": 127.799513
  },
  {
    "name": "운곡보건진료소",
    "category": "관공서",
    "type": "관공서",
    "address": "경상남도 함양군 서하면 은행길 1",
    "tel": "055-960-5377",
    "lat": 35.635326,
    "lng": 127.688039
  },
  {
    "name": "죽산보건진료소",
    "category": "관공서",
    "type": "관공서",
    "address": "경상남도 함양군 수동면 수남로 381",
    "tel": "055-960-5374",
    "lat": 35.543439,
    "lng": 127.819353
  },
  {
    "name": "창원보건진료소",
    "category": "관공서",
    "type": "관공서",
    "address": "경상남도 함양군 마천면 창원길 34",
    "tel": "055-960-5371",
    "lat": 35.422018,
    "lng": 127.681089
  },
  {
    "name": "팔령보건진료소",
    "category": "관공서",
    "type": "관공서",
    "address": "경상남도 함양군 함양읍 원구길 51",
    "tel": "055-960-5370",
    "lat": 35.480402,
    "lng": 127.690455
  },
  {
    "name": "함양금호어울림리더스파크아파트 어린이놀이터2",
    "category": "어린이놀이시설",
    "type": "어린이놀이시설",
    "address": "경남 함양군 함양읍 한들로 13",
    "tel": "",
    "lat": 35.513669,
    "lng": 127.725472
  },
  {
    "name": "함양금호어울림리더스파크아파트 어린이놀이터1",
    "category": "어린이놀이시설",
    "type": "어린이놀이시설",
    "address": "경남 함양군 함양읍 한들로 13",
    "tel": "",
    "lat": 35.513394,
    "lng": 127.723733
  },
  {
    "name": "백무동야영장 놀이터",
    "category": "어린이놀이시설",
    "type": "어린이놀이시설",
    "address": "경남 함양군 마천면 백무동로 377",
    "tel": "",
    "lat": 35.357884,
    "lng": 127.679812
  },
  {
    "name": "한마음아파트 어린이놀이시설",
    "category": "어린이놀이시설",
    "type": "어린이놀이시설",
    "address": "경상남도 함양군 함양읍 함양로 1224 (한마음아파트)",
    "tel": "",
    "lat": 35.527101,
    "lng": 127.730161
  },
  {
    "name": "함양어린이집 놀이터",
    "category": "어린이놀이시설",
    "type": "어린이놀이시설",
    "address": "경상남도 함양군 함양읍 원교길 73",
    "tel": "",
    "lat": 35.528633,
    "lng": 127.726331
  },
  {
    "name": "서하초등학교 병설유치원 어린이 놀이시설",
    "category": "어린이놀이시설",
    "type": "어린이놀이시설",
    "address": "경상남도 함양군 서하면 육십령로 2117",
    "tel": "",
    "lat": 35.649238,
    "lng": 127.698267
  },
  {
    "name": "천령유치원 어린이 놀이시설",
    "category": "어린이놀이시설",
    "type": "어린이놀이시설",
    "address": "경상남도 함양군 함양읍 함양로 911",
    "tel": "",
    "lat": 35.502983,
    "lng": 127.717412
  },
  {
    "name": "상림팰리스 내 놀이터1",
    "category": "어린이놀이시설",
    "type": "어린이놀이시설",
    "address": "경상남도 함양군 함양읍 원교길 9 (상림팰리스아파트)",
    "tel": "",
    "lat": 35.5273,
    "lng": 127.728138
  },
  {
    "name": "상림팰리스 내 놀이터2",
    "category": "어린이놀이시설",
    "type": "어린이놀이시설",
    "address": "경상남도 함양군 함양읍 원교길 9 (상림팰리스아파트)",
    "tel": "",
    "lat": 35.5273,
    "lng": 127.728138
  },
  {
    "name": "함양교산주공아파트 어린이놀이터",
    "category": "어린이놀이시설",
    "type": "어린이놀이시설",
    "address": "경상남도 함양군 함양읍 함양로 1246 (함양교산휴먼시아)",
    "tel": "",
    "lat": 35.529008,
    "lng": 127.732249
  },
  {
    "name": "함양교산주공아파트 유아놀이터",
    "category": "어린이놀이시설",
    "type": "어린이놀이시설",
    "address": "경상남도 함양군 함양읍 함양로 1246 (함양교산휴먼시아)",
    "tel": "",
    "lat": 35.529008,
    "lng": 127.732249
  },
  {
    "name": "하림숲속놀이터1",
    "category": "어린이놀이시설",
    "type": "어린이놀이시설",
    "address": null,
    "tel": "",
    "lat": 35.5155,
    "lng": 127.7372
  },
  {
    "name": "백전초등학교 병설유치원 어린이 놀이시설",
    "category": "어린이놀이시설",
    "type": "어린이놀이시설",
    "address": "경상남도 함양군 백전면 구산대안로 12-2",
    "tel": "",
    "lat": 35.552557,
    "lng": 127.634876
  },
  {
    "name": "금반초등학교 병설유치원 어린이 놀이시설",
    "category": "어린이놀이시설",
    "type": "어린이놀이시설",
    "address": "경상남도 함양군 휴천면 휴천로 371",
    "tel": "",
    "lat": 35.47741,
    "lng": 127.737175
  },
  {
    "name": "하림숲속놀이터2",
    "category": "어린이놀이시설",
    "type": "어린이놀이시설",
    "address": null,
    "tel": "",
    "lat": 35.5155,
    "lng": 127.7372
  },
  {
    "name": "꿈나무유치원 어린이 놀이시설",
    "category": "어린이놀이시설",
    "type": "어린이놀이시설",
    "address": "경상남도 함양군 함양읍 삼천길 7",
    "tel": "",
    "lat": 35.539432,
    "lng": 127.738785
  },
  {
    "name": "수동어린이집 놀이터",
    "category": "어린이놀이시설",
    "type": "어린이놀이시설",
    "address": "경상남도 함양군 수동면 연화산길 52",
    "tel": "",
    "lat": 35.5144,
    "lng": 127.814
  },
  {
    "name": "함양초등학교 어린이 놀이시설",
    "category": "어린이놀이시설",
    "type": "어린이놀이시설",
    "address": "경상남도 함양군 함양읍 고운로 43",
    "tel": "",
    "lat": 35.520596,
    "lng": 127.726006
  },
  {
    "name": "위성초등학교 어린이 놀이시설",
    "category": "어린이놀이시설",
    "type": "어린이놀이시설",
    "address": "경상남도 함양군 함양읍 위성초등길 18",
    "tel": "",
    "lat": 35.524033,
    "lng": 127.732713
  },
  {
    "name": "위림초등학교 어린이 놀이시설",
    "category": "어린이놀이시설",
    "type": "어린이놀이시설",
    "address": "경상남도 함양군 함양읍 함양남서로 1234",
    "tel": "",
    "lat": 35.521104,
    "lng": 127.718969
  },
  {
    "name": "마천초등학교 병설유치원 어린이 놀이시설",
    "category": "어린이놀이시설",
    "type": "어린이놀이시설",
    "address": "경상남도 함양군 마천면 마천삼정로 126",
    "tel": "",
    "lat": 35.38627,
    "lng": 127.658966
  },
  {
    "name": "금반초등학교 어린이 놀이시설",
    "category": "어린이놀이시설",
    "type": "어린이놀이시설",
    "address": "경상남도 함양군 휴천면 휴천로 371",
    "tel": "",
    "lat": 35.47741,
    "lng": 127.737175
  },
  {
    "name": "유림초등학교 어린이 놀이시설",
    "category": "어린이놀이시설",
    "type": "어린이놀이시설",
    "address": "경상남도 함양군 유림면 천왕봉로 2927",
    "tel": "",
    "lat": 35.472329,
    "lng": 127.792801
  },
  {
    "name": "수동초등학교 어린이 놀이시설",
    "category": "어린이놀이시설",
    "type": "어린이놀이시설",
    "address": "경상남도 함양군 수동면 연화산길 18-1",
    "tel": "",
    "lat": 35.523267,
    "lng": 127.790888
  },
  {
    "name": "지곡초등학교(병설유치원 겸용) 어린이 놀이시설",
    "category": "어린이놀이시설",
    "type": "어린이놀이시설",
    "address": "경상남도 함양군 지곡면 개평길 12",
    "tel": "",
    "lat": 35.565833,
    "lng": 127.7715
  },
  {
    "name": "안의초등학교 어린이 놀이시설",
    "category": "어린이놀이시설",
    "type": "어린이놀이시설",
    "address": "경상남도 함양군 안의면 안의초등길 8",
    "tel": "",
    "lat": 35.629785,
    "lng": 127.809195
  },
  {
    "name": "서하초등학교 어린이 놀이시설",
    "category": "어린이놀이시설",
    "type": "어린이놀이시설",
    "address": "경상남도 함양군 서하면 육십령로 2117",
    "tel": "",
    "lat": 35.649238,
    "lng": 127.698267
  },
  {
    "name": "병곡초등학교 어린이 놀이시설",
    "category": "어린이놀이시설",
    "type": "어린이놀이시설",
    "address": "경상남도 함양군 병곡면 휴촌길 21",
    "tel": "",
    "lat": 35.529219,
    "lng": 127.689372
  },
  {
    "name": "안의초등학교 병설유치원 어린이 놀이시설",
    "category": "어린이놀이시설",
    "type": "어린이놀이시설",
    "address": "경상남도 함양군 안의면 안의초등길 8",
    "tel": "",
    "lat": 35.629785,
    "lng": 127.809195
  },
  {
    "name": "수동초등학교 병설유치원 어린이 놀이시설",
    "category": "어린이놀이시설",
    "type": "어린이놀이시설",
    "address": "경상남도 함양군 수동면 연화산길 18-1",
    "tel": "",
    "lat": 35.523267,
    "lng": 127.790888
  },
  {
    "name": "안의어린이집 놀이터",
    "category": "어린이놀이시설",
    "type": "어린이놀이시설",
    "address": "경상남도 함양군 안의면 금성길 34-13",
    "tel": "",
    "lat": 35.629596,
    "lng": 127.809296
  },
  {
    "name": "서상초등학교병설유치원 어린이놀이시설",
    "category": "어린이놀이시설",
    "type": "어린이놀이시설",
    "address": "경상남도 함양군 서상면 대남로 6",
    "tel": "",
    "lat": 35.683627,
    "lng": 127.687234
  },
  {
    "name": "고운광장내 어린이 놀이시설",
    "category": "어린이놀이시설",
    "type": "어린이놀이시설",
    "address": "경상남도 함양군 함양읍 필봉산길 55",
    "tel": "",
    "lat": 35.524713,
    "lng": 127.722272
  },
  {
    "name": "병곡초등학교병설유치원 어린이놀이시설",
    "category": "어린이놀이시설",
    "type": "어린이놀이시설",
    "address": "경상남도 함양군 병곡면 휴촌길 21",
    "tel": "",
    "lat": 35.529219,
    "lng": 127.689372
  },
  {
    "name": "백전초등학교 어린이 놀이시설",
    "category": "어린이놀이시설",
    "type": "어린이놀이시설",
    "address": "경상남도 함양군 백전면 구산대안로 12-2",
    "tel": "",
    "lat": 35.552557,
    "lng": 127.634876
  },
  {
    "name": "함양롤리폴리",
    "category": "어린이놀이시설",
    "type": "어린이놀이시설",
    "address": "경상남도 함양군 함양읍 함양로 1173",
    "tel": "",
    "lat": 35.5348,
    "lng": 127.7285
  },
  {
    "name": "함양삼정그린코아아파트 어린이놀이터",
    "category": "어린이놀이시설",
    "type": "어린이놀이시설",
    "address": "경상남도 함양군 함양읍 함양로 1231",
    "tel": "",
    "lat": 35.528199,
    "lng": 127.729091
  },
  {
    "name": "마천초등학교 어린이놀이시설",
    "category": "어린이놀이시설",
    "type": "어린이놀이시설",
    "address": "경상남도 함양군 마천면 마천삼정로 126",
    "tel": "",
    "lat": 35.38627,
    "lng": 127.658966
  },
  {
    "name": "한주아파트 놀이시설1",
    "category": "어린이놀이시설",
    "type": "어린이놀이시설",
    "address": "경상남도 함양군 함양읍 교산3길 6, 한주아파트",
    "tel": "",
    "lat": 35.522075,
    "lng": 127.730923
  },
  {
    "name": "한주아파트 놀이시설2",
    "category": "어린이놀이시설",
    "type": "어린이놀이시설",
    "address": "경상남도 함양군 함양읍 교산3길 6, 한주아파트",
    "tel": "",
    "lat": 35.522075,
    "lng": 127.730923
  },
  {
    "name": "포도원어린이집 어린이놀이시설",
    "category": "어린이놀이시설",
    "type": "어린이놀이시설",
    "address": "경상남도 함양군 함양읍 대실곰실로 53",
    "tel": "",
    "lat": 35.521416,
    "lng": 127.711654
  },
  {
    "name": "서상초등학교 어린이놀이시설",
    "category": "어린이놀이시설",
    "type": "어린이놀이시설",
    "address": "경상남도 함양군 서상면 대남로 6",
    "tel": "",
    "lat": 35.683454,
    "lng": 127.687162
  },
  {
    "name": "연꽃어린이집",
    "category": "어린이놀이시설",
    "type": "어린이놀이시설",
    "address": "경상남도 함양군 함양읍 함양로 983-32",
    "tel": "",
    "lat": 35.509049,
    "lng": 127.718529
  },
  {
    "name": "농월정 오토캠핑장 옆 놀이시설",
    "category": "어린이놀이시설",
    "type": "어린이놀이시설",
    "address": null,
    "tel": "",
    "lat": 35.636,
    "lng": 127.7856
  },
  {
    "name": "함양웰가센트뷰아파트 103동 어린이놀이터",
    "category": "어린이놀이시설",
    "type": "어린이놀이시설",
    "address": null,
    "tel": "",
    "lat": 35.526498,
    "lng": 127.732935
  },
  {
    "name": "함양웰가센트뷰아파트 어린이집옆 유아놀이터",
    "category": "어린이놀이시설",
    "type": "어린이놀이시설",
    "address": null,
    "tel": "",
    "lat": 35.526505,
    "lng": 127.73292
  },
  {
    "name": "함양군 행복주택 아파트 102동 앞 놀이시설",
    "category": "어린이놀이시설",
    "type": "어린이놀이시설",
    "address": "경상남도 함양군 함양읍 함양로 1206-27 (행복주택)",
    "tel": "",
    "lat": 35.526908,
    "lng": 127.731585
  },
  {
    "name": "지리산유아숲체험원 어린이놀이터",
    "category": "어린이놀이시설",
    "type": "어린이놀이시설",
    "address": "경상남도 함양군 함양읍 삼봉로 62",
    "tel": "",
    "lat": 35.458585,
    "lng": 127.642471
  },
  {
    "name": "대봉캠핑랜드(숲속놀이터)",
    "category": "어린이놀이시설",
    "type": "어린이놀이시설",
    "address": null,
    "tel": "",
    "lat": 35.589992,
    "lng": 127.678683
  },
  {
    "name": "위림초등학교 2층 다목적홀 실내놀이터",
    "category": "어린이놀이시설",
    "type": "어린이놀이시설",
    "address": "경상남도 함양군 함양읍 함양남서로 1234",
    "tel": "",
    "lat": 35.521104,
    "lng": 127.718969
  },
  {
    "name": "함양어린이공원 물놀이 놀이시설",
    "category": "어린이놀이시설",
    "type": "어린이놀이시설",
    "address": null,
    "tel": "",
    "lat": 35.52,
    "lng": 127.7002
  },
  {
    "name": "함양어린이공원 놀이시설",
    "category": "어린이놀이시설",
    "type": "어린이놀이시설",
    "address": null,
    "tel": "",
    "lat": 35.52,
    "lng": 127.7002
  },
  {
    "name": "용추 오토캠핌장 어린이놀이시설",
    "category": "어린이놀이시설",
    "type": "어린이놀이시설",
    "address": "경상남도 함양군 안의면 용추계곡로 493",
    "tel": "",
    "lat": 35.674825,
    "lng": 127.773904
  },
  {
    "name": "대봉캠핑랜드 어린왕자공원",
    "category": "어린이놀이시설",
    "type": "어린이놀이시설",
    "address": "경상남도 함양군 병곡면 병곡지곡로 331",
    "tel": "",
    "lat": 35.58612,
    "lng": 127.6799
  },
  {
    "name": "천령유치원 실내 어린이놀이시설",
    "category": "어린이놀이시설",
    "type": "어린이놀이시설",
    "address": "경상남도 함양군 함양읍 함양로 911",
    "tel": "",
    "lat": 35.503,
    "lng": 127.716618
  },
  {
    "name": "성민어린이집 놀이터",
    "category": "어린이놀이시설",
    "type": "어린이놀이시설",
    "address": "경상남도 함양군 함양읍 인당2길 15",
    "tel": "",
    "lat": 35.512611,
    "lng": 127.729387
  },
  {
    "name": "운화소망의집",
    "category": "약자보호시설",
    "type": "장애인편의시설",
    "address": "경상남도 함양군 유림면 사안길 22",
    "tel": "055-964-2695",
    "lat": 35.50905,
    "lng": 127.80386
  },
  {
    "name": "함양연꽃의집",
    "category": "약자보호시설",
    "type": "장애인편의시설",
    "address": "경상남도 함양군 함양읍 함양로 983-30",
    "tel": "055-964-4488",
    "lat": 35.508934,
    "lng": 127.719373
  },
  {
    "name": "함양장애인주간보호센터",
    "category": "약자보호시설",
    "type": "장애인편의시설",
    "address": "경상남도 함양군 함양읍 이은농공길3-9",
    "tel": "055-963-8950",
    "lat": 35.511631,
    "lng": 127.728063
  },
  {
    "name": "함양군시각장애인주간보호센터",
    "category": "약자보호시설",
    "type": "장애인편의시설",
    "address": "경상남도 함양군 함양읍 함양남서로1069-13",
    "tel": "055-962-0815",
    "lat": 35.510991,
    "lng": 127.730918
  },
  {
    "name": "함양군장애인생활이동지원센터",
    "category": "약자보호시설",
    "type": "장애인편의시설",
    "address": "경상남도 함양군 함양읍 함양남서로 1069-13",
    "tel": "055-964-2666",
    "lat": 35.510991,
    "lng": 127.730918
  },
  {
    "name": "함양보호작업장",
    "category": "약자보호시설",
    "type": "장애인편의시설",
    "address": "경상남도 함양군 안의면 두항길 59-39",
    "tel": "055-964-0191",
    "lat": 35.636496,
    "lng": 127.815825
  },
  {
    "name": "한마음연합의원",
    "category": "약자보호시설",
    "type": "전담의료기관",
    "address": "경상남도 함양군 함양읍 용평길 44",
    "tel": "055-964-2301",
    "lat": 35.519838,
    "lng": 127.731848
  },
  {
    "name": "듀퍼커피로스터리(구, 카페수수)",
    "category": "우수다중시설",
    "type": "휴게음식점",
    "address": "-",
    "tel": "",
    "lat": 35.520541,
    "lng": 127.727099
  },
  {
    "name": "계남중학교",
    "category": "초중고",
    "type": "초중고",
    "address": "전라북도 장수군 계남면 화양리 540-4",
    "tel": "",
    "lat": 35.704672,
    "lng": 127.572603
  },
  {
    "name": "계남초등학교",
    "category": "초중고",
    "type": "초중고",
    "address": "전라북도 장수군 계남면 화음리 971",
    "tel": "",
    "lat": 35.702027,
    "lng": 127.578613
  },
  {
    "name": "경상남도교육청산촌유학교육원",
    "category": "초중고",
    "type": "초중고",
    "address": "경상남도 함양군 안의면 신안리 975",
    "tel": "",
    "lat": 35.653169,
    "lng": 127.798374
  },
  {
    "name": "금반초등학교",
    "category": "초중고",
    "type": "초중고",
    "address": "경상남도 함양군 휴천면 금반리 92",
    "tel": "",
    "lat": 35.477494,
    "lng": 127.736944
  },
  {
    "name": "금서초등학교",
    "category": "초중고",
    "type": "초중고",
    "address": "경상남도 산청군 금서면 화계리 671",
    "tel": "",
    "lat": 35.461155,
    "lng": 127.791948
  },
  {
    "name": "산내중학교",
    "category": "초중고",
    "type": "초중고",
    "address": "전라북도 남원시 산내면 대정리 601",
    "tel": "",
    "lat": 35.423012,
    "lng": 127.627598
  },
  {
    "name": "산내초등학교",
    "category": "초중고",
    "type": "초중고",
    "address": "전라북도 남원시 산내면 대정리 646-1",
    "tel": "",
    "lat": 35.42011,
    "lng": 127.627287
  },
  {
    "name": "백전초등학교",
    "category": "초중고",
    "type": "초중고",
    "address": "경상남도 함양군 백전면 평정리 48-1",
    "tel": "",
    "lat": 35.543654,
    "lng": 127.646099
  },
  {
    "name": "백화여자고등학교",
    "category": "초중고",
    "type": "초중고",
    "address": "전라북도 장수군 장계면 장계리 24",
    "tel": "",
    "lat": 35.727821,
    "lng": 127.586358
  },
  {
    "name": "번암중학교",
    "category": "초중고",
    "type": "초중고",
    "address": "전라북도 장수군 번암면 노단리 491",
    "tel": "",
    "lat": 35.535511,
    "lng": 127.548049
  },
  {
    "name": "번암초등학교동화분교장",
    "category": "초중고",
    "type": "초중고",
    "address": "전라북도 장수군 번암면 동화리 754",
    "tel": "",
    "lat": 35.568094,
    "lng": 127.557274
  },
  {
    "name": "산청중학교",
    "category": "초중고",
    "type": "초중고",
    "address": "경상남도 산청군 생초면 어서리 417-1",
    "tel": "",
    "lat": 35.496911,
    "lng": 127.836358
  },
  {
    "name": "병곡초등학교",
    "category": "초중고",
    "type": "초중고",
    "address": "경상남도 함양군 병곡면 송평리 80",
    "tel": "",
    "lat": 35.529009,
    "lng": 127.690286
  },
  {
    "name": "마천중학교",
    "category": "초중고",
    "type": "초중고",
    "address": "경상남도 함양군 마천면 덕전리 88-1",
    "tel": "",
    "lat": 35.38719,
    "lng": 127.659232
  },
  {
    "name": "마천초등학교",
    "category": "초중고",
    "type": "초중고",
    "address": "경상남도 함양군 마천면 덕전리 86-4",
    "tel": "",
    "lat": 35.386604,
    "lng": 127.6594
  },
  {
    "name": "아영중학교",
    "category": "초중고",
    "type": "초중고",
    "address": "전라북도 남원시 아영면 청계리 103",
    "tel": "",
    "lat": 35.506827,
    "lng": 127.609496
  },
  {
    "name": "아영초등학교",
    "category": "초중고",
    "type": "초중고",
    "address": "전라북도 남원시 아영면 청계리 42-3",
    "tel": "",
    "lat": 35.505754,
    "lng": 127.609795
  },
  {
    "name": "안의고등학교",
    "category": "초중고",
    "type": "초중고",
    "address": "경상남도 함양군 안의면 석천리 90",
    "tel": "",
    "lat": 35.630773,
    "lng": 127.819184
  },
  {
    "name": "안의중학교",
    "category": "초중고",
    "type": "초중고",
    "address": "경상남도 함양군 안의면 석천리 73",
    "tel": "",
    "lat": 35.630214,
    "lng": 127.819434
  },
  {
    "name": "안의초등학교",
    "category": "초중고",
    "type": "초중고",
    "address": "경상남도 함양군 안의면 당본리 203",
    "tel": "",
    "lat": 35.62977,
    "lng": 127.809049
  },
  {
    "name": "수동중학교",
    "category": "초중고",
    "type": "초중고",
    "address": "경상남도 함양군 수동면 화산리 1010",
    "tel": "",
    "lat": 35.524222,
    "lng": 127.789244
  },
  {
    "name": "수동초등학교",
    "category": "초중고",
    "type": "초중고",
    "address": "경상남도 함양군 수동면 화산리 1097",
    "tel": "",
    "lat": 35.523041,
    "lng": 127.791322
  },
  {
    "name": "서하초등학교",
    "category": "초중고",
    "type": "초중고",
    "address": "경상남도 함양군 서하면 송계리 869",
    "tel": "",
    "lat": 35.649199,
    "lng": 127.698229
  },
  {
    "name": "생초초등학교",
    "category": "초중고",
    "type": "초중고",
    "address": "경상남도 산청군 생초면 어서리 351",
    "tel": "",
    "lat": 35.495045,
    "lng": 127.835724
  },
  {
    "name": "서상고등학교",
    "category": "초중고",
    "type": "초중고",
    "address": "경상남도 함양군 서상면 도천리 1047-6",
    "tel": "",
    "lat": 35.67709,
    "lng": 127.689276
  },
  {
    "name": "서상중학교",
    "category": "초중고",
    "type": "초중고",
    "address": "경상남도 함양군 서상면 도천리 1047-6",
    "tel": "",
    "lat": 35.67709,
    "lng": 127.689276
  },
  {
    "name": "서상초등학교",
    "category": "초중고",
    "type": "초중고",
    "address": "경상남도 함양군 서상면 대남리 1769",
    "tel": "",
    "lat": 35.683903,
    "lng": 127.686975
  },
  {
    "name": "위림초등학교",
    "category": "초중고",
    "type": "초중고",
    "address": "경상남도 함양군 함양읍 백연리 511",
    "tel": "",
    "lat": 35.521506,
    "lng": 127.719459
  },
  {
    "name": "위성초등학교",
    "category": "초중고",
    "type": "초중고",
    "address": "경상남도 함양군 함양읍 교산리 20-1",
    "tel": "",
    "lat": 35.524033,
    "lng": 127.732801
  },
  {
    "name": "유림초등학교",
    "category": "초중고",
    "type": "초중고",
    "address": "경상남도 함양군 유림면 화촌리 472",
    "tel": "",
    "lat": 35.472451,
    "lng": 127.792797
  },
  {
    "name": "한국마사고등학교",
    "category": "초중고",
    "type": "초중고",
    "address": "전라북도 장수군 장계면 명덕리 1359",
    "tel": "",
    "lat": 35.724367,
    "lng": 127.634612
  },
  {
    "name": "함양고등학교",
    "category": "초중고",
    "type": "초중고",
    "address": "경상남도 함양군 함양읍 백연리 253",
    "tel": "",
    "lat": 35.513205,
    "lng": 127.721301
  },
  {
    "name": "함양여자중학교",
    "category": "초중고",
    "type": "초중고",
    "address": "경상남도 함양군 함양읍 교산리 956",
    "tel": "",
    "lat": 35.523748,
    "lng": 127.725282
  },
  {
    "name": "함양제일고등학교",
    "category": "초중고",
    "type": "초중고",
    "address": "경상남도 함양군 함양읍 교산리 210",
    "tel": "",
    "lat": 35.524788,
    "lng": 127.73412
  },
  {
    "name": "함양중학교",
    "category": "초중고",
    "type": "초중고",
    "address": "경상남도 함양군 함양읍 교산리 217",
    "tel": "",
    "lat": 35.524732,
    "lng": 127.729633
  },
  {
    "name": "함양초등학교",
    "category": "초중고",
    "type": "초중고",
    "address": "경상남도 함양군 함양읍 운림리 27-1",
    "tel": "",
    "lat": 35.521158,
    "lng": 127.726467
  },
  {
    "name": "장계중학교",
    "category": "초중고",
    "type": "초중고",
    "address": "전라북도 장수군 장계면 장계리 301",
    "tel": "",
    "lat": 35.732466,
    "lng": 127.582636
  },
  {
    "name": "장계초등학교",
    "category": "초중고",
    "type": "초중고",
    "address": "전라북도 장수군 장계면 장계리 276-3",
    "tel": "",
    "lat": 35.732074,
    "lng": 127.581678
  },
  {
    "name": "인월고등학교",
    "category": "초중고",
    "type": "초중고",
    "address": "전라북도 남원시 인월면 서무리 678-2",
    "tel": "",
    "lat": 35.464719,
    "lng": 127.602466
  },
  {
    "name": "인월중학교",
    "category": "초중고",
    "type": "초중고",
    "address": "전라북도 남원시 인월면 서무리 678-2",
    "tel": "",
    "lat": 35.464719,
    "lng": 127.602466
  },
  {
    "name": "인월초등학교",
    "category": "초중고",
    "type": "초중고",
    "address": "전라북도 남원시 인월면 서무리 688-14",
    "tel": "",
    "lat": 35.463927,
    "lng": 127.601741
  },
  {
    "name": "전북유니텍고등학교",
    "category": "초중고",
    "type": "초중고",
    "address": "전라북도 장수군 장계면 장계리 273",
    "tel": "",
    "lat": 35.73328,
    "lng": 127.5815
  },
  {
    "name": "지곡초등학교",
    "category": "초중고",
    "type": "초중고",
    "address": "경상남도 함양군 지곡면 개평리 287-1",
    "tel": "",
    "lat": 35.566127,
    "lng": 127.771539
  },
  {
    "name": "꿈나무유치원",
    "category": "유아시설",
    "type": "유아시설",
    "address": "경상남도 함양군 함양읍 신천리 594-2",
    "tel": "",
    "lat": 35.539424,
    "lng": 127.738825
  },
  {
    "name": "천령유치원",
    "category": "유아시설",
    "type": "유아시설",
    "address": "경상남도 함양군 함양읍 삼산리 29-3",
    "tel": "",
    "lat": 35.502773,
    "lng": 127.717152
  },
  {
    "name": "또래마을어린이집",
    "category": "유아시설",
    "type": "유아시설",
    "address": "경상남도 함양군 함양읍 교산리 160",
    "tel": "",
    "lat": 35.522045,
    "lng": 127.730905
  },
  {
    "name": "꿈나무어린이집",
    "category": "유아시설",
    "type": "유아시설",
    "address": "null",
    "tel": "",
    "lat": 35.73041,
    "lng": 127.588051
  },
  {
    "name": "생초어린이집",
    "category": "유아시설",
    "type": "유아시설",
    "address": "경상남도 산청군 생초면 어서리 324",
    "tel": "",
    "lat": 35.493514,
    "lng": 127.836552
  },
  {
    "name": "산내들 어린이집",
    "category": "유아시설",
    "type": "유아시설",
    "address": "전라북도 남원시 산내면 입석리 205-14",
    "tel": "",
    "lat": 35.417816,
    "lng": 127.638416
  },
  {
    "name": "마천어린이집",
    "category": "유아시설",
    "type": "유아시설",
    "address": "경상남도 함양군 마천면 군자리 93-6",
    "tel": "",
    "lat": 35.394321,
    "lng": 127.659641
  },
  {
    "name": "안의(서상분원)어린이집",
    "category": "유아시설",
    "type": "유아시설",
    "address": "경상남도 함양군 서상면 대남리 1850-1",
    "tel": "",
    "lat": 35.682419,
    "lng": 127.685532
  },
  {
    "name": "안의어린이집",
    "category": "유아시설",
    "type": "유아시설",
    "address": "null",
    "tel": "",
    "lat": 35.630542,
    "lng": 127.808906
  },
  {
    "name": "수동어린이집",
    "category": "유아시설",
    "type": "유아시설",
    "address": "경상남도 함양군 수동면 화산리 1007-3",
    "tel": "",
    "lat": 35.524757,
    "lng": 127.789722
  },
  {
    "name": "성민어린이집",
    "category": "유아시설",
    "type": "유아시설",
    "address": "null",
    "tel": "",
    "lat": 35.512778,
    "lng": 127.729484
  },
  {
    "name": "인월원광어린이집",
    "category": "유아시설",
    "type": "유아시설",
    "address": "전라북도 남원시 인월면 인월리 168",
    "tel": "",
    "lat": 35.459965,
    "lng": 127.60254
  },
  {
    "name": "장계어린이집",
    "category": "유아시설",
    "type": "유아시설",
    "address": "null",
    "tel": "",
    "lat": 35.732404,
    "lng": 127.587352
  },
  {
    "name": "연꽃어린이집",
    "category": "유아시설",
    "type": "유아시설",
    "address": "경상남도 함양군 함양읍 백연리 158",
    "tel": "",
    "lat": 35.509008,
    "lng": 127.718684
  },
  {
    "name": "청계원광어린이집",
    "category": "유아시설",
    "type": "유아시설",
    "address": "null",
    "tel": "",
    "lat": 35.508506,
    "lng": 127.61195
  },
  {
    "name": "포도원어린이집",
    "category": "유아시설",
    "type": "유아시설",
    "address": "경상남도 함양군 함양읍 백연리 800-2",
    "tel": "",
    "lat": 35.521387,
    "lng": 127.711898
  },
  {
    "name": "해맑은어린이집",
    "category": "유아시설",
    "type": "유아시설",
    "address": "전라북도 남원시 아영면 인풍리 516-22",
    "tel": "",
    "lat": 35.479562,
    "lng": 127.59018
  },
  {
    "name": "함양어린이집",
    "category": "유아시설",
    "type": "유아시설",
    "address": "경상남도 함양군 함양읍 교산리 845-10",
    "tel": "",
    "lat": 35.528891,
    "lng": 127.726262
  },
  {
    "name": "함양원광어린이집",
    "category": "유아시설",
    "type": "유아시설",
    "address": "경상남도 함양군 함양읍 용평리 899-3",
    "tel": "",
    "lat": 35.516774,
    "lng": 127.727581
  },
  {
    "name": "해달별어린이집",
    "category": "유아시설",
    "type": "유아시설",
    "address": "전라북도 장수군 장계면 장계리 797",
    "tel": "",
    "lat": 35.73179,
    "lng": 127.588001
  },
  {
    "name": "휴먼시아어린이집",
    "category": "유아시설",
    "type": "유아시설",
    "address": "null",
    "tel": "",
    "lat": 35.529301,
    "lng": 127.733559
  },
  {
    "name": "햇님어린이집",
    "category": "유아시설",
    "type": "유아시설",
    "address": "경상남도 함양군 함양읍 교산리 160",
    "tel": "",
    "lat": 35.522096,
    "lng": 127.73096
  },
  {
    "name": "금서보건지소",
    "category": "보건소",
    "type": "보건소",
    "address": "경상남도 산청군 금서면 동의보감로 1045-7",
    "tel": "055-970-7655",
    "lat": 35.461296,
    "lng": 127.792896
  },
  {
    "name": "산청군생초면보건지소",
    "category": "보건소",
    "type": "보건소",
    "address": "경상남도 산청군 생초면 새실로 5",
    "tel": "055-970-7654",
    "lat": 35.493635,
    "lng": 127.83694
  },
  {
    "name": "산청군생초면구평보건진료소",
    "category": "보건소",
    "type": "보건소",
    "address": "경상남도 산청군 생초면 새실로 455",
    "tel": "055-970-7683",
    "lat": 35.531476,
    "lng": 127.847974
  },
  {
    "name": "산내면보건지소",
    "category": "보건소",
    "type": "보건소",
    "address": "전북특별자치도 남원시 산내면 대정길 21",
    "tel": "063-620-5450",
    "lat": 35.419038,
    "lng": 127.623797
  },
  {
    "name": "아영면보건지소",
    "category": "보건소",
    "type": "보건소",
    "address": "전북특별자치도 남원시 아영면 아백로 384 (아영면)",
    "tel": "063-620-5440",
    "lat": 35.508794,
    "lng": 127.612786
  },
  {
    "name": "인월면보건지소",
    "category": "보건소",
    "type": "보건소",
    "address": "전북특별자치도 남원시 인월면 인월장터로 53 (인월면)",
    "tel": "063-620-5430",
    "lat": 35.464111,
    "lng": 127.599942
  },
  {
    "name": "건지보건진료소",
    "category": "보건소",
    "type": "보건소",
    "address": "전북특별자치도 남원시 인월면 유곡로 394-5 ",
    "tel": "063-626-5745",
    "lat": 35.493603,
    "lng": 127.619883
  },
  {
    "name": "봉대보건진료소",
    "category": "보건소",
    "type": "보건소",
    "address": "전북특별자치도 남원시 아영면 승전로 855 ",
    "tel": "063-636-2642",
    "lat": 35.481556,
    "lng": 127.5827
  },
  {
    "name": "장수군계남면보건지소",
    "category": "보건소",
    "type": "보건소",
    "address": "전북특별자치도 장수군 계남면 장안산로 11 ",
    "tel": "063-352-1254",
    "lat": 35.700047,
    "lng": 127.577594
  },
  {
    "name": "궁양보건진료소",
    "category": "보건소",
    "type": "보건소",
    "address": "전북특별자치도 장수군 계남면 장안산로 321 ",
    "tel": "063-352-0956",
    "lat": 35.676145,
    "lng": 127.592643
  },
  {
    "name": "동화보건진료소",
    "category": "보건소",
    "type": "보건소",
    "address": "전북특별자치도 장수군 번암면 지지로 619 ",
    "tel": "063-353-4186",
    "lat": 35.568611,
    "lng": 127.556516
  },
  {
    "name": "명덕보건진료소",
    "category": "보건소",
    "type": "보건소",
    "address": "전북특별자치도 장수군 장계면 명덕길 11-3 ",
    "tel": "063-352-0396",
    "lat": 35.725172,
    "lng": 127.634692
  },
  {
    "name": "장수군장계면대곡보건진료소",
    "category": "보건소",
    "type": "보건소",
    "address": "전북특별자치도 장수군 장계면 의암로 617 (대곡보건진료소)",
    "tel": "063-352-2108",
    "lat": 35.68615,
    "lng": 127.620998
  },
  {
    "name": "함양군보건소",
    "category": "보건소",
    "type": "보건소",
    "address": "경상남도 함양군 함양읍 한들로 141 (함양읍)",
    "tel": "055-960-5331",
    "lat": 35.519239,
    "lng": 127.731531
  },
  {
    "name": "마천면보건지소",
    "category": "보건소",
    "type": "보건소",
    "address": "경상남도 함양군 마천면 천왕봉로 1167 (마천면)",
    "tel": "055-960-5360",
    "lat": 35.396696,
    "lng": 127.665092
  },
  {
    "name": "백전면보건지소",
    "category": "보건소",
    "type": "보건소",
    "address": "경상남도 함양군 백전면 함양남서로 2355 (백전면)",
    "tel": "055-960-5368",
    "lat": 35.552389,
    "lng": 127.637037
  },
  {
    "name": "서상면보건지소",
    "category": "보건소",
    "type": "보건소",
    "address": "경상남도 함양군 서상면 서상로 307 (서상면)",
    "tel": "055-960-5367",
    "lat": 35.683096,
    "lng": 127.685526
  },
  {
    "name": "서하면보건지소",
    "category": "보건소",
    "type": "보건소",
    "address": "경상남도 함양군 서하면 송계앞길 6",
    "tel": "055-960-5366",
    "lat": 35.647491,
    "lng": 127.696354
  },
  {
    "name": "유림면보건지소",
    "category": "보건소",
    "type": "보건소",
    "address": "경상남도 함양군 유림면 천왕봉로 2872-3",
    "tel": "055-960-6274",
    "lat": 35.465759,
    "lng": 127.792197
  },
  {
    "name": "함양군보건소병곡면보건지소",
    "category": "보건소",
    "type": "보건소",
    "address": "경상남도 함양군 병곡면 송호서원길 7 ",
    "tel": "055-960-5369",
    "lat": 35.521122,
    "lng": 127.726978
  },
  {
    "name": "함양군보건소수동면보건지소",
    "category": "보건소",
    "type": "보건소",
    "address": "경상남도 함양군 수동면 수동내동길 15",
    "tel": "055-960-5363",
    "lat": 35.522819,
    "lng": 127.789056
  },
  {
    "name": "함양군보건소지곡면보건지소",
    "category": "보건소",
    "type": "보건소",
    "address": "경상남도 함양군 지곡면 병곡지곡로 959",
    "tel": "055-960-5364",
    "lat": 35.565365,
    "lng": 127.773686
  },
  {
    "name": "함양군보건소휴천면보건지소",
    "category": "보건소",
    "type": "보건소",
    "address": "경상남도 함양군 휴천면 함양남서로 513",
    "tel": "055-960-5361",
    "lat": 35.479944,
    "lng": 127.750465
  },
  {
    "name": "함양군안의면보건지소",
    "category": "보건소",
    "type": "보건소",
    "address": "경상남도 함양군 안의면 안의배움길 9-20",
    "tel": "055-960-5365",
    "lat": 35.631526,
    "lng": 127.818824
  },
  {
    "name": "마평보건진료소",
    "category": "보건소",
    "type": "보건소",
    "address": "경상남도 함양군 병곡면 마평길 40-10,",
    "tel": "055-964-0294",
    "lat": 35.559528,
    "lng": 127.711964
  },
  {
    "name": "실덕보건진료소",
    "category": "보건소",
    "type": "보건소",
    "address": "경상남도 함양군 마천면 덕전길 327-1,",
    "tel": "055-964-0292",
    "lat": 35.386181,
    "lng": 127.658925
  },
  {
    "name": "용추보건진료소",
    "category": "보건소",
    "type": "보건소",
    "address": "경상남도 함양군 안의면 신안길 69",
    "tel": "055-964-0265",
    "lat": 35.651991,
    "lng": 127.799518
  },
  {
    "name": "팔령보건진료소",
    "category": "보건소",
    "type": "보건소",
    "address": "경상남도 함양군 함양읍 원구길 51",
    "tel": "055-964-0296",
    "lat": 35.480381,
    "lng": 127.69047
  },
  {
    "name": "함양군마천면창원보건진료소",
    "category": "보건소",
    "type": "보건소",
    "address": "경상남도 함양군 마천면 창원길 34,",
    "tel": "055-960-5371",
    "lat": 35.421394,
    "lng": 127.681797
  },
  {
    "name": "함양군백전면백운산보건진료소",
    "category": "보건소",
    "type": "보건소",
    "address": "경상남도 함양군 백전면 운산길 12-7",
    "tel": "055-960-5379",
    "lat": 35.586363,
    "lng": 127.636064
  },
  {
    "name": "함양군서상면상남보건진료소",
    "category": "보건소",
    "type": "보건소",
    "address": "경상남도 함양군 서상면 조산안길 18,",
    "tel": "055-960-5378",
    "lat": 35.723386,
    "lng": 127.681478
  },
  {
    "name": "함양군서하면운곡보건진료소",
    "category": "보건소",
    "type": "보건소",
    "address": "경상남도 함양군 서하면 은행길 1,",
    "tel": "055-960-5377",
    "lat": 35.633958,
    "lng": 127.687617
  },
  {
    "name": "함양군수동면죽산보건진료소",
    "category": "보건소",
    "type": "보건소",
    "address": "경상남도 함양군 수동면 수남로 381",
    "tel": "055-960-5374",
    "lat": 35.543404,
    "lng": 127.819362
  },
  {
    "name": "함양군휴천면엄천보건진료소",
    "category": "보건소",
    "type": "보건소",
    "address": "경상남도 함양군 휴천면 한남안길 40",
    "tel": "055-960-5373",
    "lat": 35.441282,
    "lng": 127.745314
  },
  {
    "name": "함양성심병원",
    "category": "산재지정병원",
    "type": "산재지정병원",
    "address": "경남 함양군 함양읍 고운로 70 (함양성심병원)",
    "tel": "0559634322",
    "lat": 35.52048,
    "lng": 127.729261
  },
  {
    "name": "한마음연합의원",
    "category": "산재지정병원",
    "type": "산재지정병원",
    "address": "경남 함양군 함양읍 용평길 44 (한마음연합의원)",
    "tel": "0559642301",
    "lat": 35.519838,
    "lng": 127.731848
  },
  {
    "name": "서울가정의학과의원",
    "category": "병의원",
    "type": "의원",
    "address": "전북특별자치도 남원시 인월면 인월북2길 19",
    "tel": "063-636-9919",
    "lat": 35.461641,
    "lng": 127.603621
  },
  {
    "name": "인월가정의학과의원",
    "category": "병의원",
    "type": "의원",
    "address": "전북특별자치도 남원시 인월면 인월로 64-3,",
    "tel": "063-636-2069",
    "lat": 35.460906,
    "lng": 127.602417
  },
  {
    "name": "지산의원",
    "category": "병의원",
    "type": "의원",
    "address": "전북특별자치도 남원시 인월면 인월남길 4 (인월면)",
    "tel": "063-636-5565",
    "lat": 35.461158,
    "lng": 127.603492
  },
  {
    "name": "김문철내과의원",
    "category": "병의원",
    "type": "의원",
    "address": "전북특별자치도 장수군 장계면 한들로 90-1",
    "tel": "063-352-5575",
    "lat": 35.730939,
    "lng": 127.582066
  },
  {
    "name": "연세의원",
    "category": "병의원",
    "type": "의원",
    "address": "전북특별자치도 장수군 장계면 한들로 107",
    "tel": "063-352-1478",
    "lat": 35.730796,
    "lng": 127.581062
  },
  {
    "name": "중앙의원",
    "category": "병의원",
    "type": "의원",
    "address": "전북특별자치도 장수군 장계면 한들로 106 (장계면)",
    "tel": "063-351-0110",
    "lat": 35.731084,
    "lng": 127.583797
  },
  {
    "name": "참가정의학과의원",
    "category": "병의원",
    "type": "의원",
    "address": "전북특별자치도 장수군 장계면 한들로 93 (장계면)",
    "tel": "063-351-7277",
    "lat": 35.731284,
    "lng": 127.58225
  },
  {
    "name": "강남가정의학과의원",
    "category": "병의원",
    "type": "의원",
    "address": "경상남도 함양군 함양읍 함양로 1130 (함양읍)",
    "tel": "055-963-8050",
    "lat": 35.519694,
    "lng": 127.727494
  },
  {
    "name": "나은마취통증의학과의원",
    "category": "병의원",
    "type": "의원",
    "address": "경상남도 함양군 함양읍 용평중앙길 7-3, 2층",
    "tel": "055-963-2766",
    "lat": 35.518696,
    "lng": 127.727525
  },
  {
    "name": "동신가정의학과의원",
    "category": "병의원",
    "type": "의원",
    "address": "경상남도 함양군 함양읍 용평중앙길 10-1",
    "tel": "055-963-9470",
    "lat": 35.518415,
    "lng": 127.72795
  },
  {
    "name": "서상의원",
    "category": "병의원",
    "type": "의원",
    "address": "경상남도 함양군 서상면 서상로 255 (서상면)",
    "tel": "055-962-7275",
    "lat": 35.678906,
    "lng": 127.687294
  },
  {
    "name": "성모의원",
    "category": "병의원",
    "type": "의원",
    "address": "경상남도 함양군 함양읍 함양로 1128 (함양읍)",
    "tel": "055-963-7510",
    "lat": 35.519364,
    "lng": 127.727364
  },
  {
    "name": "속편한내과의원",
    "category": "병의원",
    "type": "의원",
    "address": "경상남도 함양군 함양읍 함양로 1174, 2층 202호",
    "tel": "055-820-8875",
    "lat": 35.523246,
    "lng": 127.72882
  },
  {
    "name": "안의중앙의원",
    "category": "병의원",
    "type": "의원",
    "address": "경상남도 함양군 안의면 종로길 13",
    "tel": "055-963-7620",
    "lat": 35.627876,
    "lng": 127.813306
  },
  {
    "name": "월화수정신건강의학과의원",
    "category": "병의원",
    "type": "의원",
    "address": "경상남도 함양군 함양읍 함양로 1173, 3층 304호 (반월빌딩)",
    "tel": "055-963-9819",
    "lat": 35.52357,
    "lng": 127.728134
  },
  {
    "name": "정해일의원",
    "category": "병의원",
    "type": "의원",
    "address": "경상남도 함양군 함양읍 함양로 1143, 3층",
    "tel": "055-963-4133",
    "lat": 35.520928,
    "lng": 127.727472
  },
  {
    "name": "제일가정의학과의원",
    "category": "병의원",
    "type": "의원",
    "address": "경상남도 함양군 함양읍 고운로 93",
    "tel": "055-963-5871",
    "lat": 35.521384,
    "lng": 127.731382
  },
  {
    "name": "중앙의원",
    "category": "병의원",
    "type": "의원",
    "address": "경상남도 함양군 함양읍 용평중앙길 12, 2층",
    "tel": "055-964-0414",
    "lat": 35.518484,
    "lng": 127.728074
  },
  {
    "name": "한마음연합의원",
    "category": "병의원",
    "type": "의원",
    "address": "경상남도 함양군 함양읍 용평길 44",
    "tel": "055-964-2301",
    "lat": 35.519819,
    "lng": 127.731869
  },
  {
    "name": "한사랑의원",
    "category": "병의원",
    "type": "의원",
    "address": "경상남도 함양군 안의면 광풍로 138",
    "tel": "055-963-7572",
    "lat": 35.628543,
    "lng": 127.81262
  },
  {
    "name": "함양맑은신경과의원",
    "category": "병의원",
    "type": "의원",
    "address": "경상남도 함양군 함양읍 고운로 60, 3층",
    "tel": "055-964-7900",
    "lat": 35.520411,
    "lng": 127.728027
  },
  {
    "name": "함양안과의원",
    "category": "병의원",
    "type": "의원",
    "address": "경상남도 함양군 함양읍 용평중앙길 10-1, 동신빌딩A 3층4층",
    "tel": "055-963-0875",
    "lat": 35.518654,
    "lng": 127.727233
  },
  {
    "name": "함양웰소아청소년과의원",
    "category": "병의원",
    "type": "의원",
    "address": "경상남도 함양군 함양읍 용평중앙길 4, 2층 (함양읍)",
    "tel": "055-962-2122",
    "lat": 35.518373,
    "lng": 127.727355
  },
  {
    "name": "함양튼튼정형외과의원",
    "category": "병의원",
    "type": "의원",
    "address": "경상남도 함양군 함양읍 고운로 60, 2층",
    "tel": "055-963-9933",
    "lat": 35.520261,
    "lng": 127.727998
  },
  {
    "name": "현대가정의원",
    "category": "병의원",
    "type": "의원",
    "address": "경상남도 함양군 안의면 금성길 3",
    "tel": "055-962-4589",
    "lat": 35.628513,
    "lng": 127.81179
  },
  {
    "name": "홍인의원",
    "category": "병의원",
    "type": "의원",
    "address": "경상남도 함양군 함양읍 고운로 77-4",
    "tel": "055-963-2050",
    "lat": 35.521231,
    "lng": 127.729721
  },
  {
    "name": "효자손마취통증의학과의원",
    "category": "병의원",
    "type": "의원",
    "address": "경상남도 함양군 함양읍 고운로 85, 2층",
    "tel": "055-964-9856",
    "lat": 35.518579,
    "lng": 127.725927
  },
  {
    "name": "함양성심병원",
    "category": "병의원",
    "type": "병원",
    "address": "경상남도 함양군 함양읍 고운로 70",
    "tel": "055-963-4322",
    "lat": 35.520468,
    "lng": 127.729248
  },
  {
    "name": "생초한의원",
    "category": "한방병의원",
    "type": "한의원",
    "address": "경상남도 산청군 생초면 생초로 64 (생초면)",
    "tel": "055-973-9782",
    "lat": 35.492412,
    "lng": 127.832836
  },
  {
    "name": "인월한의원",
    "category": "한방병의원",
    "type": "한의원",
    "address": "전북특별자치도 남원시 인월면 인월남길 3",
    "tel": "063-636-5591",
    "lat": 35.461039,
    "lng": 127.603753
  },
  {
    "name": "송한의원",
    "category": "한방병의원",
    "type": "한의원",
    "address": "전북특별자치도 장수군 장계면 장계천변길 55",
    "tel": "063-351-1611",
    "lat": 35.730828,
    "lng": 127.583573
  },
  {
    "name": "해나무한의원",
    "category": "한방병의원",
    "type": "한의원",
    "address": "전북특별자치도 장수군 장계면 한들로 113",
    "tel": "063-352-0152",
    "lat": 35.731444,
    "lng": 127.584378
  },
  {
    "name": "경희한의원",
    "category": "한방병의원",
    "type": "한의원",
    "address": "경상남도 함양군 함양읍 고운로 97",
    "tel": "055-964-7582",
    "lat": 35.521484,
    "lng": 127.731959
  },
  {
    "name": "금손한의원",
    "category": "한방병의원",
    "type": "한의원",
    "address": "경상남도 함양군 함양읍 용평길 31-4",
    "tel": "055-963-8575",
    "lat": 35.520155,
    "lng": 127.730652
  },
  {
    "name": "대원한의원",
    "category": "한방병의원",
    "type": "한의원",
    "address": "경상남도 함양군 함양읍 함양로 1151 (함양읍)",
    "tel": "055-963-3424",
    "lat": 35.521612,
    "lng": 127.727441
  },
  {
    "name": "상림한의원",
    "category": "한방병의원",
    "type": "한의원",
    "address": "경상남도 함양군 함양읍 함양남서로 1165, 1층",
    "tel": "055-963-7511",
    "lat": 35.515848,
    "lng": 127.7243
  },
  {
    "name": "오도재 내공신공 한의원",
    "category": "한방병의원",
    "type": "한의원",
    "address": "경상남도 함양군 마천면 지리산가는길 387",
    "tel": "055-960-8833",
    "lat": 35.432887,
    "lng": 127.68402
  },
  {
    "name": "원광한의원",
    "category": "한방병의원",
    "type": "한의원",
    "address": "경상남도 함양군 함양읍 고운로 82, 2층",
    "tel": "055-962-1075",
    "lat": 35.520914,
    "lng": 127.730422
  },
  {
    "name": "인덕한의원",
    "category": "한방병의원",
    "type": "한의원",
    "address": "경상남도 함양군 함양읍 용평중앙길 19-1",
    "tel": "055-964-4700",
    "lat": 35.518935,
    "lng": 127.72907
  },
  {
    "name": "인산한의원",
    "category": "한방병의원",
    "type": "한의원",
    "address": "경상남도 함양군 함양읍 고운로 107-1",
    "tel": "055-964-1191",
    "lat": 35.521744,
    "lng": 127.73314
  },
  {
    "name": "함양명인당한의원",
    "category": "한방병의원",
    "type": "한의원",
    "address": "경상남도 함양군 함양읍 교산1길 19",
    "tel": "055-964-7337",
    "lat": 35.521767,
    "lng": 127.729955
  },
  {
    "name": "홍익한의원",
    "category": "한방병의원",
    "type": "한의원",
    "address": "경상남도 함양군 함양읍 용평1길 13",
    "tel": "055-963-3710",
    "lat": 35.519593,
    "lng": 127.729283
  },
  {
    "name": "안의한의원",
    "category": "한방병의원",
    "type": "한의원",
    "address": "경상남도 함양군 안의면 강변로 283",
    "tel": "055-963-6111",
    "lat": 35.627766,
    "lng": 127.81407
  },
  {
    "name": "인월치과의원",
    "category": "치과병의원",
    "type": "치과의원",
    "address": "전북특별자치도 남원시 인월면 인월로 68",
    "tel": "063-636-2723",
    "lat": 35.460931,
    "lng": 127.602553
  },
  {
    "name": "성모치과의원",
    "category": "치과병의원",
    "type": "치과의원",
    "address": "전북특별자치도 장수군 장계면 서동로 36",
    "tel": "063-353-1392",
    "lat": 35.731733,
    "lng": 127.584172
  },
  {
    "name": "우리치과의원",
    "category": "치과병의원",
    "type": "치과의원",
    "address": "전북특별자치도 장수군 장계면 한들로 117-1",
    "tel": "063-352-0056",
    "lat": 35.731466,
    "lng": 127.584908
  },
  {
    "name": "장계치과의원",
    "category": "치과병의원",
    "type": "치과의원",
    "address": "전북특별자치도 장수군 장계면 한들로 80 (장계면)",
    "tel": "063-353-2080",
    "lat": 35.731239,
    "lng": 127.580558
  },
  {
    "name": "단아미소치과의원",
    "category": "치과병의원",
    "type": "치과의원",
    "address": "경상남도 함양군 함양읍 함양로 1116, 2층",
    "tel": "055-962-2875",
    "lat": 35.518231,
    "lng": 127.726912
  },
  {
    "name": "박애치과의원",
    "category": "치과병의원",
    "type": "치과의원",
    "address": "경상남도 함양군 함양읍 용평중앙길 2-1",
    "tel": "055-963-4058",
    "lat": 35.517814,
    "lng": 127.726725
  },
  {
    "name": "삼성치과의원",
    "category": "치과병의원",
    "type": "치과의원",
    "address": "경상남도 함양군 함양읍 고운로 97, 2층",
    "tel": "055-962-2879",
    "lat": 35.521485,
    "lng": 127.73196
  },
  {
    "name": "상아치과의원",
    "category": "치과병의원",
    "type": "치과의원",
    "address": "경상남도 함양군 함양읍 용평길 2",
    "tel": "055-964-0038",
    "lat": 35.519474,
    "lng": 127.727414
  },
  {
    "name": "서울이플란트치과의원",
    "category": "치과병의원",
    "type": "치과의원",
    "address": "경상남도 함양군 함양읍 고운로 76",
    "tel": "055-962-0660",
    "lat": 35.520597,
    "lng": 127.729068
  },
  {
    "name": "안의치과의원",
    "category": "치과병의원",
    "type": "치과의원",
    "address": "경상남도 함양군 안의면 광풍로 142",
    "tel": "055-963-6108",
    "lat": 35.628797,
    "lng": 127.813063
  },
  {
    "name": "연세누가치과의원",
    "category": "치과병의원",
    "type": "치과의원",
    "address": "경상남도 함양군 함양읍 교산3길 3, 연세누가치과의원",
    "tel": "055-820-7500",
    "lat": 35.521233,
    "lng": 127.73008
  },
  {
    "name": "지리산치과의원",
    "category": "치과병의원",
    "type": "치과의원",
    "address": "경상남도 함양군 함양읍 용평중앙길 12, 삼성생명 3층",
    "tel": "055-964-8275",
    "lat": 35.518944,
    "lng": 127.731254
  },
  {
    "name": "현대치과의원",
    "category": "치과병의원",
    "type": "치과의원",
    "address": "경상남도 함양군 함양읍 용평중앙길 10, 2층 (동신빌딩B)",
    "tel": "055-963-1280",
    "lat": 35.518365,
    "lng": 127.727887
  },
  {
    "name": "효치과의원",
    "category": "치과병의원",
    "type": "치과의원",
    "address": "경상남도 함양군 함양읍 함양로 1126, 2층",
    "tel": "055-962-2922",
    "lat": 35.519109,
    "lng": 127.727251
  },
  {
    "name": "터미널약국",
    "category": "약국",
    "type": "약국",
    "address": "전북특별자치도 장수군 장계면 한들로 90-1",
    "tel": "063-352-5588",
    "lat": 35.730939,
    "lng": 127.582066
  },
  {
    "name": "수동약국",
    "category": "약국",
    "type": "약국",
    "address": "경상남도 함양군 수동면 변동길 9-1",
    "tel": "055-962-1088",
    "lat": 35.521883,
    "lng": 127.786102
  },
  {
    "name": "유약국",
    "category": "약국",
    "type": "약국",
    "address": "전북특별자치도 장수군 장계면 한들로 107",
    "tel": "063-352-0786",
    "lat": 35.73095,
    "lng": 127.581279
  },
  {
    "name": "파란약국",
    "category": "약국",
    "type": "약국",
    "address": "경상남도 함양군 함양읍 고운로 93",
    "tel": "055-963-0020",
    "lat": 35.521433,
    "lng": 127.731408
  },
  {
    "name": "한들약국",
    "category": "약국",
    "type": "약국",
    "address": "경상남도 함양군 함양읍 용평1길 3",
    "tel": "055-963-3298",
    "lat": 35.520557,
    "lng": 127.729058
  },
  {
    "name": "한솔약국",
    "category": "약국",
    "type": "약국",
    "address": "경상남도 함양군 안의면 광풍로 138-1",
    "tel": "055-963-8604",
    "lat": 35.628593,
    "lng": 127.812683
  },
  {
    "name": "늘푸른약국",
    "category": "약국",
    "type": "약국",
    "address": "경상남도 함양군 함양읍 용평길 41",
    "tel": "055-962-5333",
    "lat": 35.520138,
    "lng": 127.731639
  },
  {
    "name": "성실약국",
    "category": "약국",
    "type": "약국",
    "address": "경상남도 함양군 함양읍 용평중앙길 10-1 (동신빌딩A)",
    "tel": "055-963-7995",
    "lat": 35.518405,
    "lng": 127.727959
  },
  {
    "name": "함양온누리약국",
    "category": "약국",
    "type": "약국",
    "address": "경상남도 함양군 함양읍 함양로 1174, 104호",
    "tel": "055-963-2147",
    "lat": 35.523246,
    "lng": 127.72882
  },
  {
    "name": "함양약국",
    "category": "약국",
    "type": "약국",
    "address": "경상남도 함양군 함양읍 용평중앙길 5, 1층",
    "tel": "055-962-0907",
    "lat": 35.518635,
    "lng": 127.727205
  },
  {
    "name": "사랑약국",
    "category": "약국",
    "type": "약국",
    "address": "경상남도 함양군 함양읍 용평중앙길 12 (함양읍)",
    "tel": "055-964-0400",
    "lat": 35.518458,
    "lng": 127.728087
  },
  {
    "name": "메디팜보민당약국",
    "category": "약국",
    "type": "약국",
    "address": "경상남도 함양군 서상면 서상로 278",
    "tel": "055-963-0018",
    "lat": 35.680877,
    "lng": 127.687346
  },
  {
    "name": "정보약국",
    "category": "약국",
    "type": "약국",
    "address": "경상남도 함양군 함양읍 고운로 58-1 (함양읍)",
    "tel": "055-964-9998",
    "lat": 35.520388,
    "lng": 127.727867
  },
  {
    "name": "인월약국",
    "category": "약국",
    "type": "약국",
    "address": "전북특별자치도 남원시 인월면 인월북2길 19",
    "tel": "063-632-1199",
    "lat": 35.461637,
    "lng": 127.603621
  },
  {
    "name": "제일약국",
    "category": "약국",
    "type": "약국",
    "address": "경상남도 함양군 함양읍 용평중앙길 7-3",
    "tel": "055-963-4545",
    "lat": 35.518692,
    "lng": 127.727476
  },
  {
    "name": "서울약국",
    "category": "약국",
    "type": "약국",
    "address": "경상남도 함양군 안의면 종로길 13 (안의면)",
    "tel": "055-962-0700",
    "lat": 35.627876,
    "lng": 127.813306
  },
  {
    "name": "행복약국",
    "category": "약국",
    "type": "약국",
    "address": "경상남도 함양군 함양읍 용평1길 6",
    "tel": "055-963-2299",
    "lat": 35.520335,
    "lng": 127.728895
  },
  {
    "name": "인월백제약국",
    "category": "약국",
    "type": "약국",
    "address": "전북특별자치도 남원시 인월면 인월로 68",
    "tel": "063-636-0664",
    "lat": 35.461019,
    "lng": 127.602589
  },
  {
    "name": "백세온누리약국",
    "category": "약국",
    "type": "약국",
    "address": "경상남도 함양군 안의면 금성길 4",
    "tel": "055-962-0031",
    "lat": 35.628738,
    "lng": 127.812092
  },
  {
    "name": "새동산약국",
    "category": "약국",
    "type": "약국",
    "address": "경상남도 함양군 함양읍 용평길 43",
    "tel": "055-964-0067",
    "lat": 35.519987,
    "lng": 127.732127
  },
  {
    "name": "독일약국",
    "category": "약국",
    "type": "약국",
    "address": "전북특별자치도 장수군 장계면 한들로 108",
    "tel": "063-351-0276",
    "lat": 35.731066,
    "lng": 127.584013
  },
  {
    "name": "장계백제약국",
    "category": "약국",
    "type": "약국",
    "address": "전북특별자치도 장수군 장계면 한들로 93",
    "tel": "063-351-1333",
    "lat": 35.731475,
    "lng": 127.582292
  },
  {
    "name": "하약국",
    "category": "약국",
    "type": "약국",
    "address": "경상남도 함양군 함양읍 함양로 1128",
    "tel": "055-963-3535",
    "lat": 35.519421,
    "lng": 127.727333
  },
  {
    "name": "평화약국",
    "category": "약국",
    "type": "약국",
    "address": "경상남도 함양군 함양읍 한들로 143",
    "tel": "055-964-1213",
    "lat": 35.519721,
    "lng": 127.732107
  },
  {
    "name": "미래온누리약국",
    "category": "약국",
    "type": "약국",
    "address": "경상남도 함양군 함양읍 학사루길 20",
    "tel": "055-963-9886",
    "lat": 35.51896,
    "lng": 127.726032
  },
  {
    "name": "동해물약국",
    "category": "약국",
    "type": "약국",
    "address": "경상남도 함양군 함양읍 용평중앙길 18-1 (동해물약국)",
    "tel": "055-964-1256",
    "lat": 35.518519,
    "lng": 127.728701
  },
  {
    "name": "삼성약국",
    "category": "약국",
    "type": "약국",
    "address": "경상남도 함양군 함양읍 고운로 77-4",
    "tel": "055-964-2700",
    "lat": 35.52127,
    "lng": 127.729722
  }
]