[{"name": "천전동제1투", "dong": "천전동", "place": "진주창작유등체험관(1층)", "addr": "경상남도 진주시 망경북길43번길 15 (망경동)", "floor": "1층", "lat": 35.165847, "lng": 128.084864, "approx": true}, {"name": "초장동제1투", "dong": "초장동", "place": "초장동행정복지센터(1층)", "addr": "경상남도 진주시 초장로14번길 14 (초전동)", "floor": "1층", "lat": 35.219638, "lng": 128.094368, "approx": true}, {"name": "충무공동제1투", "dong": "충무공동", "place": "갈전초등학교(1층, 로비)", "addr": "경상남도 진주시 사들로 173 (충무공동)", "floor": "1층", "lat": 35.169286, "lng": 128.136461, "approx": true}, {"name": "판문동제1투", "dong": "판문동", "place": "평거주공2차아파트 관리사무소(1층, 현관)", "addr": "경상남도 진주시 진양호로125번길 4-1 (평거동)", "floor": "1층", "lat": 35.183203, "lng": 128.027036, "approx": true}, {"name": "평거동제1투", "dong": "평거동", "place": "진주시가족센터[구.다문화가족지원센터](1층)", "addr": "경상남도 진주시 진양호로 305 (신안동)", "floor": "1층", "lat": 35.174023, "lng": 128.059102, "approx": true}, {"name": "하대동제1투", "dong": "하대동", "place": "한국폴리텍대학 진주캠퍼스 미션홀(1층, 세미나실)", "addr": "경상남도 진주시 모덕로 299 (하대동)", "floor": "1층", "lat": 35.196213, "lng": 128.115089, "approx": true}, {"name": "이반성면투표소", "dong": "이반성면", "place": "이반성면사무소(1층)", "addr": "경상남도 진주시 이반성면 오봉산로 719", "floor": "1층", "lat": 35.171403, "lng": 128.33068, "approx": true}, {"name": "이현동제1투", "dong": "이현동", "place": "이현하이클래스웰가 경로당(1층)", "addr": "경상남도 진주시 진주대로 1317 (이현동, 이현하이클래스웰가아파트)", "floor": "1층", "lat": 35.208959, "lng": 128.05857, "approx": true}, {"name": "일반성면투표소", "dong": "일반성면", "place": "일반성면사무소(4층, 회의실)", "addr": "경상남도 진주시 일반성면 동부로1959번길 2", "floor": "3층이상", "lat": 35.156876, "lng": 128.294586, "approx": true}, {"name": "정촌면제1투", "dong": "정촌면", "place": "정촌면사무소(1층)", "addr": "경상남도 진주시 정촌면 정촌로 57", "floor": "1층", "lat": 35.121826, "lng": 128.104246, "approx": true}, {"name": "중앙동제1투", "dong": "중앙동", "place": "중앙동행정복지센터(1층)", "addr": "경상남도 진주시 진주대로1032번길 14 (동성동)", "floor": "1층", "lat": 35.187528, "lng": 128.099077, "approx": true}, {"name": "지수면투표소", "dong": "지수면", "place": "지수면사무소(1층, 소회의실)", "addr": "경상남도 진주시 지수면 지수로 483", "floor": "1층", "lat": 35.236012, "lng": 128.266367, "approx": true}, {"name": "진성면투표소", "dong": "진성면", "place": "진성면사무소(1층, 회의실)", "addr": "경상남도 진주시 진성면 동부로 1329", "floor": "1층", "lat": 35.179602, "lng": 128.23213, "approx": true}, {"name": "집현면투표소", "dong": "집현면", "place": "집현초등학교 체육관(2층)", "addr": "경상남도 진주시 집현면 지내길 271", "floor": "2층", "lat": 35.251706, "lng": 128.073515, "approx": true}, {"name": "상대동제1투", "dong": "상대동", "place": "구.상대1동주민센터(1층)", "addr": "경상남도 진주시 돗골로 168 (상대동)", "floor": "1층", "lat": 35.186304, "lng": 128.118591, "approx": true}, {"name": "상봉동제1투", "dong": "상봉동", "place": "진주여자고등학교 체육관(1층)", "addr": "경상남도 진주시 창렬로 185 (상봉동)", "floor": "1층", "lat": 35.212235, "lng": 128.073924, "approx": true}, {"name": "상평동제1투", "dong": "상평동", "place": "진주시생활체육관(1층)", "addr": "경상남도 진주시 공단로 59 (상평동)", "floor": "1층", "lat": 35.178362, "lng": 128.11305, "approx": true}, {"name": "성북동제1투", "dong": "성북동", "place": "청소년상담복지센터(구.성지현장민원실)(1층)", "addr": "경상남도 진주시 북장대로6번길 9 (인사동)", "floor": "1층", "lat": 35.189013, "lng": 128.071064, "approx": true}, {"name": "수곡면투표소", "dong": "수곡면", "place": "수곡면사무소(1층, 회의실)", "addr": "경상남도 진주시 수곡면 곤수로 972", "floor": "1층", "lat": 35.198071, "lng": 127.943406, "approx": true}, {"name": "신안동제1투", "dong": "신안동", "place": "신안초등학교 강당(1층)", "addr": "경상남도 진주시 평거로139번길 8 (신안동)", "floor": "1층", "lat": 35.178284, "lng": 128.077584, "approx": true}, {"name": "대평면투표소", "dong": "대평면", "place": "대평면 다목적체육관(1층)", "addr": "경상남도 진주시 대평면 한들길 2-9", "floor": "1층", "lat": 35.195089, "lng": 127.97484, "approx": true}, {"name": "명석면투표소", "dong": "명석면", "place": "명석초등학교 체육관(1층)", "addr": "경상남도 진주시 명석면 광제산로 23", "floor": "1층", "lat": 35.254426, "lng": 128.015507, "approx": true}, {"name": "문산읍제1투", "dong": "문산읍", "place": "문산읍주민자치센터(1층, 어울마당)", "addr": "경상남도 진주시 문산읍 동부로587번길 12", "floor": "1층", "lat": 35.142822, "lng": 128.191265, "approx": true}, {"name": "미천면투표소", "dong": "미천면", "place": "미천면주민자치센터(1층, 회의실)", "addr": "경상남도 진주시 미천면 오방로 729", "floor": "1층", "lat": 35.310722, "lng": 128.125529, "approx": true}, {"name": "사봉면투표소", "dong": "사봉면", "place": "사봉면사무소 체력단련실(1층)", "addr": "경상남도 진주시 사봉면 사군로 105", "floor": "1층", "lat": 35.210101, "lng": 128.293346, "approx": true}, {"name": "가호동제1투", "dong": "가호동", "place": "가호동행정복지센터(신청사, 1층)", "addr": "경상남도 진주시 진주역로95번길 6 (가좌동)", "floor": "1층", "lat": 35.14508, "lng": 128.121844, "approx": true}, {"name": "금곡면투표소", "dong": "금곡면", "place": "금곡면사무소(1층)", "addr": "경상남도 진주시 금곡면 월아산로 140", "floor": "1층", "lat": 35.096532, "lng": 128.180256, "approx": true}, {"name": "금산면제1투", "dong": "금산면", "place": "금산면사무소(1층)", "addr": "경상남도 진주시 금산면 금산로 107", "floor": "1층", "lat": 35.216123, "lng": 128.169751, "approx": true}, {"name": "내동면투표소", "dong": "내동면", "place": "내동면사무소 주민자치센터(1층)", "addr": "경상남도 진주시 내동면 순환로 389", "floor": "1층", "lat": 35.140242, "lng": 128.034318, "approx": true}, {"name": "대곡면투표소", "dong": "대곡면", "place": "대곡고등학교 다목적강당(1층)", "addr": "경상남도 진주시 대곡면 남강로2438번길 39", "floor": "1층", "lat": 35.263633, "lng": 128.178933, "approx": true}, {"name": "이현동제2투", "dong": "이현동", "place": "촉석초등학교(1층, 방과후교실)", "addr": "경상남도 진주시 평거로 259 (이현동)", "floor": "1층", "lat": 35.196239, "lng": 128.06013, "approx": true}, {"name": "정촌면제2투", "dong": "정촌면", "place": "예하초등학교(1층, 역사관 앞 복도)", "addr": "경상남도 진주시 정촌면 삼일로 50", "floor": "1층", "lat": 35.118766, "lng": 128.110226, "approx": true}, {"name": "중앙동제2투", "dong": "중앙동", "place": "봉래초등학교 체육관(1층)", "addr": "경상남도 진주시 의병로 265 (봉래동)", "floor": "1층", "lat": 35.200548, "lng": 128.081037, "approx": true}, {"name": "천전동제2투", "dong": "천전동", "place": "칠암현장민원실(1층)", "addr": "경상남도 진주시 강남로177번길 30-7 (칠암동)", "floor": "1층", "lat": 35.172247, "lng": 128.077364, "approx": true}, {"name": "초장동제2투", "dong": "초장동", "place": "금성초등학교 체육관(2층)", "addr": "경상남도 진주시 말티고개로123번길 19 (초전동)", "floor": "2층", "lat": 35.211178, "lng": 128.086508, "approx": true}, {"name": "충무공동제2투", "dong": "충무공동", "place": "문산중학교(1층, 탁구실)", "addr": "경상남도 진주시 충의로 68 (충무공동)", "floor": "1층", "lat": 35.174146, "lng": 128.152061, "approx": true}, {"name": "판문동제2투", "dong": "판문동", "place": "평거초등학교(1층, 과학실)", "addr": "경상남도 진주시 진양호로51번길 16 (판문동)", "floor": "1층", "lat": 35.172083, "lng": 128.025396, "approx": true}, {"name": "평거동제2투", "dong": "평거동", "place": "평거휴먼시아3단지(지하1층, 새마을문고)", "addr": "경상남도 진주시 새평거로 111 (평거동, 평거휴먼시아3단지)", "floor": "지하", "lat": 35.174983, "lng": 128.073882, "approx": true}, {"name": "하대동제2투", "dong": "하대동", "place": "동진초등학교(2층, 다목적강당) ", "addr": "경상남도 진주시 도동로184번길 13 (하대동)", "floor": "2층", "lat": 35.195793, "lng": 128.115769, "approx": true}, {"name": "상대동제2투", "dong": "상대동", "place": "남강초등학교 체육관(1층)", "addr": "경상남도 진주시 모덕로 99 (상대동)", "floor": "1층", "lat": 35.181384, "lng": 128.101751, "approx": true}, {"name": "상봉동제2투", "dong": "상봉동", "place": "진주봉원중학교 체육관(1층)", "addr": "경상남도 진주시 진주성로 169 (상봉동)", "floor": "1층", "lat": 35.209755, "lng": 128.068404, "approx": true}, {"name": "상평동제2투", "dong": "상평동", "place": "삼현여자고등학교 강당(1층)", "addr": "경상남도 진주시 돗골로 95 (상평동)", "floor": "1층", "lat": 35.162822, "lng": 128.11661, "approx": true}, {"name": "성북동제2투", "dong": "성북동", "place": "성북동행정복지센터(1층)", "addr": "경상남도 진주시 진주대로1143번길 3 (봉곡동)", "floor": "1층", "lat": 35.192433, "lng": 128.067584, "approx": true}, {"name": "신안동제2투", "dong": "신안동", "place": "신안동행정복지센터(1층)", "addr": "경상남도 진주시 진양호로 360 (신안동)", "floor": "1층", "lat": 35.186524, "lng": 128.067724, "approx": true}, {"name": "가호동제2투", "dong": "가호동", "place": "정촌초등학교 강당(1층)", "addr": "경상남도 진주시 동부로 11 (가좌동)", "floor": "1층", "lat": 35.16112, "lng": 128.111804, "approx": true}, {"name": "금산면제2투", "dong": "금산면", "place": "금산초등학교(1층, 급식소)", "addr": "경상남도 진주시 금산면 금산로 75", "floor": "1층", "lat": 35.209843, "lng": 128.169411, "approx": true}, {"name": "문산읍제2투", "dong": "문산읍", "place": "문산초등학교 실내체육관(1층)", "addr": "경상남도 진주시 문산읍 소문길 11", "floor": "1층", "lat": 35.153782, "lng": 128.189205, "approx": true}, {"name": "가호동제3투", "dong": "가호동", "place": "가좌주공아파트 제1관리소(1층)", "addr": "경상남도 진주시 가호로 26 (가좌동, 진주가좌주공아파트)", "floor": "1층", "lat": 35.15922, "lng": 128.128204, "approx": true}, {"name": "금산면제3투", "dong": "금산면", "place": "흥한골든빌 노인정(1층)", "addr": "경상남도 진주시 금산면 금산로 123 (금산흥한골든빌)", "floor": "1층", "lat": 35.201803, "lng": 128.162691, "approx": true}, {"name": "상대동제3투", "dong": "상대동", "place": "시의회홀(1층, 로비)", "addr": "경상남도 진주시 동진로 155 (상대동)", "floor": "1층", "lat": 35.183604, "lng": 128.101911, "approx": true}, {"name": "상봉동제3투", "dong": "상봉동", "place": "상봉동행정복지센터(2층, 회의실)", "addr": "경상남도 진주시 진주성로 111 (상봉동)", "floor": "2층", "lat": 35.207715, "lng": 128.082804, "approx": true}, {"name": "상평동제3투", "dong": "상평동", "place": "진주기계공업고등학교 본관 A동 동편로비(1층)", "addr": "경상남도 진주시 공단로43번길 25 (상평동)", "floor": "1층", "lat": 35.173722, "lng": 128.11883, "approx": true}, {"name": "성북동제3투", "dong": "성북동", "place": "봉곡초등학교 강당(1층)", "addr": "경상남도 진주시 북장대로36번길 8 (봉곡동)", "floor": "1층", "lat": 35.186913, "lng": 128.077984, "approx": true}, {"name": "신안동제3투", "dong": "신안동", "place": "진주학생체육관(1층)", "addr": "경상남도 진주시 신안로 121 (신안동)", "floor": "1층", "lat": 35.175664, "lng": 128.075744, "approx": true}, {"name": "이현동제3투", "dong": "이현동", "place": "대아고등학교 강당(1층)", "addr": "경상남도 진주시 서장대로185번길 14 (이현동)", "floor": "1층", "lat": 35.205759, "lng": 128.05761, "approx": true}, {"name": "중앙동제3투", "dong": "중앙동", "place": "석류클럽(구.옥봉현장민원실)(1층)", "addr": "경상남도 진주시 진양호로614번길 5-3 (옥봉동)", "floor": "1층", "lat": 35.198528, "lng": 128.087497, "approx": true}, {"name": "천전동제3투", "dong": "천전동", "place": "천전초등학교 다목적실(1층)", "addr": "경상남도 진주시 진주대로954번길 24 (칠암동)", "floor": "1층", "lat": 35.180587, "lng": 128.079164, "approx": true}, {"name": "초장동제3투", "dong": "초장동", "place": "초전푸르지오2단지 유즈센터(지하1층, 로비)", "addr": "경상남도 진주시 초장로14번길 29 (초전동, 진주초전푸르지오2단지)", "floor": "지하", "lat": 35.205018, "lng": 128.094128, "approx": true}, {"name": "충무공동제3투", "dong": "충무공동", "place": "충무공초등학교(1층, 로비)", "addr": "경상남도 진주시 사들로 70 (충무공동)", "floor": "1층", "lat": 35.168486, "lng": 128.148381, "approx": true}, {"name": "판문동제3투", "dong": "판문동", "place": "서진초등학교(1층, 현관)", "addr": "경상남도 진주시 새평거로 85 (평거동)", "floor": "1층", "lat": 35.173703, "lng": 128.034896, "approx": true}, {"name": "평거동제3투", "dong": "평거동", "place": "배영초등학교 체육관(1층)", "addr": "경상남도 진주시 석갑로 28 (신안동)", "floor": "1층", "lat": 35.183143, "lng": 128.062462, "approx": true}, {"name": "하대동제3투", "dong": "하대동", "place": "진명여자중학교(1층, 1-1반)", "addr": "경상남도 진주시 남강로1413번길 34 (하대동)", "floor": "1층", "lat": 35.183373, "lng": 128.107489, "approx": true}, {"name": "중앙동제4투", "dong": "중앙동", "place": "옥봉루(2층)", "addr": "경상남도 진주시 진산로9번길 13-4 (옥봉동)", "floor": "2층", "lat": 35.188028, "lng": 128.097057, "approx": true}, {"name": "천전동제4투", "dong": "천전동", "place": "경상국립대학교칠암캠퍼스 간호대학 복합교육센터(1층, 로비)", "addr": "경상남도 진주시 진주대로816번길 15 (주약동)", "floor": "1층", "lat": 35.167967, "lng": 128.079224, "approx": true}, {"name": "초장동제4투", "dong": "초장동", "place": "장재초등학교(1층, 로비)", "addr": "경상남도 진주시 초북로 66 (초전동)", "floor": "1층", "lat": 35.220978, "lng": 128.093808, "approx": true}, {"name": "충무공동제4투", "dong": "충무공동", "place": "무지개초등학교(1층, 급식소 앞 로비)", "addr": "경상남도 진주시 영천강로119번길 37 (충무공동)", "floor": "1층", "lat": 35.185906, "lng": 128.147181, "approx": true}, {"name": "판문동제4투", "dong": "판문동", "place": "엠코타운 더프라하 커뮤니티센터2(1층, 멀티룸)", "addr": "경상남도 진주시 새평거로 30 (평거동, 엠코타운더프라하)", "floor": "1층", "lat": 35.172143, "lng": 128.035296, "approx": true}, {"name": "평거동제4투", "dong": "평거동", "place": "제일중학교(1층, 3-4반)", "addr": "경상남도 진주시 평거로 60 (평거동)", "floor": "1층", "lat": 35.180003, "lng": 128.059882, "approx": true}, {"name": "하대동제4투", "dong": "하대동", "place": "도동초등학교 강당(1층)", "addr": "경상남도 진주시 대신로 324 (하대동)", "floor": "1층", "lat": 35.201653, "lng": 128.121229, "approx": true}, {"name": "가호동제4투", "dong": "가호동", "place": "가좌초등학교 후관(1층, 다목적실)", "addr": "경상남도 진주시 내동로348번길 17 (가좌동)", "floor": "1층", "lat": 35.16326, "lng": 128.125004, "approx": true}, {"name": "금산면제4투", "dong": "금산면", "place": "금호초등학교(1층, 현관)", "addr": "경상남도 진주시 금산면 중천로67번길 25", "floor": "1층", "lat": 35.212403, "lng": 128.162071, "approx": true}, {"name": "상대동제4투", "dong": "상대동", "place": "진주동부농업협동조합(3층,구예식장)", "addr": "경상남도 진주시 대신로 301 (상대동)", "floor": "3층이상", "lat": 35.183644, "lng": 128.112151, "approx": true}, {"name": "상봉동제4투", "dong": "상봉동", "place": "진주시민방위체험센터(1층)", "addr": "경상남도 진주시 상봉대룡길 42 (상봉동)", "floor": "1층", "lat": 35.203175, "lng": 128.077784, "approx": true}, {"name": "가호동제5투", "dong": "가호동", "place": "에일린의 뜰 아파트(지하1층, 중앙광장)", "addr": "경상남도 진주시 강변길 31 (가좌동, 가호 에일린의 뜰 아파트)", "floor": "지하", "lat": 35.16102, "lng": 128.112084, "approx": true}, {"name": "상대동제5투", "dong": "상대동", "place": "진주축산업협동조합(1층)", "addr": "경상남도 진주시 동진로 213 (상대동)", "floor": "1층", "lat": 35.176884, "lng": 128.100511, "approx": true}, {"name": "천전동제5투", "dong": "천전동", "place": "천전동행정복지센터(2층, 회의실)", "addr": "경상남도 진주시 망경남길44번길 22 (망경동)", "floor": "2층", "lat": 35.168347, "lng": 128.077144, "approx": true}, {"name": "초장동제5투", "dong": "초장동", "place": "힐스테이트초전 커뮤니티센터(1층, 로비) ", "addr": "경상남도 진주시 초북로 95 (초전동, 힐스테이트 초전)", "floor": "1층", "lat": 35.220158, "lng": 128.092128, "approx": true}, {"name": "충무공동제5투", "dong": "충무공동", "place": "대곡중학교(1층, 로비)", "addr": "경상남도 진주시 소호로 8 (충무공동)", "floor": "1층", "lat": 35.185926, "lng": 128.153141, "approx": true}, {"name": "판문동제5투", "dong": "판문동", "place": "수정초등학교(1층, 현관)", "addr": "경상남도 진주시 진양호로84번길 20 (평거동)", "floor": "1층", "lat": 35.185903, "lng": 128.023116, "approx": true}, {"name": "평거동제5투", "dong": "평거동", "place": "신진초등학교(1층, 과학실앞)", "addr": "경상남도 진주시 신평공원길57번길 19 (평거동)", "floor": "1층", "lat": 35.185183, "lng": 128.068082, "approx": true}, {"name": "하대동제5투", "dong": "하대동", "place": "진주제일여자고등학교 강당(1층)", "addr": "경상남도 진주시 하대로34번길 11-9 (하대동)", "floor": "1층", "lat": 35.184193, "lng": 128.103549, "approx": true}, {"name": "가호동제6투", "dong": "가호동", "place": "센트럴웰가(1층, 탁구장)", "addr": "경상남도 진주시 진주역로73번길 33 (가좌동, 센트럴웰가)", "floor": "1층", "lat": 35.15552, "lng": 128.118684, "approx": true}, {"name": "천전동제6투", "dong": "천전동", "place": "망경초등학교 다목적실(2층)", "addr": "경상남도 진주시 천수로 175 (망경동)", "floor": "2층", "lat": 35.167027, "lng": 128.076064, "approx": true}, {"name": "하대동제6투", "dong": "하대동", "place": "진주중앙고등학교 강당(1층)", "addr": "경상남도 진주시 하대로 59 (하대동)", "floor": "1층", "lat": 35.199893, "lng": 128.114049, "approx": true}, {"name": "천전동제7투", "dong": "천전동", "place": "한주럭키아파트 경로당(1층)", "addr": "경상남도 진주시 진주대로 859 (주약동, 한주럭키아파트)", "floor": "1층", "lat": 35.166807, "lng": 128.079244, "approx": true}, {"name": "천전동제8투", "dong": "천전동", "place": "주약초등학교 B동(1층, 돌봄교실)", "addr": "경상남도 진주시 천수로 64 (주약동)", "floor": "1층", "lat": 35.173927, "lng": 128.091764, "approx": true}]