[{"name": "찌니", "category": "음식", "subCategory": "기타 간이", "dong": "문산읍", "adongCd": "48170250", "lng": 128.164421277126, "lat": 35.1638803055897}, {"name": "제이헤어살롱", "category": "수리·개인", "subCategory": "이용·미용", "dong": "문산읍", "adongCd": "48170250", "lng": 128.167985184309, "lat": 35.1705696545412}, {"name": "시장할인마트", "category": "소매", "subCategory": "종합 소매", "dong": "문산읍", "adongCd": "48170250", "lng": 128.168026248168, "lat": 35.1703709737578}, {"name": "청담", "category": "소매", "subCategory": "의약·화장품 소매", "dong": "문산읍", "adongCd": "48170250", "lng": 128.162455529019, "lat": 35.1691988046965}, {"name": "국제모터스", "category": "소매", "subCategory": "자동차 부품 소매", "dong": "문산읍", "adongCd": "48170250", "lng": 128.201426352813, "lat": 35.1695665938544}, {"name": "씨유뉴진주", "category": "소매", "subCategory": "종합 소매", "dong": "문산읍", "adongCd": "48170250", "lng": 128.16499359469, "lat": 35.1639919710941}, {"name": "남원추어탕", "category": "음식", "subCategory": "한식", "dong": "문산읍", "adongCd": "48170250", "lng": 128.163980531153, "lat": 35.1652995760161}, {"name": "아티스가구", "category": "소매", "subCategory": "가구 소매", "dong": "문산읍", "adongCd": "48170250", "lng": 128.157100008303, "lat": 35.1708093261573}, {"name": "원촌곰탕", "category": "음식", "subCategory": "한식", "dong": "문산읍", "adongCd": "48170250", "lng": 128.138883842105, "lat": 35.1632758797823}, {"name": "라라헤어", "category": "수리·개인", "subCategory": "이용·미용", "dong": "문산읍", "adongCd": "48170250", "lng": 128.163947433055, "lat": 35.1675981976905}, {"name": "영헤어", "category": "수리·개인", "subCategory": "이용·미용", "dong": "문산읍", "adongCd": "48170250", "lng": 128.162433194818, "lat": 35.1691719801816}, {"name": "대륙공인중개사사무소", "category": "부동산", "subCategory": "부동산 서비스", "dong": "문산읍", "adongCd": "48170250", "lng": 128.143900692519, "lat": 35.1586500117181}, {"name": "우리들약국", "category": "소매", "subCategory": "의약·화장품 소매", "dong": "문산읍", "adongCd": "48170250", "lng": 128.164478576477, "lat": 35.167899532975}, {"name": "스카이마트", "category": "소매", "subCategory": "종합 소매", "dong": "문산읍", "adongCd": "48170250", "lng": 128.162088491218, "lat": 35.1688598344471}, {"name": "해운식자재도매센터", "category": "소매", "subCategory": "종합 소매", "dong": "문산읍", "adongCd": "48170250", "lng": 128.172725924081, "lat": 35.1475588335241}, {"name": "성원전기", "category": "시설관리·임대", "subCategory": "고용 알선", "dong": "문산읍", "adongCd": "48170250", "lng": 128.190169876909, "lat": 35.1691639884522}, {"name": "장수통닭", "category": "음식", "subCategory": "기타 간이", "dong": "문산읍", "adongCd": "48170250", "lng": 128.162050362671, "lat": 35.16926578317}, {"name": "생수유통", "category": "소매", "subCategory": "음료 소매", "dong": "문산읍", "adongCd": "48170250", "lng": 128.13917867236, "lat": 35.1623808217332}, {"name": "GS25진주문산삼곡점", "category": "소매", "subCategory": "종합 소매", "dong": "문산읍", "adongCd": "48170250", "lng": 128.164777533177, "lat": 35.1650035001057}, {"name": "금양전설", "category": "시설관리·임대", "subCategory": "산업용품 대여", "dong": "문산읍", "adongCd": "48170250", "lng": 128.190169876909, "lat": 35.1691639884522}, {"name": "사거리슈퍼", "category": "소매", "subCategory": "종합 소매", "dong": "문산읍", "adongCd": "48170250", "lng": 128.163194688397, "lat": 35.1663796668105}, {"name": "돌담집", "category": "음식", "subCategory": "한식", "dong": "문산읍", "adongCd": "48170250", "lng": 128.177563097636, "lat": 35.1481788752895}, {"name": "이쁜이반찬", "category": "소매", "subCategory": "식료품 소매", "dong": "문산읍", "adongCd": "48170250", "lng": 128.165663051188, "lat": 35.1632194292981}, {"name": "제이떠블유에스", "category": "시설관리·임대", "subCategory": "고용 알선", "dong": "문산읍", "adongCd": "48170250", "lng": 128.198532763346, "lat": 35.170595694387}, {"name": "모해네일", "category": "수리·개인", "subCategory": "이용·미용", "dong": "문산읍", "adongCd": "48170250", "lng": 128.162746467678, "lat": 35.1672762529066}, {"name": "태산통신", "category": "소매", "subCategory": "가전·통신 소매", "dong": "문산읍", "adongCd": "48170250", "lng": 128.16359213662, "lat": 35.1657719813873}, {"name": "진주국제중장비학원", "category": "교육", "subCategory": "기타 교육", "dong": "문산읍", "adongCd": "48170250", "lng": 128.201426352813, "lat": 35.1695665938544}, {"name": "보틀북스", "category": "소매", "subCategory": "오락용품 소매", "dong": "문산읍", "adongCd": "48170250", "lng": 128.163206241667, "lat": 35.1656495063609}, {"name": "통정문", "category": "음식", "subCategory": "주점", "dong": "문산읍", "adongCd": "48170250", "lng": 128.163579241119, "lat": 35.1671781263626}, {"name": "조세핀가구", "category": "소매", "subCategory": "가구 소매", "dong": "문산읍", "adongCd": "48170250", "lng": 128.163204375505, "lat": 35.1693718745681}, {"name": "문산주유소", "category": "소매", "subCategory": "연료 소매", "dong": "문산읍", "adongCd": "48170250", "lng": 128.16499359469, "lat": 35.1639919710941}, {"name": "문산탕", "category": "수리·개인", "subCategory": "욕탕·신체관리", "dong": "문산읍", "adongCd": "48170250", "lng": 128.167590862292, "lat": 35.170627534045}, {"name": "자운영", "category": "음식", "subCategory": "기타 간이", "dong": "문산읍", "adongCd": "48170250", "lng": 128.163600040067, "lat": 35.1686380250584}, {"name": "신신이용원", "category": "수리·개인", "subCategory": "이용·미용", "dong": "문산읍", "adongCd": "48170250", "lng": 128.163191414373, "lat": 35.1669204756069}, {"name": "행복주유소", "category": "소매", "subCategory": "연료 소매", "dong": "문산읍", "adongCd": "48170250", "lng": 128.206436086734, "lat": 35.1698773142482}, {"name": "동우부동산컨설팅", "category": "부동산", "subCategory": "부동산 서비스", "dong": "문산읍", "adongCd": "48170250", "lng": 128.162235595997, "lat": 35.1683987623492}, {"name": "올마트농자재", "category": "소매", "subCategory": "철물·건설자재 소매", "dong": "문산읍", "adongCd": "48170250", "lng": 128.169679415806, "lat": 35.1455423378597}, {"name": "전동판매점", "category": "소매", "subCategory": "오락용품 소매", "dong": "문산읍", "adongCd": "48170250", "lng": 128.157840636167, "lat": 35.175047349271}, {"name": "동행로또", "category": "예술·스포츠", "subCategory": "유원지·오락", "dong": "문산읍", "adongCd": "48170250", "lng": 128.164770318441, "lat": 35.1706546907212}, {"name": "더웨이닝커피동부로점", "category": "음식", "subCategory": "비알코올 ", "dong": "문산읍", "adongCd": "48170250", "lng": 128.195640119058, "lat": 35.1686955195396}, {"name": "커피소문", "category": "음식", "subCategory": "비알코올 ", "dong": "문산읍", "adongCd": "48170250", "lng": 128.160640939553, "lat": 35.1704960456289}, {"name": "커피1058", "category": "음식", "subCategory": "비알코올 ", "dong": "문산읍", "adongCd": "48170250", "lng": 128.164271896795, "lat": 35.1657203847768}, {"name": "휴드림", "category": "수리·개인", "subCategory": "장례식장 ", "dong": "문산읍", "adongCd": "48170250", "lng": 128.161871486711, "lat": 35.1736658189884}, {"name": "문산복집", "category": "음식", "subCategory": "한식", "dong": "문산읍", "adongCd": "48170250", "lng": 128.164391936633, "lat": 35.1679814824562}, {"name": "금양공인중개사사무소", "category": "부동산", "subCategory": "부동산 서비스", "dong": "문산읍", "adongCd": "48170250", "lng": 128.162239443268, "lat": 35.1686691140614}, {"name": "도매식육식당", "category": "음식", "subCategory": "한식", "dong": "문산읍", "adongCd": "48170250", "lng": 128.167905653853, "lat": 35.1703811495801}, {"name": "새우리", "category": "소매", "subCategory": "식료품 소매", "dong": "문산읍", "adongCd": "48170250", "lng": 128.158330567342, "lat": 35.163154573436}, {"name": "맥시칸양념통닭", "category": "음식", "subCategory": "기타 간이", "dong": "문산읍", "adongCd": "48170250", "lng": 128.162335228878, "lat": 35.1661445673052}, {"name": "두성유통", "category": "음식", "subCategory": "기타 간이", "dong": "문산읍", "adongCd": "48170250", "lng": 128.151598080653, "lat": 35.1713935269459}, {"name": "소문난민물장어", "category": "음식", "subCategory": "한식", "dong": "문산읍", "adongCd": "48170250", "lng": 128.16760295101, "lat": 35.1722407345421}, {"name": "제이골드", "category": "소매", "subCategory": "시계·귀금속 소매", "dong": "문산읍", "adongCd": "48170250", "lng": 128.163433107685, "lat": 35.1669361802851}, {"name": "민물마차", "category": "음식", "subCategory": "한식", "dong": "문산읍", "adongCd": "48170250", "lng": 128.167533797714, "lat": 35.1704748640476}, {"name": "김건태공인중개사사무소", "category": "부동산", "subCategory": "부동산 서비스", "dong": "문산읍", "adongCd": "48170250", "lng": 128.140665482699, "lat": 35.1611771160227}, {"name": "한성공인중개사사무소", "category": "부동산", "subCategory": "부동산 서비스", "dong": "문산읍", "adongCd": "48170250", "lng": 128.162728939437, "lat": 35.168357975738}, {"name": "송림식당", "category": "음식", "subCategory": "한식", "dong": "문산읍", "adongCd": "48170250", "lng": 128.166398228856, "lat": 35.1647445550085}, {"name": "씨유진주문산고려점", "category": "소매", "subCategory": "종합 소매", "dong": "문산읍", "adongCd": "48170250", "lng": 128.160651219336, "lat": 35.1642679933964}, {"name": "메가커피진주", "category": "음식", "subCategory": "비알코올 ", "dong": "문산읍", "adongCd": "48170250", "lng": 128.162830157554, "lat": 35.1669870349239}, {"name": "공감", "category": "과학·기술", "subCategory": "광고", "dong": "문산읍", "adongCd": "48170250", "lng": 128.190217668938, "lat": 35.1370323676694}, {"name": "장어구이백반순두부식당", "category": "음식", "subCategory": "한식", "dong": "문산읍", "adongCd": "48170250", "lng": 128.162335228878, "lat": 35.1661445673052}, {"name": "석원", "category": "음식", "subCategory": "한식", "dong": "문산읍", "adongCd": "48170250", "lng": 128.160938250362, "lat": 35.1651575259497}, {"name": "머케인메이트", "category": "시설관리·임대", "subCategory": "운송장비 대여", "dong": "문산읍", "adongCd": "48170250", "lng": 128.163915863888, "lat": 35.1684637445507}, {"name": "래핑스", "category": "과학·기술", "subCategory": "광고", "dong": "문산읍", "adongCd": "48170250", "lng": 128.187896800671, "lat": 35.1766399873949}, {"name": "문산참약사약국", "category": "소매", "subCategory": "의약·화장품 소매", "dong": "문산읍", "adongCd": "48170250", "lng": 128.162769640653, "lat": 35.1665910458027}, {"name": "정쌤수학교습소", "category": "교육", "subCategory": "일반 교육", "dong": "문산읍", "adongCd": "48170250", "lng": 128.161296146346, "lat": 35.1710305425268}, {"name": "모든오피스진주점", "category": "소매", "subCategory": "오락용품 소매", "dong": "문산읍", "adongCd": "48170250", "lng": 128.143417107319, "lat": 35.159384629175}, {"name": "에듀클린", "category": "시설관리·임대", "subCategory": "청소·방제", "dong": "문산읍", "adongCd": "48170250", "lng": 128.161067499328, "lat": 35.15262825977}, {"name": "파리바게뜨진주", "category": "음식", "subCategory": "기타 간이", "dong": "문산읍", "adongCd": "48170250", "lng": 128.163433107685, "lat": 35.1669361802851}, {"name": "고릴라캠핑진주점", "category": "소매", "subCategory": "기타 생활용품 소매", "dong": "문산읍", "adongCd": "48170250", "lng": 128.140665482699, "lat": 35.1611771160227}, {"name": "머쉬&머쉬", "category": "소매", "subCategory": "식료품 소매", "dong": "문산읍", "adongCd": "48170250", "lng": 128.149616449383, "lat": 35.1623993815512}, {"name": "카페나루", "category": "음식", "subCategory": "비알코올 ", "dong": "문산읍", "adongCd": "48170250", "lng": 128.163947433055, "lat": 35.1675981976905}, {"name": "세아농자재마트", "category": "소매", "subCategory": "철물·건설자재 소매", "dong": "문산읍", "adongCd": "48170250", "lng": 128.173001596396, "lat": 35.1705842676368}, {"name": "우리슈퍼", "category": "소매", "subCategory": "종합 소매", "dong": "문산읍", "adongCd": "48170250", "lng": 128.163317651908, "lat": 35.1673068203474}, {"name": "윤이네", "category": "소매", "subCategory": "종합 소매", "dong": "문산읍", "adongCd": "48170250", "lng": 128.142534076696, "lat": 35.1488207163612}, {"name": "수현공인중개사사무소", "category": "부동산", "subCategory": "부동산 서비스", "dong": "문산읍", "adongCd": "48170250", "lng": 128.164312160161, "lat": 35.1677749514097}, {"name": "문산송원한우촌", "category": "음식", "subCategory": "한식", "dong": "문산읍", "adongCd": "48170250", "lng": 128.186239552263, "lat": 35.169860488107}, {"name": "예사랑생선구이", "category": "음식", "subCategory": "한식", "dong": "문산읍", "adongCd": "48170250", "lng": 128.173310919753, "lat": 35.1477965199143}, {"name": "현덕사무가구", "category": "소매", "subCategory": "가구 소매", "dong": "문산읍", "adongCd": "48170250", "lng": 128.164355579804, "lat": 35.1654311658031}, {"name": "숭어리맛집", "category": "음식", "subCategory": "한식", "dong": "문산읍", "adongCd": "48170250", "lng": 128.165062736533, "lat": 35.1711475904528}, {"name": "더나눔트레이딩", "category": "소매", "subCategory": "식료품 소매", "dong": "문산읍", "adongCd": "48170250", "lng": 128.163940665093, "lat": 35.171744220095}, {"name": "지광스카이", "category": "시설관리·임대", "subCategory": "산업용품 대여", "dong": "문산읍", "adongCd": "48170250", "lng": 128.156880670435, "lat": 35.1762462319459}, {"name": "진주문산농협로컬푸드하나로마트", "category": "소매", "subCategory": "종합 소매", "dong": "문산읍", "adongCd": "48170250", "lng": 128.165663051188, "lat": 35.1632194292981}, {"name": "금각엔지니어링", "category": "과학·기술", "subCategory": "기술 서비스", "dong": "문산읍", "adongCd": "48170250", "lng": 128.168285211351, "lat": 35.17236033675}, {"name": "아이스크림점빵", "category": "소매", "subCategory": "종합 소매", "dong": "문산읍", "adongCd": "48170250", "lng": 128.164433136631, "lat": 35.167791814381}, {"name": "일심반점", "category": "음식", "subCategory": "중식", "dong": "문산읍", "adongCd": "48170250", "lng": 128.162335228878, "lat": 35.1661445673052}, {"name": "호식이두마리치킨", "category": "음식", "subCategory": "기타 간이", "dong": "문산읍", "adongCd": "48170250", "lng": 128.167295828847, "lat": 35.1707205072108}, {"name": "솔인기획", "category": "시설관리·임대", "subCategory": "기타 사업 서비스", "dong": "문산읍", "adongCd": "48170250", "lng": 128.188014717832, "lat": 35.1726731471587}, {"name": "파세코진주센터", "category": "수리·개인", "subCategory": "가전제품 수리", "dong": "문산읍", "adongCd": "48170250", "lng": 128.138369493931, "lat": 35.1625957274557}, {"name": "또봉이통닭문산", "category": "음식", "subCategory": "기타 간이", "dong": "문산읍", "adongCd": "48170250", "lng": 128.163270610199, "lat": 35.1663158470152}, {"name": "써니헤어", "category": "수리·개인", "subCategory": "이용·미용", "dong": "문산읍", "adongCd": "48170250", "lng": 128.166604410973, "lat": 35.1707271687006}, {"name": "카페모란", "category": "음식", "subCategory": "비알코올 ", "dong": "문산읍", "adongCd": "48170250", "lng": 128.16543361338, "lat": 35.1702156888038}, {"name": "집으로가는퇘장군", "category": "음식", "subCategory": "한식", "dong": "문산읍", "adongCd": "48170250", "lng": 128.166985856764, "lat": 35.1697681217884}, {"name": "봄날포차", "category": "음식", "subCategory": "주점", "dong": "문산읍", "adongCd": "48170250", "lng": 128.162698278379, "lat": 35.1662041736816}, {"name": "문산선지국", "category": "음식", "subCategory": "한식", "dong": "문산읍", "adongCd": "48170250", "lng": 128.162351040625, "lat": 35.1695693385215}, {"name": "샤르망", "category": "음식", "subCategory": "주점", "dong": "문산읍", "adongCd": "48170250", "lng": 128.163515125939, "lat": 35.1665298094728}, {"name": "솔인테리어", "category": "소매", "subCategory": "철물·건설자재 소매", "dong": "문산읍", "adongCd": "48170250", "lng": 128.163406282746, "lat": 35.1681351608764}, {"name": "역전상회", "category": "소매", "subCategory": "종합 소매", "dong": "문산읍", "adongCd": "48170250", "lng": 128.210853400521, "lat": 35.1457687496773}, {"name": "칸특허법률사무소", "category": "과학·기술", "subCategory": "법무관련 ", "dong": "문산읍", "adongCd": "48170250", "lng": 128.162662648581, "lat": 35.160616479778}, {"name": "대림F/N", "category": "소매", "subCategory": "식료품 소매", "dong": "문산읍", "adongCd": "48170250", "lng": 128.169679415806, "lat": 35.1455423378597}, {"name": "엘레강스미용실", "category": "수리·개인", "subCategory": "이용·미용", "dong": "문산읍", "adongCd": "48170250", "lng": 128.164042036083, "lat": 35.168074975104}, {"name": "문산제일염소불고기", "category": "음식", "subCategory": "한식", "dong": "문산읍", "adongCd": "48170250", "lng": 128.16336424526, "lat": 35.1674956448979}, {"name": "카.임마누엘", "category": "수리·개인", "subCategory": "자동차 수리·세차", "dong": "문산읍", "adongCd": "48170250", "lng": 128.159148262627, "lat": 35.163543321962}, {"name": "문산밧데리", "category": "수리·개인", "subCategory": "자동차 수리·세차", "dong": "문산읍", "adongCd": "48170250", "lng": 128.161121444054, "lat": 35.1710953080882}, {"name": "킹문구", "category": "소매", "subCategory": "오락용품 소매", "dong": "문산읍", "adongCd": "48170250", "lng": 128.162593441129, "lat": 35.1704052166211}, {"name": "부산식당돈갈비", "category": "음식", "subCategory": "한식", "dong": "문산읍", "adongCd": "48170250", "lng": 128.163872982216, "lat": 35.1669950451569}, {"name": "문산공인중개사사무소", "category": "부동산", "subCategory": "부동산 서비스", "dong": "문산읍", "adongCd": "48170250", "lng": 128.164134355149, "lat": 35.164541009347}, {"name": "진양가스", "category": "소매", "subCategory": "연료 소매", "dong": "문산읍", "adongCd": "48170250", "lng": 128.172942866202, "lat": 35.1710805480587}, {"name": "신라테크윈", "category": "수리·개인", "subCategory": "통신장비 수리", "dong": "문산읍", "adongCd": "48170250", "lng": 128.163784297155, "lat": 35.168474021684}, {"name": "실내포장마차,엘림세탁소", "category": "음식", "subCategory": "주점", "dong": "문산읍", "adongCd": "48170250", "lng": 128.167533797714, "lat": 35.1704748640476}, {"name": "문산전기조명", "category": "소매", "subCategory": "기타 생활용품 소매", "dong": "문산읍", "adongCd": "48170250", "lng": 128.190169876909, "lat": 35.1691639884522}, {"name": "카오디오의모든것", "category": "수리·개인", "subCategory": "자동차 수리·세차", "dong": "문산읍", "adongCd": "48170250", "lng": 128.160461780907, "lat": 35.1733368419445}, {"name": "문산열쇠팔천사", "category": "수리·개인", "subCategory": "기타 가정용품 수리", "dong": "문산읍", "adongCd": "48170250", "lng": 128.163973292916, "lat": 35.1671022367162}, {"name": "국도광고", "category": "과학·기술", "subCategory": "인쇄·제품제작", "dong": "문산읍", "adongCd": "48170250", "lng": 128.161337119269, "lat": 35.1646489766581}, {"name": "제일식당", "category": "음식", "subCategory": "한식", "dong": "문산읍", "adongCd": "48170250", "lng": 128.163149185171, "lat": 35.1670380495499}, {"name": "이송공예", "category": "소매", "subCategory": "장식품 소매", "dong": "문산읍", "adongCd": "48170250", "lng": 128.19384142649, "lat": 35.1409984737778}, {"name": "진주숯불장어", "category": "음식", "subCategory": "한식", "dong": "문산읍", "adongCd": "48170250", "lng": 128.16230549273, "lat": 35.1679113920911}, {"name": "용환원예공구종합상사", "category": "소매", "subCategory": "철물·건설자재 소매", "dong": "문산읍", "adongCd": "48170250", "lng": 128.148067223742, "lat": 35.1529053751644}, {"name": "씨유문산IC점", "category": "소매", "subCategory": "종합 소매", "dong": "문산읍", "adongCd": "48170250", "lng": 128.161403332608, "lat": 35.1708492557558}, {"name": "연세매점", "category": "소매", "subCategory": "종합 소매", "dong": "문산읍", "adongCd": "48170250", "lng": 128.200250881669, "lat": 35.1575460002213}, {"name": "새아침분식", "category": "음식", "subCategory": "기타 간이", "dong": "문산읍", "adongCd": "48170250", "lng": 128.16912233061, "lat": 35.1687290557493}, {"name": "문산장례식장", "category": "수리·개인", "subCategory": "장례식장 ", "dong": "문산읍", "adongCd": "48170250", "lng": 128.175511038414, "lat": 35.1535164522227}, {"name": "진주대리점", "category": "소매", "subCategory": "가전·통신 소매", "dong": "문산읍", "adongCd": "48170250", "lng": 128.162947154887, "lat": 35.1667245359639}, {"name": "제일김밥", "category": "음식", "subCategory": "기타 간이", "dong": "문산읍", "adongCd": "48170250", "lng": 128.162539863094, "lat": 35.1689546455575}, {"name": "국시방", "category": "음식", "subCategory": "한식", "dong": "문산읍", "adongCd": "48170250", "lng": 128.164090903048, "lat": 35.1707333260239}, {"name": "신아구찜", "category": "음식", "subCategory": "한식", "dong": "문산읍", "adongCd": "48170250", "lng": 128.164353434417, "lat": 35.16836039658}, {"name": "문산한빛공인중개사사무소", "category": "부동산", "subCategory": "부동산 서비스", "dong": "문산읍", "adongCd": "48170250", "lng": 128.163671848043, "lat": 35.1667446148811}, {"name": "서울떡방앗간", "category": "음식", "subCategory": "기타 간이", "dong": "문산읍", "adongCd": "48170250", "lng": 128.163335172524, "lat": 35.1662250974025}, {"name": "대륙가스충전소", "category": "소매", "subCategory": "연료 소매", "dong": "문산읍", "adongCd": "48170250", "lng": 128.157667455721, "lat": 35.175220250766}, {"name": "나들목주유소", "category": "소매", "subCategory": "연료 소매", "dong": "문산읍", "adongCd": "48170250", "lng": 128.157087803306, "lat": 35.1761451107919}, {"name": "나눔로또", "category": "예술·스포츠", "subCategory": "유원지·오락", "dong": "문산읍", "adongCd": "48170250", "lng": 128.163191414373, "lat": 35.1669204756069}, {"name": "화진오토바이", "category": "수리·개인", "subCategory": "모터사이클 수리", "dong": "문산읍", "adongCd": "48170250", "lng": 128.162438046144, "lat": 35.1656568809171}, {"name": "진수아구찜", "category": "음식", "subCategory": "한식", "dong": "문산읍", "adongCd": "48170250", "lng": 128.167932372087, "lat": 35.1707143709226}, {"name": "새문산떡방앗간", "category": "음식", "subCategory": "기타 간이", "dong": "문산읍", "adongCd": "48170250", "lng": 128.162659826703, "lat": 35.1673582011779}, {"name": "청하반점", "category": "음식", "subCategory": "중식", "dong": "문산읍", "adongCd": "48170250", "lng": 128.169017873173, "lat": 35.169099594753}, {"name": "드림벳", "category": "과학·기술", "subCategory": "수의", "dong": "문산읍", "adongCd": "48170250", "lng": 128.197705078893, "lat": 35.1643038529253}, {"name": "경남물탱크수리", "category": "수리·개인", "subCategory": "기타 가정용품 수리", "dong": "문산읍", "adongCd": "48170250", "lng": 128.194504938761, "lat": 35.1668770970993}, {"name": "매일가스", "category": "소매", "subCategory": "연료 소매", "dong": "문산읍", "adongCd": "48170250", "lng": 128.221479560982, "lat": 35.1431204412386}, {"name": "진주브레이카", "category": "소매", "subCategory": "철물·건설자재 소매", "dong": "문산읍", "adongCd": "48170250", "lng": 128.188108095897, "lat": 35.1692833723569}, {"name": "유일공인중개사사무소", "category": "부동산", "subCategory": "부동산 서비스", "dong": "문산읍", "adongCd": "48170250", "lng": 128.164438600429, "lat": 35.1635556725467}, {"name": "세종낚시마트", "category": "소매", "subCategory": "오락용품 소매", "dong": "문산읍", "adongCd": "48170250", "lng": 128.164438600429, "lat": 35.1635556725467}, {"name": "삼진한정식", "category": "음식", "subCategory": "한식", "dong": "문산읍", "adongCd": "48170250", "lng": 128.163891651239, "lat": 35.1659944277219}, {"name": "삼동슈퍼", "category": "소매", "subCategory": "종합 소매", "dong": "문산읍", "adongCd": "48170250", "lng": 128.171676096386, "lat": 35.1707683430584}, {"name": "날마당노래연습장", "category": "예술·스포츠", "subCategory": "유원지·오락", "dong": "문산읍", "adongCd": "48170250", "lng": 128.164391936633, "lat": 35.1679814824562}, {"name": "동명가스충전소", "category": "소매", "subCategory": "연료 소매", "dong": "문산읍", "adongCd": "48170250", "lng": 128.207048933635, "lat": 35.1697540406791}, {"name": "담배/전자담배소매업", "category": "소매", "subCategory": "담배 소매", "dong": "문산읍", "adongCd": "48170250", "lng": 128.177074624468, "lat": 35.1714009827151}, {"name": "대건공조시스템", "category": "수리·개인", "subCategory": "가전제품 수리", "dong": "문산읍", "adongCd": "48170250", "lng": 128.212694157741, "lat": 35.1478052870233}, {"name": "서정골한우촌", "category": "음식", "subCategory": "한식", "dong": "문산읍", "adongCd": "48170250", "lng": 128.165398672467, "lat": 35.1716130318521}, {"name": "나래디자인", "category": "과학·기술", "subCategory": "인쇄·제품제작", "dong": "문산읍", "adongCd": "48170250", "lng": 128.160651219336, "lat": 35.1642679933964}, {"name": "삼경한우촌", "category": "음식", "subCategory": "한식", "dong": "문산읍", "adongCd": "48170250", "lng": 128.174967305631, "lat": 35.1714124308526}, {"name": "화광공인중개사사무소", "category": "부동산", "subCategory": "부동산 서비스", "dong": "문산읍", "adongCd": "48170250", "lng": 128.165261330438, "lat": 35.1666031529594}, {"name": "미용실", "category": "수리·개인", "subCategory": "이용·미용", "dong": "문산읍", "adongCd": "48170250", "lng": 128.162698278379, "lat": 35.1662041736816}, {"name": "행복건강원", "category": "소매", "subCategory": "식료품 소매", "dong": "문산읍", "adongCd": "48170250", "lng": 128.165011044252, "lat": 35.1636763497409}, {"name": "착한족발한우축산물도매센타", "category": "소매", "subCategory": "식료품 소매", "dong": "문산읍", "adongCd": "48170250", "lng": 128.163579241119, "lat": 35.1671781263626}, {"name": "하나로자동차정비", "category": "수리·개인", "subCategory": "자동차 수리·세차", "dong": "문산읍", "adongCd": "48170250", "lng": 128.157266597943, "lat": 35.1755936126062}, {"name": "장금이수랏간", "category": "음식", "subCategory": "한식", "dong": "문산읍", "adongCd": "48170250", "lng": 128.17649178421, "lat": 35.1713255290758}, {"name": "진주강수옥국수집", "category": "음식", "subCategory": "한식", "dong": "문산읍", "adongCd": "48170250", "lng": 128.161970334175, "lat": 35.1651836816644}, {"name": "동경악바리식당", "category": "음식", "subCategory": "한식", "dong": "문산읍", "adongCd": "48170250", "lng": 128.189827301527, "lat": 35.1690051215314}, {"name": "신광샷다인테리어", "category": "수리·개인", "subCategory": "기타 가정용품 수리", "dong": "문산읍", "adongCd": "48170250", "lng": 128.15925784826, "lat": 35.1704912651614}, {"name": "부송국수", "category": "음식", "subCategory": "한식", "dong": "문산읍", "adongCd": "48170250", "lng": 128.162005514182, "lat": 35.1684280087044}, {"name": "송림축산전기", "category": "소매", "subCategory": "기타 생활용품 소매", "dong": "문산읍", "adongCd": "48170250", "lng": 128.135188470477, "lat": 35.1429772269965}, {"name": "현대가설", "category": "시설관리·임대", "subCategory": "산업용품 대여", "dong": "문산읍", "adongCd": "48170250", "lng": 128.178457257331, "lat": 35.1706124258349}, {"name": "문산역아구찜", "category": "음식", "subCategory": "한식", "dong": "문산읍", "adongCd": "48170250", "lng": 128.165092330708, "lat": 35.1686056540917}, {"name": "천심식당", "category": "음식", "subCategory": "한식", "dong": "문산읍", "adongCd": "48170250", "lng": 128.160751394373, "lat": 35.1643661760837}, {"name": "컴인상사", "category": "소매", "subCategory": "중고 상품 소매", "dong": "문산읍", "adongCd": "48170250", "lng": 128.176781161789, "lat": 35.170078932812}, {"name": "민들레식당", "category": "음식", "subCategory": "한식", "dong": "문산읍", "adongCd": "48170250", "lng": 128.1638763319, "lat": 35.1687705647962}, {"name": "재생산업", "category": "소매", "subCategory": "중고 상품 소매", "dong": "문산읍", "adongCd": "48170250", "lng": 128.135991502921, "lat": 35.1431229220313}, {"name": "어사랑", "category": "음식", "subCategory": "한식", "dong": "문산읍", "adongCd": "48170250", "lng": 128.180144870014, "lat": 35.1711818348975}, {"name": "종가", "category": "음식", "subCategory": "한식", "dong": "문산읍", "adongCd": "48170250", "lng": 128.166265326735, "lat": 35.168504235933}, {"name": "청정한우랑한돈이랑", "category": "음식", "subCategory": "한식", "dong": "문산읍", "adongCd": "48170250", "lng": 128.161698708588, "lat": 35.1700082185616}, {"name": "YD할인몰", "category": "소매", "subCategory": "섬유·의복·신발 소매", "dong": "문산읍", "adongCd": "48170250", "lng": 128.163730118769, "lat": 35.1662122906807}, {"name": "새하크리닝충무공점", "category": "수리·개인", "subCategory": "세탁", "dong": "문산읍", "adongCd": "48170250", "lng": 128.164021114495, "lat": 35.1681472797865}, {"name": "문산셀프세차장", "category": "수리·개인", "subCategory": "자동차 수리·세차", "dong": "문산읍", "adongCd": "48170250", "lng": 128.160933460518, "lat": 35.1709979675628}, {"name": "경상식당", "category": "음식", "subCategory": "한식", "dong": "문산읍", "adongCd": "48170250", "lng": 128.164421277126, "lat": 35.1638803055897}, {"name": "푸른산골실비", "category": "음식", "subCategory": "주점", "dong": "문산읍", "adongCd": "48170250", "lng": 128.163786274258, "lat": 35.1663018807176}, {"name": "성심농원식당", "category": "음식", "subCategory": "한식", "dong": "문산읍", "adongCd": "48170250", "lng": 128.177074624468, "lat": 35.1714009827151}, {"name": "문산태풍오토바이", "category": "수리·개인", "subCategory": "모터사이클 수리", "dong": "문산읍", "adongCd": "48170250", "lng": 128.170336510831, "lat": 35.169204029131}, {"name": "우정카서비스", "category": "수리·개인", "subCategory": "자동차 수리·세차", "dong": "문산읍", "adongCd": "48170250", "lng": 128.162394973785, "lat": 35.1664864863619}, {"name": "문산인력공사", "category": "시설관리·임대", "subCategory": "고용 알선", "dong": "문산읍", "adongCd": "48170250", "lng": 128.162181535875, "lat": 35.1653709276133}, {"name": "장원보글보글", "category": "음식", "subCategory": "한식", "dong": "문산읍", "adongCd": "48170250", "lng": 128.167533797714, "lat": 35.1704748640476}, {"name": "수궁어탕", "category": "음식", "subCategory": "한식", "dong": "문산읍", "adongCd": "48170250", "lng": 128.168463082185, "lat": 35.1471944365276}, {"name": "광명상회", "category": "소매", "subCategory": "종합 소매", "dong": "문산읍", "adongCd": "48170250", "lng": 128.169855299203, "lat": 35.1708580465212}, {"name": "문산철물목재건재상사", "category": "소매", "subCategory": "철물·건설자재 소매", "dong": "문산읍", "adongCd": "48170250", "lng": 128.163836425484, "lat": 35.170591564329}, {"name": "정훈상회", "category": "소매", "subCategory": "담배 소매", "dong": "문산읍", "adongCd": "48170250", "lng": 128.176684783261, "lat": 35.1527209299227}, {"name": "대민상회", "category": "소매", "subCategory": "종합 소매", "dong": "문산읍", "adongCd": "48170250", "lng": 128.163671848043, "lat": 35.1667446148811}, {"name": "성진테크", "category": "소매", "subCategory": "가전·통신 소매", "dong": "문산읍", "adongCd": "48170250", "lng": 128.164129375124, "lat": 35.1672719828692}, {"name": "삼대가든", "category": "음식", "subCategory": "한식", "dong": "문산읍", "adongCd": "48170250", "lng": 128.164221097158, "lat": 35.1683166038786}, {"name": "대성가설산업주", "category": "시설관리·임대", "subCategory": "산업용품 대여", "dong": "문산읍", "adongCd": "48170250", "lng": 128.154892133228, "lat": 35.1706952039153}, {"name": "바이오앤라이프주", "category": "소매", "subCategory": "식료품 소매", "dong": "문산읍", "adongCd": "48170250", "lng": 128.162662648581, "lat": 35.160616479778}, {"name": "신용에너지주", "category": "소매", "subCategory": "연료 소매", "dong": "문산읍", "adongCd": "48170250", "lng": 128.13989003011, "lat": 35.1606616621069}, {"name": "다모아", "category": "소매", "subCategory": "식료품 소매", "dong": "문산읍", "adongCd": "48170250", "lng": 128.157903734709, "lat": 35.1632397709514}, {"name": "한국국제대학교행복기숙사", "category": "숙박", "subCategory": "기타 숙박", "dong": "문산읍", "adongCd": "48170250", "lng": 128.199926535287, "lat": 35.1758093800795}, {"name": "진주의료재단", "category": "보건의료", "subCategory": "병원", "dong": "문산읍", "adongCd": "48170250", "lng": 128.176684783261, "lat": 35.1527209299227}, {"name": "진주바이오산업진흥원", "category": "시설관리·임대", "subCategory": "산업용품 대여", "dong": "문산읍", "adongCd": "48170250", "lng": 128.162662648581, "lat": 35.160616479778}, {"name": "진주의료재단진주성남병원", "category": "보건의료", "subCategory": "병원", "dong": "문산읍", "adongCd": "48170250", "lng": 128.200250881669, "lat": 35.1575460002213}, {"name": "진주문산농협주유소", "category": "소매", "subCategory": "연료 소매", "dong": "문산읍", "adongCd": "48170250", "lng": 128.159590546791, "lat": 35.1637734258917}, {"name": "한국문화창업진흥원", "category": "교육", "subCategory": "기타 교육", "dong": "문산읍", "adongCd": "48170250", "lng": 128.164151742369, "lat": 35.1703812362636}, {"name": "진주축산농협축산물유통센터한우프라자", "category": "음식", "subCategory": "한식", "dong": "문산읍", "adongCd": "48170250", "lng": 128.161681867265, "lat": 35.1680525690331}, {"name": "대한민국GAP연합회", "category": "교육", "subCategory": "교육 지원", "dong": "문산읍", "adongCd": "48170250", "lng": 128.166094311712, "lat": 35.157293762522}, {"name": "한양공인중개사사무소", "category": "부동산", "subCategory": "부동산 서비스", "dong": "문산읍", "adongCd": "48170250", "lng": 128.160041427016, "lat": 35.1738816456986}, {"name": "대신종합중기", "category": "수리·개인", "subCategory": "장례식장 ", "dong": "문산읍", "adongCd": "48170250", "lng": 128.152677776153, "lat": 35.1701214419742}, {"name": "바른체형", "category": "보건의료", "subCategory": "기타 보건", "dong": "문산읍", "adongCd": "48170250", "lng": 128.16767498239, "lat": 35.1642275286469}, {"name": "동아고소작업대렌탈", "category": "시설관리·임대", "subCategory": "산업용품 대여", "dong": "문산읍", "adongCd": "48170250", "lng": 128.166424978358, "lat": 35.1727658224065}, {"name": "명성공인중개사사무소", "category": "부동산", "subCategory": "부동산 서비스", "dong": "문산읍", "adongCd": "48170250", "lng": 128.162181535875, "lat": 35.1653709276133}, {"name": "국수나루터", "category": "음식", "subCategory": "한식", "dong": "문산읍", "adongCd": "48170250", "lng": 128.166813699324, "lat": 35.1646323981627}, {"name": "단실공방", "category": "교육", "subCategory": "기타 교육", "dong": "문산읍", "adongCd": "48170250", "lng": 128.132286998562, "lat": 35.146600571284}, {"name": "정아네김밥", "category": "음식", "subCategory": "기타 간이", "dong": "문산읍", "adongCd": "48170250", "lng": 128.162559375114, "lat": 35.168783212166}, {"name": "태백전력", "category": "시설관리·임대", "subCategory": "산업용품 대여", "dong": "문산읍", "adongCd": "48170250", "lng": 128.190169876909, "lat": 35.1691639884522}, {"name": "진양호짬뽕", "category": "음식", "subCategory": "중식", "dong": "문산읍", "adongCd": "48170250", "lng": 128.160912203487, "lat": 35.1648693608424}, {"name": "제이자원", "category": "소매", "subCategory": "중고 상품 소매", "dong": "문산읍", "adongCd": "48170250", "lng": 128.176781161789, "lat": 35.170078932812}, {"name": "반짇고리", "category": "소매", "subCategory": "섬유·의복·신발 소매", "dong": "문산읍", "adongCd": "48170250", "lng": 128.165460455984, "lat": 35.1659432915456}, {"name": "원테이너", "category": "음식", "subCategory": "서양식", "dong": "문산읍", "adongCd": "48170250", "lng": 128.163096168398, "lat": 35.1694810691051}, {"name": "드림팜텍", "category": "과학·기술", "subCategory": "수의", "dong": "문산읍", "adongCd": "48170250", "lng": 128.197705078893, "lat": 35.1643038529253}, {"name": "골드키즈스위밍", "category": "교육", "subCategory": "기타 교육", "dong": "문산읍", "adongCd": "48170250", "lng": 128.13903404573, "lat": 35.1590924402829}, {"name": "수모터스", "category": "수리·개인", "subCategory": "자동차 수리·세차", "dong": "문산읍", "adongCd": "48170250", "lng": 128.130765411214, "lat": 35.1468671462333}, {"name": "본안경원", "category": "소매", "subCategory": "안경·정밀기기 소매", "dong": "문산읍", "adongCd": "48170250", "lng": 128.162698278379, "lat": 35.1662041736816}, {"name": "김재정부동산", "category": "음식", "subCategory": "한식", "dong": "문산읍", "adongCd": "48170250", "lng": 128.160938250362, "lat": 35.1651575259497}, {"name": "문산광어횟집", "category": "음식", "subCategory": "한식", "dong": "문산읍", "adongCd": "48170250", "lng": 128.165331457596, "lat": 35.1684411205915}, {"name": "줄리아나헤어", "category": "수리·개인", "subCategory": "이용·미용", "dong": "문산읍", "adongCd": "48170250", "lng": 128.164355158859, "lat": 35.1677114474096}, {"name": "9월의봄", "category": "음식", "subCategory": "비알코올 ", "dong": "문산읍", "adongCd": "48170250", "lng": 128.208336285704, "lat": 35.1477046217333}, {"name": "두루춘풍", "category": "음식", "subCategory": "한식", "dong": "문산읍", "adongCd": "48170250", "lng": 128.164664201059, "lat": 35.1609036932183}, {"name": "서하접", "category": "음식", "subCategory": "비알코올 ", "dong": "문산읍", "adongCd": "48170250", "lng": 128.187829504919, "lat": 35.1765415053668}, {"name": "자연농원", "category": "음식", "subCategory": "한식", "dong": "문산읍", "adongCd": "48170250", "lng": 128.161509301711, "lat": 35.1736692928665}, {"name": "송강식당", "category": "음식", "subCategory": "한식", "dong": "문산읍", "adongCd": "48170250", "lng": 128.167171885187, "lat": 35.1704963779919}, {"name": "송이돼지국밥", "category": "음식", "subCategory": "한식", "dong": "문산읍", "adongCd": "48170250", "lng": 128.162570050066, "lat": 35.1664487543034}, {"name": "프레임팝", "category": "과학·기술", "subCategory": "전문 디자인", "dong": "문산읍", "adongCd": "48170250", "lng": 128.162662648581, "lat": 35.160616479778}, {"name": "한국안전관리원", "category": "교육", "subCategory": "기타 교육", "dong": "문산읍", "adongCd": "48170250", "lng": 128.164421277126, "lat": 35.1638803055897}, {"name": "장날소머리국밥", "category": "음식", "subCategory": "한식", "dong": "문산읍", "adongCd": "48170250", "lng": 128.163015891362, "lat": 35.1661560597507}, {"name": "진주경춘부동산중개사무소", "category": "부동산", "subCategory": "부동산 서비스", "dong": "문산읍", "adongCd": "48170250", "lng": 128.163515125939, "lat": 35.1665298094728}, {"name": "대한건설안전", "category": "과학·기술", "subCategory": "본사·경영 컨설팅", "dong": "문산읍", "adongCd": "48170250", "lng": 128.165507179576, "lat": 35.1684484428119}, {"name": "멕시카나문산", "category": "음식", "subCategory": "기타 간이", "dong": "문산읍", "adongCd": "48170250", "lng": 128.16749170195, "lat": 35.170601451055}, {"name": "맛돼지국밥", "category": "음식", "subCategory": "한식", "dong": "문산읍", "adongCd": "48170250", "lng": 128.163576412458, "lat": 35.1654386530267}, {"name": "서희전기", "category": "수리·개인", "subCategory": "가전제품 수리", "dong": "문산읍", "adongCd": "48170250", "lng": 128.187927557246, "lat": 35.1696997376829}, {"name": "남강상사", "category": "소매", "subCategory": "철물·건설자재 소매", "dong": "문산읍", "adongCd": "48170250", "lng": 128.162947154887, "lat": 35.1667245359639}, {"name": "문산종합건재", "category": "소매", "subCategory": "철물·건설자재 소매", "dong": "문산읍", "adongCd": "48170250", "lng": 128.164654939779, "lat": 35.1679519150423}, {"name": "부부경양식", "category": "음식", "subCategory": "서양식", "dong": "문산읍", "adongCd": "48170250", "lng": 128.167174942193, "lat": 35.1645658272042}, {"name": "카페마주이야기", "category": "음식", "subCategory": "비알코올 ", "dong": "문산읍", "adongCd": "48170250", "lng": 128.180144870014, "lat": 35.1711818348975}, {"name": "수빈식당", "category": "음식", "subCategory": "한식", "dong": "문산읍", "adongCd": "48170250", "lng": 128.164090903048, "lat": 35.1707333260239}, {"name": "신김가네김밥", "category": "음식", "subCategory": "기타 간이", "dong": "문산읍", "adongCd": "48170250", "lng": 128.163671848043, "lat": 35.1667446148811}, {"name": "해성", "category": "과학·기술", "subCategory": "광고", "dong": "문산읍", "adongCd": "48170250", "lng": 128.192566756992, "lat": 35.170194924301}, {"name": "희망행정사사무소", "category": "과학·기술", "subCategory": "법무관련 ", "dong": "문산읍", "adongCd": "48170250", "lng": 128.186376358983, "lat": 35.1747441521689}, {"name": "케이에프", "category": "소매", "subCategory": "식료품 소매", "dong": "문산읍", "adongCd": "48170250", "lng": 128.165362391962, "lat": 35.1544527074781}, {"name": "은파수산", "category": "소매", "subCategory": "식료품 소매", "dong": "문산읍", "adongCd": "48170250", "lng": 128.165119340777, "lat": 35.1681907985187}, {"name": "가람공예", "category": "소매", "subCategory": "식물 소매", "dong": "문산읍", "adongCd": "48170250", "lng": 128.167580250738, "lat": 35.1714207754906}, {"name": "히트당구장", "category": "예술·스포츠", "subCategory": "스포츠 서비스", "dong": "문산읍", "adongCd": "48170250", "lng": 128.164421277126, "lat": 35.1638803055897}, {"name": "오리궁뎅이", "category": "음식", "subCategory": "한식", "dong": "문산읍", "adongCd": "48170250", "lng": 128.14372360709, "lat": 35.1593276578531}, {"name": "뚝방다슬기추어탕", "category": "음식", "subCategory": "한식", "dong": "문산읍", "adongCd": "48170250", "lng": 128.155120068375, "lat": 35.162752608584}, {"name": "탑노래방", "category": "예술·스포츠", "subCategory": "유원지·오락", "dong": "문산읍", "adongCd": "48170250", "lng": 128.16231846447, "lat": 35.1672803607287}, {"name": "마늘짜글이", "category": "음식", "subCategory": "한식", "dong": "문산읍", "adongCd": "48170250", "lng": 128.164037426493, "lat": 35.1692917679378}, {"name": "새부자공인중개사사무소", "category": "부동산", "subCategory": "부동산 서비스", "dong": "문산읍", "adongCd": "48170250", "lng": 128.163525458401, "lat": 35.1664846454433}, {"name": "오성다도명가연", "category": "음식", "subCategory": "비알코올 ", "dong": "문산읍", "adongCd": "48170250", "lng": 128.164151742369, "lat": 35.1703812362636}, {"name": "소문59", "category": "수리·개인", "subCategory": "이용·미용", "dong": "문산읍", "adongCd": "48170250", "lng": 128.168272335558, "lat": 35.1706930664088}, {"name": "산림자원개발", "category": "과학·기술", "subCategory": "기술 서비스", "dong": "문산읍", "adongCd": "48170250", "lng": 128.162455529019, "lat": 35.1691988046965}, {"name": "크린매니아", "category": "수리·개인", "subCategory": "세탁", "dong": "문산읍", "adongCd": "48170250", "lng": 128.164433136631, "lat": 35.167791814381}, {"name": "시민플라워", "category": "소매", "subCategory": "식물 소매", "dong": "문산읍", "adongCd": "48170250", "lng": 128.161871486711, "lat": 35.1736658189884}, {"name": "가마치통닭", "category": "음식", "subCategory": "기타 간이", "dong": "문산읍", "adongCd": "48170250", "lng": 128.162844664888, "lat": 35.166464144192}, {"name": "바이오카페앤제품홍보판매점", "category": "음식", "subCategory": "비알코올 ", "dong": "문산읍", "adongCd": "48170250", "lng": 128.162662648581, "lat": 35.160616479778}, {"name": "헬로우스크린골프", "category": "예술·스포츠", "subCategory": "스포츠 서비스", "dong": "문산읍", "adongCd": "48170250", "lng": 128.140236060795, "lat": 35.1595047427847}, {"name": "홍연수제돈까스", "category": "음식", "subCategory": "서양식", "dong": "문산읍", "adongCd": "48170250", "lng": 128.164765662834, "lat": 35.1687890548761}, {"name": "옛날추억의수제도넛꽈배기", "category": "음식", "subCategory": "기타 간이", "dong": "문산읍", "adongCd": "48170250", "lng": 128.163538035683, "lat": 35.1658265788211}, {"name": "진주영남아트페스티벌JYAF", "category": "시설관리·임대", "subCategory": "기타 사업 서비스", "dong": "문산읍", "adongCd": "48170250", "lng": 128.168685125069, "lat": 35.1703916569989}, {"name": "그때그집", "category": "음식", "subCategory": "주점", "dong": "문산읍", "adongCd": "48170250", "lng": 128.164282705207, "lat": 35.168018584269}, {"name": "한우돈", "category": "음식", "subCategory": "한식", "dong": "문산읍", "adongCd": "48170250", "lng": 128.16353533421, "lat": 35.1610136840365}, {"name": "해남", "category": "소매", "subCategory": "가전·통신 소매", "dong": "문산읍", "adongCd": "48170250", "lng": 128.163666137752, "lat": 35.1671142008954}, {"name": "진주팜", "category": "소매", "subCategory": "기타 상품 소매", "dong": "문산읍", "adongCd": "48170250", "lng": 128.169679415806, "lat": 35.1455423378597}, {"name": "카페리_봄(홍락원)", "category": "음식", "subCategory": "비알코올 ", "dong": "문산읍", "adongCd": "48170250", "lng": 128.167883768589, "lat": 35.1634774405695}, {"name": "원지손칼국수손만두", "category": "음식", "subCategory": "한식", "dong": "문산읍", "adongCd": "48170250", "lng": 128.162830157554, "lat": 35.1669870349239}, {"name": "베러먼데이진주", "category": "음식", "subCategory": "비알코올 ", "dong": "문산읍", "adongCd": "48170250", "lng": 128.162345726684, "lat": 35.1684247444224}, {"name": "짹짹커피진주점", "category": "음식", "subCategory": "비알코올 ", "dong": "문산읍", "adongCd": "48170250", "lng": 128.162383889751, "lat": 35.1649363639267}, {"name": "문산종합전자전기", "category": "소매", "subCategory": "가전·통신 소매", "dong": "문산읍", "adongCd": "48170250", "lng": 128.169062010573, "lat": 35.1706493952873}, {"name": "유등의꿈", "category": "음식", "subCategory": "비알코올 ", "dong": "문산읍", "adongCd": "48170250", "lng": 128.168531231544, "lat": 35.1473560128616}, {"name": "뜨고뜨는뜨개공방", "category": "교육", "subCategory": "기타 교육", "dong": "문산읍", "adongCd": "48170250", "lng": 128.162235467755, "lat": 35.1683897506252}, {"name": "아뜰리에봉", "category": "소매", "subCategory": "섬유·의복·신발 소매", "dong": "문산읍", "adongCd": "48170250", "lng": 128.15778543701, "lat": 35.171154281449}, {"name": "땀사우나", "category": "수리·개인", "subCategory": "욕탕·신체관리", "dong": "문산읍", "adongCd": "48170250", "lng": 128.161766616607, "lat": 35.1662942296349}, {"name": "아그로켐", "category": "소매", "subCategory": "기타 상품 소매", "dong": "문산읍", "adongCd": "48170250", "lng": 128.16566765388, "lat": 35.1550806785467}, {"name": "클린스쿨경남", "category": "시설관리·임대", "subCategory": "청소·방제", "dong": "문산읍", "adongCd": "48170250", "lng": 128.164391936633, "lat": 35.1679814824562}, {"name": "토스트&과일쥬스", "category": "음식", "subCategory": "기타 간이", "dong": "문산읍", "adongCd": "48170250", "lng": 128.151598080653, "lat": 35.1713935269459}, {"name": "한독약국", "category": "소매", "subCategory": "의약·화장품 소매", "dong": "문산읍", "adongCd": "48170250", "lng": 128.162844664888, "lat": 35.166464144192}, {"name": "명성냉동", "category": "수리·개인", "subCategory": "가전제품 수리", "dong": "문산읍", "adongCd": "48170250", "lng": 128.157103520067, "lat": 35.1780286666832}, {"name": "공감나침반사회적협동조합", "category": "교육", "subCategory": "교육 지원", "dong": "문산읍", "adongCd": "48170250", "lng": 128.166684713501, "lat": 35.1648229126262}, {"name": "영주헤어샵", "category": "수리·개인", "subCategory": "이용·미용", "dong": "문산읍", "adongCd": "48170250", "lng": 128.166486390353, "lat": 35.1709175772542}, {"name": "울아카데미보컬노래실용음악피아노", "category": "교육", "subCategory": "기타 교육", "dong": "문산읍", "adongCd": "48170250", "lng": 128.168685125069, "lat": 35.1703916569989}, {"name": "함초보리밥과생삼겹살", "category": "음식", "subCategory": "한식", "dong": "문산읍", "adongCd": "48170250", "lng": 128.171378986947, "lat": 35.1699510391059}, {"name": "좋은컴퓨터", "category": "수리·개인", "subCategory": "컴퓨터 수리", "dong": "문산읍", "adongCd": "48170250", "lng": 128.164921042565, "lat": 35.1719871573976}, {"name": "처갓집양념치킨진주", "category": "음식", "subCategory": "기타 간이", "dong": "문산읍", "adongCd": "48170250", "lng": 128.167382726184, "lat": 35.1706565790968}, {"name": "세가산업", "category": "소매", "subCategory": "철물·건설자재 소매", "dong": "문산읍", "adongCd": "48170250", "lng": 128.165137398877, "lat": 35.1663790212786}, {"name": "벨루스톤힐링카페산소미인", "category": "소매", "subCategory": "종합 소매", "dong": "문산읍", "adongCd": "48170250", "lng": 128.165507179576, "lat": 35.1684484428119}, {"name": "까치식당", "category": "음식", "subCategory": "한식", "dong": "문산읍", "adongCd": "48170250", "lng": 128.162426324656, "lat": 35.1694604606091}, {"name": "문산그린농약사", "category": "소매", "subCategory": "기타 상품 소매", "dong": "문산읍", "adongCd": "48170250", "lng": 128.162335228878, "lat": 35.1661445673052}, {"name": "카페비채", "category": "음식", "subCategory": "비알코올 ", "dong": "문산읍", "adongCd": "48170250", "lng": 128.163725571995, "lat": 35.1682041973202}, {"name": "윤슬수산", "category": "소매", "subCategory": "식료품 소매", "dong": "문산읍", "adongCd": "48170250", "lng": 128.165663051188, "lat": 35.1632194292981}, {"name": "베이커스트릿221B", "category": "음식", "subCategory": "기타 간이", "dong": "문산읍", "adongCd": "48170250", "lng": 128.164151742369, "lat": 35.1703812362636}, {"name": "태우가설", "category": "시설관리·임대", "subCategory": "산업용품 대여", "dong": "문산읍", "adongCd": "48170250", "lng": 128.137360845749, "lat": 35.1437499999929}, {"name": "유니크", "category": "소매", "subCategory": "오락용품 소매", "dong": "문산읍", "adongCd": "48170250", "lng": 128.162960627968, "lat": 35.1676707669251}, {"name": "카페플랑", "category": "음식", "subCategory": "기타 간이", "dong": "문산읍", "adongCd": "48170250", "lng": 128.166398228856, "lat": 35.1647445550085}, {"name": "월아", "category": "음식", "subCategory": "한식", "dong": "문산읍", "adongCd": "48170250", "lng": 128.162793513769, "lat": 35.1667260109751}, {"name": "쁘띠꼬숑", "category": "음식", "subCategory": "기타 간이", "dong": "문산읍", "adongCd": "48170250", "lng": 128.165663051188, "lat": 35.1632194292981}, {"name": "기타의류소매업", "category": "소매", "subCategory": "섬유·의복·신발 소매", "dong": "문산읍", "adongCd": "48170250", "lng": 128.173310919753, "lat": 35.1477965199143}, {"name": "리치가구갤러리", "category": "소매", "subCategory": "가구 소매", "dong": "문산읍", "adongCd": "48170250", "lng": 128.168106681187, "lat": 35.1706225605477}, {"name": "약초누리", "category": "소매", "subCategory": "기타 상품 소매", "dong": "문산읍", "adongCd": "48170250", "lng": 128.165099320019, "lat": 35.1683261853725}, {"name": "믹스토랑진주", "category": "음식", "subCategory": "서양식", "dong": "문산읍", "adongCd": "48170250", "lng": 128.194460575242, "lat": 35.1683466405822}, {"name": "플라타너스", "category": "과학·기술", "subCategory": "본사·경영 컨설팅", "dong": "문산읍", "adongCd": "48170250", "lng": 128.137801993358, "lat": 35.1573104325089}, {"name": "아이스맨즈문산", "category": "소매", "subCategory": "종합 소매", "dong": "문산읍", "adongCd": "48170250", "lng": 128.161581061916, "lat": 35.1702256577286}, {"name": "중고의반란", "category": "소매", "subCategory": "중고 상품 소매", "dong": "문산읍", "adongCd": "48170250", "lng": 128.160143918134, "lat": 35.1741420395228}, {"name": "경남자원", "category": "소매", "subCategory": "중고 상품 소매", "dong": "문산읍", "adongCd": "48170250", "lng": 128.157100008303, "lat": 35.1708093261573}, {"name": "진주기획", "category": "소매", "subCategory": "오락용품 소매", "dong": "문산읍", "adongCd": "48170250", "lng": 128.194363459372, "lat": 35.1669596085257}, {"name": "진흥이엔지", "category": "소매", "subCategory": "종합 소매", "dong": "문산읍", "adongCd": "48170250", "lng": 128.158079941847, "lat": 35.1694750560911}, {"name": "바요마을", "category": "소매", "subCategory": "기타 상품 소매", "dong": "문산읍", "adongCd": "48170250", "lng": 128.198229185246, "lat": 35.1431633351147}, {"name": "나나상점", "category": "소매", "subCategory": "섬유·의복·신발 소매", "dong": "문산읍", "adongCd": "48170250", "lng": 128.164151742369, "lat": 35.1703812362636}, {"name": "강가요가", "category": "교육", "subCategory": "기타 교육", "dong": "문산읍", "adongCd": "48170250", "lng": 128.162005514182, "lat": 35.1684280087044}, {"name": "본느뻬그랑메르", "category": "음식", "subCategory": "비알코올 ", "dong": "문산읍", "adongCd": "48170250", "lng": 128.169184161676, "lat": 35.1699812583576}, {"name": "제이시JC", "category": "소매", "subCategory": "오락용품 소매", "dong": "문산읍", "adongCd": "48170250", "lng": 128.140665482699, "lat": 35.1611771160227}, {"name": "라니아네일", "category": "수리·개인", "subCategory": "이용·미용", "dong": "문산읍", "adongCd": "48170250", "lng": 128.162239443268, "lat": 35.1686691140614}, {"name": "문산돌솥밥", "category": "음식", "subCategory": "한식", "dong": "문산읍", "adongCd": "48170250", "lng": 128.163579241119, "lat": 35.1671781263626}, {"name": "솔매", "category": "소매", "subCategory": "식료품 소매", "dong": "문산읍", "adongCd": "48170250", "lng": 128.162662648581, "lat": 35.160616479778}, {"name": "비비큐진주", "category": "음식", "subCategory": "기타 간이", "dong": "문산읍", "adongCd": "48170250", "lng": 128.164090903048, "lat": 35.1707333260239}, {"name": "가온", "category": "교육", "subCategory": "기타 교육", "dong": "문산읍", "adongCd": "48170250", "lng": 128.161234883598, "lat": 35.1752131381337}, {"name": "센트렬이노텍", "category": "소매", "subCategory": "의약·화장품 소매", "dong": "문산읍", "adongCd": "48170250", "lng": 128.169840529482, "lat": 35.1560318810224}, {"name": "엠제이유통", "category": "소매", "subCategory": "음료 소매", "dong": "문산읍", "adongCd": "48170250", "lng": 128.175511038414, "lat": 35.1535164522227}, {"name": "착한짜장", "category": "음식", "subCategory": "중식", "dong": "문산읍", "adongCd": "48170250", "lng": 128.168655553514, "lat": 35.1706262788826}, {"name": "자연벌꿀", "category": "소매", "subCategory": "식료품 소매", "dong": "문산읍", "adongCd": "48170250", "lng": 128.153637790114, "lat": 35.1673723612741}, {"name": "제이케이냉열", "category": "수리·개인", "subCategory": "가전제품 수리", "dong": "문산읍", "adongCd": "48170250", "lng": 128.168330014287, "lat": 35.1724229951786}, {"name": "대가식당", "category": "음식", "subCategory": "한식", "dong": "문산읍", "adongCd": "48170250", "lng": 128.164624537841, "lat": 35.1650500359823}, {"name": "풍림", "category": "소매", "subCategory": "철물·건설자재 소매", "dong": "문산읍", "adongCd": "48170250", "lng": 128.190169876909, "lat": 35.1691639884522}, {"name": "에어닥터", "category": "시설관리·임대", "subCategory": "청소·방제", "dong": "문산읍", "adongCd": "48170250", "lng": 128.164169861124, "lat": 35.1662621428314}, {"name": "진산주유소", "category": "소매", "subCategory": "연료 소매", "dong": "문산읍", "adongCd": "48170250", "lng": 128.159804961557, "lat": 35.1742354153105}, {"name": "태극클린앤로지스", "category": "소매", "subCategory": "장식품 소매", "dong": "문산읍", "adongCd": "48170250", "lng": 128.161491909837, "lat": 35.164728609156}, {"name": "법무사이상룡사무소", "category": "과학·기술", "subCategory": "법무관련 ", "dong": "문산읍", "adongCd": "48170250", "lng": 128.163671848043, "lat": 35.1667446148811}, {"name": "두산상회", "category": "소매", "subCategory": "식료품 소매", "dong": "문산읍", "adongCd": "48170250", "lng": 128.161995877038, "lat": 35.136107562818}, {"name": "5도2촌공인중개사사무소", "category": "부동산", "subCategory": "부동산 서비스", "dong": "문산읍", "adongCd": "48170250", "lng": 128.161234637159, "lat": 35.1643885832861}, {"name": "두성유통문산주유소", "category": "소매", "subCategory": "연료 소매", "dong": "문산읍", "adongCd": "48170250", "lng": 128.151598080653, "lat": 35.1713935269459}, {"name": "두성유통문산휴게소", "category": "소매", "subCategory": "연료 소매", "dong": "문산읍", "adongCd": "48170250", "lng": 128.151598080653, "lat": 35.1713935269459}, {"name": "두성유통문산휴게소", "category": "음식", "subCategory": "한식", "dong": "문산읍", "adongCd": "48170250", "lng": 128.151598080653, "lat": 35.1713935269459}, {"name": "에이치케이바이오텍", "category": "수리·개인", "subCategory": "욕탕·신체관리", "dong": "문산읍", "adongCd": "48170250", "lng": 128.16378610878, "lat": 35.1555043520319}, {"name": "에이치케이바이오텍", "category": "소매", "subCategory": "종합 소매", "dong": "문산읍", "adongCd": "48170250", "lng": 128.16378610878, "lat": 35.1555043520319}, {"name": "이음아트웍", "category": "교육", "subCategory": "기타 교육", "dong": "문산읍", "adongCd": "48170250", "lng": 128.169184161676, "lat": 35.1699812583576}, {"name": "에이치케이바이오텍", "category": "수리·개인", "subCategory": "욕탕·신체관리", "dong": "문산읍", "adongCd": "48170250", "lng": 128.16378610878, "lat": 35.1555043520319}, {"name": "진주의료재단", "category": "보건의료", "subCategory": "의원", "dong": "문산읍", "adongCd": "48170250", "lng": 128.175511038414, "lat": 35.1535164522227}, {"name": "진주의료재단", "category": "보건의료", "subCategory": "의원", "dong": "문산읍", "adongCd": "48170250", "lng": 128.175511038414, "lat": 35.1535164522227}, {"name": "문산막창", "category": "음식", "subCategory": "한식", "dong": "문산읍", "adongCd": "48170250", "lng": 128.164050698706, "lat": 35.1679126586987}, {"name": "영헤어", "category": "수리·개인", "subCategory": "이용·미용", "dong": "문산읍", "adongCd": "48170250", "lng": 128.162760254526, "lat": 35.1690156207328}, {"name": "문산역아구찜", "category": "음식", "subCategory": "한식", "dong": "문산읍", "adongCd": "48170250", "lng": 128.161773544776, "lat": 35.1544330993301}, {"name": "삼화유통", "category": "소매", "subCategory": "식료품 소매", "dong": "문산읍", "adongCd": "48170250", "lng": 128.167278387407, "lat": 35.1710361283903}, {"name": "소문길", "category": "소매", "subCategory": "섬유·의복·신발 소매", "dong": "문산읍", "adongCd": "48170250", "lng": 128.162433194818, "lat": 35.1691719801816}, {"name": "써니헤어", "category": "수리·개인", "subCategory": "이용·미용", "dong": "문산읍", "adongCd": "48170250", "lng": 128.166601675138, "lat": 35.1713040235947}, {"name": "사랑그림숲문산", "category": "음식", "subCategory": "한식", "dong": "문산읍", "adongCd": "48170250", "lng": 128.167098937657, "lat": 35.1669279532149}, {"name": "진주스포츠파크문화시설사업소", "category": "과학·기술", "subCategory": "기타 전문 과학", "dong": "문산읍", "adongCd": "48170250", "lng": 128.16256341127, "lat": 35.1574989454668}, {"name": "진주양계생산자협동조합", "category": "소매", "subCategory": "기타 상품 소매", "dong": "문산읍", "adongCd": "48170250", "lng": 128.164421277126, "lat": 35.1638803055897}, {"name": "남강레저산업", "category": "예술·스포츠", "subCategory": "유원지·오락", "dong": "내동면", "adongCd": "48170310", "lng": 128.067318953923, "lat": 35.166270977131}, {"name": "카페리_봄(능력개발원)", "category": "음식", "subCategory": "비알코올 ", "dong": "내동면", "adongCd": "48170310", "lng": 128.032107083718, "lat": 35.1592394605265}, {"name": "송원가든", "category": "음식", "subCategory": "한식", "dong": "내동면", "adongCd": "48170310", "lng": 128.070013616131, "lat": 35.1599921415067}, {"name": "화성", "category": "부동산", "subCategory": "부동산 서비스", "dong": "내동면", "adongCd": "48170310", "lng": 128.092000837085, "lat": 35.1504494061932}, {"name": "하나로컨설팅", "category": "과학·기술", "subCategory": "기술 서비스", "dong": "내동면", "adongCd": "48170310", "lng": 128.058197586312, "lat": 35.1391224758613}, {"name": "단인테리어", "category": "과학·기술", "subCategory": "전문 디자인", "dong": "내동면", "adongCd": "48170310", "lng": 128.070188956288, "lat": 35.159134351651}, {"name": "수학의달인내동학원", "category": "교육", "subCategory": "일반 교육", "dong": "내동면", "adongCd": "48170310", "lng": 128.066813674469, "lat": 35.1620392901921}, {"name": "소담원", "category": "소매", "subCategory": "종합 소매", "dong": "내동면", "adongCd": "48170310", "lng": 128.0713682753, "lat": 35.1419359940647}, {"name": "진주휴먼빌공인중개사사무소", "category": "부동산", "subCategory": "부동산 서비스", "dong": "내동면", "adongCd": "48170310", "lng": 128.065784225598, "lat": 35.1622105869522}, {"name": "청지기모터스", "category": "수리·개인", "subCategory": "자동차 수리·세차", "dong": "내동면", "adongCd": "48170310", "lng": 128.07215842319, "lat": 35.1544932346818}, {"name": "캠핑소사이어티", "category": "숙박", "subCategory": "일반 숙박", "dong": "내동면", "adongCd": "48170310", "lng": 128.022661875779, "lat": 35.1288822179247}, {"name": "진주곰탕", "category": "음식", "subCategory": "한식", "dong": "내동면", "adongCd": "48170310", "lng": 128.093356597738, "lat": 35.1500766565809}, {"name": "대동건축자재", "category": "소매", "subCategory": "철물·건설자재 소매", "dong": "내동면", "adongCd": "48170310", "lng": 128.088388447505, "lat": 35.1511218390281}, {"name": "불스원프라자경남지사진주", "category": "수리·개인", "subCategory": "자동차 수리·세차", "dong": "내동면", "adongCd": "48170310", "lng": 128.069027852913, "lat": 35.1609832684248}, {"name": "예일리디자인", "category": "과학·기술", "subCategory": "전문 디자인", "dong": "내동면", "adongCd": "48170310", "lng": 128.070126560098, "lat": 35.1635873546869}, {"name": "풀피리교육농장", "category": "예술·스포츠", "subCategory": "유원지·오락", "dong": "내동면", "adongCd": "48170310", "lng": 128.0453953358, "lat": 35.1255787151664}, {"name": "명품종합정비", "category": "수리·개인", "subCategory": "자동차 수리·세차", "dong": "내동면", "adongCd": "48170310", "lng": 128.07270494681, "lat": 35.1543261615218}, {"name": "청정4호에너지드림", "category": "소매", "subCategory": "기타 생활용품 소매", "dong": "내동면", "adongCd": "48170310", "lng": 128.040538893171, "lat": 35.1482704913719}, {"name": "록촌참숯생갈비", "category": "음식", "subCategory": "한식", "dong": "내동면", "adongCd": "48170310", "lng": 128.07048098783, "lat": 35.1579690861688}, {"name": "아트스타", "category": "과학·기술", "subCategory": "전문 디자인", "dong": "내동면", "adongCd": "48170310", "lng": 128.067318953923, "lat": 35.166270977131}, {"name": "옹기토기", "category": "소매", "subCategory": "기타 생활용품 소매", "dong": "내동면", "adongCd": "48170310", "lng": 128.070533139705, "lat": 35.1577613248232}, {"name": "이오스타", "category": "소매", "subCategory": "의약·화장품 소매", "dong": "내동면", "adongCd": "48170310", "lng": 128.089639039383, "lat": 35.1519127596728}, {"name": "제이원빌리지", "category": "숙박", "subCategory": "일반 숙박", "dong": "내동면", "adongCd": "48170310", "lng": 128.018420596384, "lat": 35.1327665513332}, {"name": "나동장어", "category": "음식", "subCategory": "한식", "dong": "내동면", "adongCd": "48170310", "lng": 128.068559627321, "lat": 35.1612668044532}, {"name": "아오라", "category": "음식", "subCategory": "비알코올 ", "dong": "내동면", "adongCd": "48170310", "lng": 128.067220393622, "lat": 35.1671280858151}, {"name": "내동자동차종합검사소", "category": "수리·개인", "subCategory": "자동차 수리·세차", "dong": "내동면", "adongCd": "48170310", "lng": 128.064935451981, "lat": 35.1560350864494}, {"name": "아웃독", "category": "소매", "subCategory": "애완동물·용품 소매", "dong": "내동면", "adongCd": "48170310", "lng": 128.016350668609, "lat": 35.1321800480213}, {"name": "하나마트", "category": "소매", "subCategory": "종합 소매", "dong": "내동면", "adongCd": "48170310", "lng": 128.089525348038, "lat": 35.1516163513548}, {"name": "진주자동차밧데리할인매장", "category": "소매", "subCategory": "자동차 부품 소매", "dong": "내동면", "adongCd": "48170310", "lng": 128.069287335108, "lat": 35.1606835472198}, {"name": "투게더하우스", "category": "음식", "subCategory": "주점", "dong": "내동면", "adongCd": "48170310", "lng": 128.065784225598, "lat": 35.1622105869522}, {"name": "미스터비나가사끼짬뽕", "category": "음식", "subCategory": "중식", "dong": "내동면", "adongCd": "48170310", "lng": 128.069828359483, "lat": 35.1600929213962}, {"name": "해림건축인테리어", "category": "과학·기술", "subCategory": "전문 디자인", "dong": "내동면", "adongCd": "48170310", "lng": 128.064047496525, "lat": 35.1620095409577}, {"name": "삼화라이팅", "category": "소매", "subCategory": "기타 생활용품 소매", "dong": "내동면", "adongCd": "48170310", "lng": 128.092027930572, "lat": 35.1459065811342}, {"name": "한성렌터카진주내동예약소", "category": "시설관리·임대", "subCategory": "운송장비 대여", "dong": "내동면", "adongCd": "48170310", "lng": 128.079250700485, "lat": 35.154709665655}, {"name": "제이원", "category": "음식", "subCategory": "한식", "dong": "내동면", "adongCd": "48170310", "lng": 128.017011113317, "lat": 35.1314714810878}, {"name": "월드스포츠", "category": "예술·스포츠", "subCategory": "스포츠 서비스", "dong": "내동면", "adongCd": "48170310", "lng": 128.064187859315, "lat": 35.1559334989543}, {"name": "오공팔", "category": "음식", "subCategory": "비알코올 ", "dong": "내동면", "adongCd": "48170310", "lng": 128.029240080407, "lat": 35.1485833161367}, {"name": "에스제이대경", "category": "음식", "subCategory": "한식", "dong": "내동면", "adongCd": "48170310", "lng": 128.053841016878, "lat": 35.1509946438066}, {"name": "예그린커피갤러리", "category": "음식", "subCategory": "비알코올 ", "dong": "내동면", "adongCd": "48170310", "lng": 128.089525348038, "lat": 35.1516163513548}, {"name": "경대정비", "category": "수리·개인", "subCategory": "자동차 수리·세차", "dong": "내동면", "adongCd": "48170310", "lng": 128.083485702623, "lat": 35.1546267987007}, {"name": "세븐일레븐진주르네상스점", "category": "소매", "subCategory": "종합 소매", "dong": "내동면", "adongCd": "48170310", "lng": 128.030409195581, "lat": 35.1612367964557}, {"name": "빵을요리하다", "category": "음식", "subCategory": "서양식", "dong": "내동면", "adongCd": "48170310", "lng": 128.064876359303, "lat": 35.1616056826973}, {"name": "대게궁", "category": "음식", "subCategory": "한식", "dong": "내동면", "adongCd": "48170310", "lng": 128.046061794863, "lat": 35.1545230893942}, {"name": "토종닭집", "category": "음식", "subCategory": "한식", "dong": "내동면", "adongCd": "48170310", "lng": 128.016418868738, "lat": 35.1359019078232}, {"name": "아이비스테이지", "category": "시설관리·임대", "subCategory": "기타 사업 서비스", "dong": "내동면", "adongCd": "48170310", "lng": 128.061942911873, "lat": 35.1537720335949}, {"name": "슈퍼마켓", "category": "소매", "subCategory": "종합 소매", "dong": "내동면", "adongCd": "48170310", "lng": 128.094124411629, "lat": 35.1484113231709}, {"name": "청둥오리", "category": "음식", "subCategory": "한식", "dong": "내동면", "adongCd": "48170310", "lng": 128.032877906869, "lat": 35.1507605711077}, {"name": "삼양가스", "category": "소매", "subCategory": "연료 소매", "dong": "내동면", "adongCd": "48170310", "lng": 128.037411268265, "lat": 35.1543090541551}, {"name": "신일석물", "category": "소매", "subCategory": "철물·건설자재 소매", "dong": "내동면", "adongCd": "48170310", "lng": 128.0863822941, "lat": 35.1537536313333}, {"name": "뉴월드", "category": "과학·기술", "subCategory": "인쇄·제품제작", "dong": "내동면", "adongCd": "48170310", "lng": 128.090402916465, "lat": 35.1515904300812}, {"name": "대원철뚝집", "category": "음식", "subCategory": "한식", "dong": "내동면", "adongCd": "48170310", "lng": 128.016176392024, "lat": 35.1358138099357}, {"name": "산새랑", "category": "소매", "subCategory": "종합 소매", "dong": "내동면", "adongCd": "48170310", "lng": 128.029363387506, "lat": 35.148789570309}, {"name": "대진냉열", "category": "수리·개인", "subCategory": "가전제품 수리", "dong": "내동면", "adongCd": "48170310", "lng": 128.090251977113, "lat": 35.1509698877129}, {"name": "가마솥", "category": "음식", "subCategory": "한식", "dong": "내동면", "adongCd": "48170310", "lng": 128.095035825689, "lat": 35.1484571674243}, {"name": "대영간판전문", "category": "과학·기술", "subCategory": "인쇄·제품제작", "dong": "내동면", "adongCd": "48170310", "lng": 128.062869352324, "lat": 35.1566571068544}, {"name": "다루황토방", "category": "소매", "subCategory": "연료 소매", "dong": "내동면", "adongCd": "48170310", "lng": 128.04831685544, "lat": 35.1249856517925}, {"name": "동원가스", "category": "소매", "subCategory": "연료 소매", "dong": "내동면", "adongCd": "48170310", "lng": 128.067952523812, "lat": 35.1610017662911}, {"name": "청화원", "category": "음식", "subCategory": "한식", "dong": "내동면", "adongCd": "48170310", "lng": 128.071187119555, "lat": 35.1607659067364}, {"name": "신동양가스", "category": "소매", "subCategory": "연료 소매", "dong": "내동면", "adongCd": "48170310", "lng": 128.07025279155, "lat": 35.1589805656201}, {"name": "내동오토정비", "category": "수리·개인", "subCategory": "자동차 수리·세차", "dong": "내동면", "adongCd": "48170310", "lng": 128.090667128972, "lat": 35.1508309552527}, {"name": "나무그늘", "category": "음식", "subCategory": "비알코올 ", "dong": "내동면", "adongCd": "48170310", "lng": 128.013400927562, "lat": 35.134962776835}, {"name": "코오롱가스", "category": "소매", "subCategory": "연료 소매", "dong": "내동면", "adongCd": "48170310", "lng": 128.037411268265, "lat": 35.1543090541551}, {"name": "세종종합렌탈", "category": "시설관리·임대", "subCategory": "기타 사업 서비스", "dong": "내동면", "adongCd": "48170310", "lng": 128.058095689786, "lat": 35.1397272436449}, {"name": "희정슈퍼", "category": "소매", "subCategory": "종합 소매", "dong": "내동면", "adongCd": "48170310", "lng": 128.032500053199, "lat": 35.1503852410761}, {"name": "감나무토종닭식당", "category": "소매", "subCategory": "종합 소매", "dong": "내동면", "adongCd": "48170310", "lng": 128.018306067852, "lat": 35.1323799482259}, {"name": "신토불이식당", "category": "음식", "subCategory": "한식", "dong": "내동면", "adongCd": "48170310", "lng": 128.033311539328, "lat": 35.1512075290801}, {"name": "유공가스", "category": "소매", "subCategory": "연료 소매", "dong": "내동면", "adongCd": "48170310", "lng": 128.037411268265, "lat": 35.1543090541551}, {"name": "아마존골프", "category": "소매", "subCategory": "오락용품 소매", "dong": "내동면", "adongCd": "48170310", "lng": 128.069271529861, "lat": 35.1594759362771}, {"name": "진주풋살장", "category": "예술·스포츠", "subCategory": "스포츠 서비스", "dong": "내동면", "adongCd": "48170310", "lng": 128.038239083479, "lat": 35.1555457706424}, {"name": "법인서경엔앤에이치주", "category": "예술·스포츠", "subCategory": "스포츠 서비스", "dong": "내동면", "adongCd": "48170310", "lng": 128.053841016878, "lat": 35.1509946438066}, {"name": "세화법인주", "category": "예술·스포츠", "subCategory": "스포츠 서비스", "dong": "내동면", "adongCd": "48170310", "lng": 128.045549111749, "lat": 35.1521931231628}, {"name": "진주내동공원묘원", "category": "수리·개인", "subCategory": "장례식장 ", "dong": "내동면", "adongCd": "48170310", "lng": 128.003678970427, "lat": 35.1196852416771}, {"name": "진주남부농협내동주유소", "category": "소매", "subCategory": "연료 소매", "dong": "내동면", "adongCd": "48170310", "lng": 128.069530298668, "lat": 35.1591221424426}, {"name": "동성모터스진주서비스센터주", "category": "수리·개인", "subCategory": "자동차 수리·세차", "dong": "내동면", "adongCd": "48170310", "lng": 128.080783577809, "lat": 35.1561020373644}, {"name": "솔로몬광고디자인", "category": "과학·기술", "subCategory": "인쇄·제품제작", "dong": "내동면", "adongCd": "48170310", "lng": 128.068711612622, "lat": 35.1611392808308}, {"name": "삼계가든", "category": "음식", "subCategory": "한식", "dong": "내동면", "adongCd": "48170310", "lng": 128.034930761932, "lat": 35.1542852039354}, {"name": "남강댐노을공원매점", "category": "소매", "subCategory": "장식품 소매", "dong": "내동면", "adongCd": "48170310", "lng": 128.030409195581, "lat": 35.1612367964557}, {"name": "도덕봉가든", "category": "음식", "subCategory": "한식", "dong": "내동면", "adongCd": "48170310", "lng": 128.069755318803, "lat": 35.1603819844161}, {"name": "제이원", "category": "소매", "subCategory": "종합 소매", "dong": "내동면", "adongCd": "48170310", "lng": 128.017206894997, "lat": 35.1313346405537}, {"name": "행거하임", "category": "시설관리·임대", "subCategory": "가정용품 대여", "dong": "내동면", "adongCd": "48170310", "lng": 128.057652225438, "lat": 35.1444629930353}, {"name": "지금여기", "category": "음식", "subCategory": "비알코올 ", "dong": "내동면", "adongCd": "48170310", "lng": 128.065339747603, "lat": 35.1550581198804}, {"name": "인연슈퍼쉼터", "category": "음식", "subCategory": "비알코올 ", "dong": "내동면", "adongCd": "48170310", "lng": 128.022356126257, "lat": 35.1421611591634}, {"name": "셰프의스튜디오", "category": "시설관리·임대", "subCategory": "산업용품 대여", "dong": "내동면", "adongCd": "48170310", "lng": 128.088517710915, "lat": 35.1451720575392}, {"name": "정봉영농구교실", "category": "교육", "subCategory": "기타 교육", "dong": "내동면", "adongCd": "48170310", "lng": 128.085013256737, "lat": 35.1498271933108}, {"name": "산골추어탕", "category": "음식", "subCategory": "한식", "dong": "내동면", "adongCd": "48170310", "lng": 128.06784367076, "lat": 35.1635894744819}, {"name": "건영승마장", "category": "교육", "subCategory": "일반 교육", "dong": "내동면", "adongCd": "48170310", "lng": 128.062154487726, "lat": 35.1413411302285}, {"name": "진주승마클럽", "category": "예술·스포츠", "subCategory": "스포츠 서비스", "dong": "내동면", "adongCd": "48170310", "lng": 128.045549111749, "lat": 35.1521931231628}, {"name": "스포츠가치센터", "category": "예술·스포츠", "subCategory": "스포츠 서비스", "dong": "내동면", "adongCd": "48170310", "lng": 128.034768069458, "lat": 35.1561703323594}, {"name": "달달하오", "category": "음식", "subCategory": "기타 간이", "dong": "내동면", "adongCd": "48170310", "lng": 128.046061794863, "lat": 35.1545230893942}, {"name": "점프윙스줄넘기복싱", "category": "교육", "subCategory": "기타 교육", "dong": "내동면", "adongCd": "48170310", "lng": 128.065151982156, "lat": 35.1642260608567}, {"name": "강릉초당갈비", "category": "음식", "subCategory": "한식", "dong": "내동면", "adongCd": "48170310", "lng": 128.041931460041, "lat": 35.1550724288903}, {"name": "의천", "category": "소매", "subCategory": "장식품 소매", "dong": "내동면", "adongCd": "48170310", "lng": 128.043071066992, "lat": 35.1549364390485}, {"name": "진주현대종합정비", "category": "수리·개인", "subCategory": "자동차 수리·세차", "dong": "내동면", "adongCd": "48170310", "lng": 128.079250700485, "lat": 35.154709665655}, {"name": "내동고사리짬뽕", "category": "음식", "subCategory": "중식", "dong": "내동면", "adongCd": "48170310", "lng": 128.088036137427, "lat": 35.1526842622002}, {"name": "국제항공교육원", "category": "교육", "subCategory": "기타 교육", "dong": "내동면", "adongCd": "48170310", "lng": 128.077759173573, "lat": 35.1606084706961}, {"name": "태경맛집", "category": "음식", "subCategory": "기타 간이", "dong": "내동면", "adongCd": "48170310", "lng": 128.065784225598, "lat": 35.1622105869522}, {"name": "이듬", "category": "소매", "subCategory": "철물·건설자재 소매", "dong": "내동면", "adongCd": "48170310", "lng": 128.077759173573, "lat": 35.1606084706961}, {"name": "내동공원매점", "category": "소매", "subCategory": "종합 소매", "dong": "내동면", "adongCd": "48170310", "lng": 128.003678970427, "lat": 35.1196852416771}, {"name": "원터치스테이지", "category": "시설관리·임대", "subCategory": "기타 사업 서비스", "dong": "내동면", "adongCd": "48170310", "lng": 128.00982539556, "lat": 35.1288456495314}, {"name": "진주FC", "category": "교육", "subCategory": "일반 교육", "dong": "내동면", "adongCd": "48170310", "lng": 128.038239083479, "lat": 35.1555457706424}, {"name": "케이애드테인먼트", "category": "시설관리·임대", "subCategory": "가정용품 대여", "dong": "내동면", "adongCd": "48170310", "lng": 128.065743313225, "lat": 35.1590744000051}, {"name": "동원밧데리할인마트", "category": "소매", "subCategory": "자동차 부품 소매", "dong": "내동면", "adongCd": "48170310", "lng": 128.068192772403, "lat": 35.160909517408}, {"name": "라인점핑", "category": "소매", "subCategory": "식료품 소매", "dong": "내동면", "adongCd": "48170310", "lng": 128.065784225598, "lat": 35.1622105869522}, {"name": "캠핑톡지점", "category": "숙박", "subCategory": "일반 숙박", "dong": "내동면", "adongCd": "48170310", "lng": 128.022661875779, "lat": 35.1288822179247}, {"name": "유정상사", "category": "소매", "subCategory": "식료품 소매", "dong": "내동면", "adongCd": "48170310", "lng": 128.032877906869, "lat": 35.1507605711077}, {"name": "지엠커뮤니케이션", "category": "시설관리·임대", "subCategory": "기타 사업 서비스", "dong": "내동면", "adongCd": "48170310", "lng": 128.065743313225, "lat": 35.1590744000051}, {"name": "가람장의서비스", "category": "수리·개인", "subCategory": "장례식장 ", "dong": "내동면", "adongCd": "48170310", "lng": 128.057308568976, "lat": 35.1535241487209}, {"name": "카본에듀", "category": "과학·기술", "subCategory": "본사·경영 컨설팅", "dong": "내동면", "adongCd": "48170310", "lng": 128.077759173573, "lat": 35.1606084706961}, {"name": "테일러앤유", "category": "과학·기술", "subCategory": "광고", "dong": "내동면", "adongCd": "48170310", "lng": 128.070472021521, "lat": 35.1581223875009}, {"name": "지에스25진주", "category": "소매", "subCategory": "종합 소매", "dong": "내동면", "adongCd": "48170310", "lng": 128.066813674469, "lat": 35.1620392901921}, {"name": "성지원", "category": "음식", "subCategory": "한식", "dong": "내동면", "adongCd": "48170310", "lng": 128.053841016878, "lat": 35.1509946438066}, {"name": "봄아르떼미술교습소", "category": "교육", "subCategory": "기타 교육", "dong": "내동면", "adongCd": "48170310", "lng": 128.065784225598, "lat": 35.1622105869522}, {"name": "글라스선루프", "category": "수리·개인", "subCategory": "자동차 수리·세차", "dong": "내동면", "adongCd": "48170310", "lng": 128.069027852913, "lat": 35.1609832684248}, {"name": "남가람로봇카페", "category": "음식", "subCategory": "한식", "dong": "내동면", "adongCd": "48170310", "lng": 128.054761361813, "lat": 35.1525819516616}, {"name": "지에스25진주스포츠가치", "category": "음식", "subCategory": "한식", "dong": "내동면", "adongCd": "48170310", "lng": 128.034768069458, "lat": 35.1561703323594}, {"name": "아이언모터스진주", "category": "소매", "subCategory": "자동차 부품 소매", "dong": "내동면", "adongCd": "48170310", "lng": 128.081755305027, "lat": 35.1557238290398}, {"name": "아이언모터스진주", "category": "소매", "subCategory": "자동차 부품 소매", "dong": "내동면", "adongCd": "48170310", "lng": 128.081755305027, "lat": 35.1557238290398}, {"name": "좋은공기방충망", "category": "소매", "subCategory": "철물·건설자재 소매", "dong": "정촌면", "adongCd": "48170320", "lng": 128.102240837334, "lat": 35.1228848597922}, {"name": "스물미장원", "category": "수리·개인", "subCategory": "이용·미용", "dong": "정촌면", "adongCd": "48170320", "lng": 128.09824515794, "lat": 35.1218756154429}, {"name": "미소페진주모다점", "category": "소매", "subCategory": "섬유·의복·신발 소매", "dong": "정촌면", "adongCd": "48170320", "lng": 128.098470377764, "lat": 35.1321124344671}, {"name": "Y.S몰", "category": "소매", "subCategory": "섬유·의복·신발 소매", "dong": "정촌면", "adongCd": "48170320", "lng": 128.099723619274, "lat": 35.1322993553502}, {"name": "만복공인중개사사무소", "category": "부동산", "subCategory": "부동산 서비스", "dong": "정촌면", "adongCd": "48170320", "lng": 128.104039036029, "lat": 35.1341979251954}, {"name": "벤제프", "category": "소매", "subCategory": "섬유·의복·신발 소매", "dong": "정촌면", "adongCd": "48170320", "lng": 128.099511973839, "lat": 35.1328781124622}, {"name": "디스커버리진주정촌점", "category": "소매", "subCategory": "섬유·의복·신발 소매", "dong": "정촌면", "adongCd": "48170320", "lng": 128.098640039714, "lat": 35.130858079069}, {"name": "행텐모다진주점", "category": "소매", "subCategory": "섬유·의복·신발 소매", "dong": "정촌면", "adongCd": "48170320", "lng": 128.098470377764, "lat": 35.1321124344671}, {"name": "맛나김치찌개", "category": "음식", "subCategory": "한식", "dong": "정촌면", "adongCd": "48170320", "lng": 128.103030485613, "lat": 35.1253112073074}, {"name": "그린미술원", "category": "교육", "subCategory": "기타 교육", "dong": "정촌면", "adongCd": "48170320", "lng": 128.09824515794, "lat": 35.1218756154429}, {"name": "다육이랑한국춘란", "category": "소매", "subCategory": "식물 소매", "dong": "정촌면", "adongCd": "48170320", "lng": 128.092739648742, "lat": 35.1154089089456}, {"name": "정촌부동산뱅크중개사무소", "category": "부동산", "subCategory": "부동산 서비스", "dong": "정촌면", "adongCd": "48170320", "lng": 128.100891532658, "lat": 35.1424464736427}, {"name": "미셸모다진주", "category": "소매", "subCategory": "섬유·의복·신발 소매", "dong": "정촌면", "adongCd": "48170320", "lng": 128.098470377764, "lat": 35.1321124344671}, {"name": "머슬팩토리24정촌점", "category": "예술·스포츠", "subCategory": "스포츠 서비스", "dong": "정촌면", "adongCd": "48170320", "lng": 128.103913167274, "lat": 35.1281242630716}, {"name": "정촌도깨비설렁탕", "category": "음식", "subCategory": "한식", "dong": "정촌면", "adongCd": "48170320", "lng": 128.102983255208, "lat": 35.1299443579828}, {"name": "테이크루트", "category": "음식", "subCategory": "비알코올 ", "dong": "정촌면", "adongCd": "48170320", "lng": 128.093462466384, "lat": 35.1128606947085}, {"name": "루이카스텔진주", "category": "소매", "subCategory": "섬유·의복·신발 소매", "dong": "정촌면", "adongCd": "48170320", "lng": 128.099723619274, "lat": 35.1322993553502}, {"name": "아르토ARTSTUDIO", "category": "교육", "subCategory": "기타 교육", "dong": "정촌면", "adongCd": "48170320", "lng": 128.101940709882, "lat": 35.1242215252065}, {"name": "모다앤드지", "category": "소매", "subCategory": "섬유·의복·신발 소매", "dong": "정촌면", "adongCd": "48170320", "lng": 128.098470377764, "lat": 35.1321124344671}, {"name": "안녕,음악", "category": "교육", "subCategory": "기타 교육", "dong": "정촌면", "adongCd": "48170320", "lng": 128.100138052084, "lat": 35.1255898646862}, {"name": "마모트", "category": "소매", "subCategory": "섬유·의복·신발 소매", "dong": "정촌면", "adongCd": "48170320", "lng": 128.098470377764, "lat": 35.1321124344671}, {"name": "웰푸드(진", "category": "소매", "subCategory": "종합 소매", "dong": "정촌면", "adongCd": "48170320", "lng": 128.102188727471, "lat": 35.1149448024418}, {"name": "게스진주모다", "category": "소매", "subCategory": "섬유·의복·신발 소매", "dong": "정촌면", "adongCd": "48170320", "lng": 128.098470377764, "lat": 35.1321124344671}, {"name": "장금이맷돌콩국수", "category": "음식", "subCategory": "한식", "dong": "정촌면", "adongCd": "48170320", "lng": 128.104247237688, "lat": 35.1284907555166}, {"name": "지오지아", "category": "소매", "subCategory": "섬유·의복·신발 소매", "dong": "정촌면", "adongCd": "48170320", "lng": 128.098470377764, "lat": 35.1321124344671}, {"name": "지유샵", "category": "소매", "subCategory": "섬유·의복·신발 소매", "dong": "정촌면", "adongCd": "48170320", "lng": 128.098470377764, "lat": 35.1321124344671}, {"name": "모다진주민윤희", "category": "소매", "subCategory": "섬유·의복·신발 소매", "dong": "정촌면", "adongCd": "48170320", "lng": 128.098470377764, "lat": 35.1321124344671}, {"name": "마운티아진주", "category": "소매", "subCategory": "섬유·의복·신발 소매", "dong": "정촌면", "adongCd": "48170320", "lng": 128.098470377764, "lat": 35.1321124344671}, {"name": "다정한정식", "category": "음식", "subCategory": "한식", "dong": "정촌면", "adongCd": "48170320", "lng": 128.103230176685, "lat": 35.1271029920283}, {"name": "데니스골프", "category": "소매", "subCategory": "섬유·의복·신발 소매", "dong": "정촌면", "adongCd": "48170320", "lng": 128.098470377764, "lat": 35.1321124344671}, {"name": "씨유진주정촌", "category": "소매", "subCategory": "종합 소매", "dong": "정촌면", "adongCd": "48170320", "lng": 128.104635793512, "lat": 35.1288297111417}, {"name": "웰메이드", "category": "소매", "subCategory": "섬유·의복·신발 소매", "dong": "정촌면", "adongCd": "48170320", "lng": 128.098470377764, "lat": 35.1321124344671}, {"name": "진주어패럴", "category": "소매", "subCategory": "섬유·의복·신발 소매", "dong": "정촌면", "adongCd": "48170320", "lng": 128.098470377764, "lat": 35.1321124344671}, {"name": "지컷", "category": "소매", "subCategory": "섬유·의복·신발 소매", "dong": "정촌면", "adongCd": "48170320", "lng": 128.098470377764, "lat": 35.1321124344671}, {"name": "정촌스크린골프", "category": "예술·스포츠", "subCategory": "스포츠 서비스", "dong": "정촌면", "adongCd": "48170320", "lng": 128.102829450732, "lat": 35.1266740116497}, {"name": "예하리김밥", "category": "음식", "subCategory": "기타 간이", "dong": "정촌면", "adongCd": "48170320", "lng": 128.102466046984, "lat": 35.1257579841302}, {"name": "미즈노모다진주점", "category": "소매", "subCategory": "섬유·의복·신발 소매", "dong": "정촌면", "adongCd": "48170320", "lng": 128.099181071981, "lat": 35.1311145520622}, {"name": "오성인테리어", "category": "과학·기술", "subCategory": "전문 디자인", "dong": "정촌면", "adongCd": "48170320", "lng": 128.098990012769, "lat": 35.1332253440077}, {"name": "예하수산횟집", "category": "음식", "subCategory": "한식", "dong": "정촌면", "adongCd": "48170320", "lng": 128.092969143664, "lat": 35.1145235555262}, {"name": "신신공인중개사", "category": "부동산", "subCategory": "부동산 서비스", "dong": "정촌면", "adongCd": "48170320", "lng": 128.09824515794, "lat": 35.1218756154429}, {"name": "남진주현대서비스", "category": "수리·개인", "subCategory": "자동차 수리·세차", "dong": "정촌면", "adongCd": "48170320", "lng": 128.098297623868, "lat": 35.1176119476495}, {"name": "세븐일레븐진주정촌파미르점", "category": "소매", "subCategory": "종합 소매", "dong": "정촌면", "adongCd": "48170320", "lng": 128.099314610393, "lat": 35.1288059932954}, {"name": "신신광고", "category": "과학·기술", "subCategory": "광고", "dong": "정촌면", "adongCd": "48170320", "lng": 128.09824515794, "lat": 35.1218756154429}, {"name": "살론드코코", "category": "수리·개인", "subCategory": "이용·미용", "dong": "정촌면", "adongCd": "48170320", "lng": 128.098653034311, "lat": 35.1261080687604}, {"name": "모다수선실", "category": "수리·개인", "subCategory": "기타 가정용품 수리", "dong": "정촌면", "adongCd": "48170320", "lng": 128.098470377764, "lat": 35.1321124344671}, {"name": "유주테크", "category": "소매", "subCategory": "애완동물·용품 소매", "dong": "정촌면", "adongCd": "48170320", "lng": 128.101386256164, "lat": 35.1188908184327}, {"name": "우림정", "category": "음식", "subCategory": "한식", "dong": "정촌면", "adongCd": "48170320", "lng": 128.101940709882, "lat": 35.1242215252065}, {"name": "우리현장체험서비스", "category": "예술·스포츠", "subCategory": "유원지·오락", "dong": "정촌면", "adongCd": "48170320", "lng": 128.09722553247, "lat": 35.1211007118047}, {"name": "정촌유황사우나매점", "category": "음식", "subCategory": "비알코올 ", "dong": "정촌면", "adongCd": "48170320", "lng": 128.101870725121, "lat": 35.1247268940642}, {"name": "연주네식당", "category": "음식", "subCategory": "한식", "dong": "정촌면", "adongCd": "48170320", "lng": 128.093353021735, "lat": 35.1136999008377}, {"name": "GS25진주정촌삼일로점", "category": "소매", "subCategory": "종합 소매", "dong": "정촌면", "adongCd": "48170320", "lng": 128.102983255208, "lat": 35.1299443579828}, {"name": "롯데포항엘칸토", "category": "소매", "subCategory": "섬유·의복·신발 소매", "dong": "정촌면", "adongCd": "48170320", "lng": 128.098470377764, "lat": 35.1321124344671}, {"name": "몬테밀라노", "category": "소매", "subCategory": "섬유·의복·신발 소매", "dong": "정촌면", "adongCd": "48170320", "lng": 128.098470377764, "lat": 35.1321124344671}, {"name": "대경열린공인중개사사무소", "category": "부동산", "subCategory": "부동산 서비스", "dong": "정촌면", "adongCd": "48170320", "lng": 128.099314610393, "lat": 35.1288059932954}, {"name": "오복수산", "category": "소매", "subCategory": "오락용품 소매", "dong": "정촌면", "adongCd": "48170320", "lng": 128.085770217943, "lat": 35.126674827936}, {"name": "일차돌진주정촌점", "category": "음식", "subCategory": "한식", "dong": "정촌면", "adongCd": "48170320", "lng": 128.098910409695, "lat": 35.126484284677}, {"name": "더양양공인중개사무소", "category": "부동산", "subCategory": "부동산 서비스", "dong": "정촌면", "adongCd": "48170320", "lng": 128.104519526986, "lat": 35.12834406496}, {"name": "정촌쌈김치찌개", "category": "음식", "subCategory": "한식", "dong": "정촌면", "adongCd": "48170320", "lng": 128.10507019029, "lat": 35.128501280165}, {"name": "전주콩나루콩나물국밥", "category": "음식", "subCategory": "한식", "dong": "정촌면", "adongCd": "48170320", "lng": 128.103852678583, "lat": 35.1293325658441}, {"name": "리퍼모아", "category": "소매", "subCategory": "종합 소매", "dong": "정촌면", "adongCd": "48170320", "lng": 128.100744434035, "lat": 35.1323351524707}, {"name": "나눔로컬푸드협동조합진주맛찬", "category": "음식", "subCategory": "한식", "dong": "정촌면", "adongCd": "48170320", "lng": 128.103300305919, "lat": 35.1257954574462}, {"name": "모다가구아울렛", "category": "소매", "subCategory": "가구 소매", "dong": "정촌면", "adongCd": "48170320", "lng": 128.099960837825, "lat": 35.1319907578971}, {"name": "JD모터스", "category": "수리·개인", "subCategory": "자동차 수리·세차", "dong": "정촌면", "adongCd": "48170320", "lng": 128.09743517583, "lat": 35.131004192442}, {"name": "더틸버리", "category": "소매", "subCategory": "섬유·의복·신발 소매", "dong": "정촌면", "adongCd": "48170320", "lng": 128.098470377764, "lat": 35.1321124344671}, {"name": "홈닥터", "category": "수리·개인", "subCategory": "이용·미용", "dong": "정촌면", "adongCd": "48170320", "lng": 128.127083752115, "lat": 35.1337243979554}, {"name": "진주공인중개사사무소", "category": "부동산", "subCategory": "부동산 서비스", "dong": "정촌면", "adongCd": "48170320", "lng": 128.098990012769, "lat": 35.1332253440077}, {"name": "그린우드텍", "category": "소매", "subCategory": "가구 소매", "dong": "정촌면", "adongCd": "48170320", "lng": 128.100159021938, "lat": 35.1304116709978}, {"name": "미목", "category": "소매", "subCategory": "가구 소매", "dong": "정촌면", "adongCd": "48170320", "lng": 128.099659317735, "lat": 35.1315969191985}, {"name": "씨유진주정촌올리움점", "category": "소매", "subCategory": "종합 소매", "dong": "정촌면", "adongCd": "48170320", "lng": 128.097757168868, "lat": 35.1231148295447}, {"name": "쿨링랩", "category": "소매", "subCategory": "기타 생활용품 소매", "dong": "정촌면", "adongCd": "48170320", "lng": 128.098345818849, "lat": 35.1122126648894}, {"name": "영원숯불갈매기", "category": "음식", "subCategory": "한식", "dong": "정촌면", "adongCd": "48170320", "lng": 128.100138052084, "lat": 35.1255898646862}, {"name": "위잉글리시학원", "category": "교육", "subCategory": "일반 교육", "dong": "정촌면", "adongCd": "48170320", "lng": 128.099314610393, "lat": 35.1288059932954}, {"name": "링스모다진주점", "category": "소매", "subCategory": "섬유·의복·신발 소매", "dong": "정촌면", "adongCd": "48170320", "lng": 128.098470377764, "lat": 35.1321124344671}, {"name": "석광예진상가", "category": "소매", "subCategory": "섬유·의복·신발 소매", "dong": "정촌면", "adongCd": "48170320", "lng": 128.100744434035, "lat": 35.1323351524707}, {"name": "빅클라이밍", "category": "교육", "subCategory": "기타 교육", "dong": "정촌면", "adongCd": "48170320", "lng": 128.100615274583, "lat": 35.1317054106023}, {"name": "토니모리", "category": "소매", "subCategory": "의약·화장품 소매", "dong": "정촌면", "adongCd": "48170320", "lng": 128.098470377764, "lat": 35.1321124344671}, {"name": "법인지어지선", "category": "예술·스포츠", "subCategory": "유원지·오락", "dong": "정촌면", "adongCd": "48170320", "lng": 128.084402851343, "lat": 35.1211800667905}, {"name": "캘러웨이진주정촌점", "category": "소매", "subCategory": "섬유·의복·신발 소매", "dong": "정촌면", "adongCd": "48170320", "lng": 128.10113680536, "lat": 35.1321423132553}, {"name": "대구짬뽕", "category": "음식", "subCategory": "중식", "dong": "정촌면", "adongCd": "48170320", "lng": 128.102983255208, "lat": 35.1299443579828}, {"name": "무크", "category": "소매", "subCategory": "섬유·의복·신발 소매", "dong": "정촌면", "adongCd": "48170320", "lng": 128.098470377764, "lat": 35.1321124344671}, {"name": "에스티프렌치", "category": "소매", "subCategory": "섬유·의복·신발 소매", "dong": "정촌면", "adongCd": "48170320", "lng": 128.098470377764, "lat": 35.1321124344671}, {"name": "화개마을", "category": "음식", "subCategory": "한식", "dong": "정촌면", "adongCd": "48170320", "lng": 128.101286789097, "lat": 35.1416497327893}, {"name": "반반스프링스커피", "category": "음식", "subCategory": "비알코올 ", "dong": "정촌면", "adongCd": "48170320", "lng": 128.092905473642, "lat": 35.1163267503183}, {"name": "로만틱진주", "category": "음식", "subCategory": "비알코올 ", "dong": "정촌면", "adongCd": "48170320", "lng": 128.10254938979, "lat": 35.1262439321653}, {"name": "CU정촌강남", "category": "소매", "subCategory": "종합 소매", "dong": "정촌면", "adongCd": "48170320", "lng": 128.092969143664, "lat": 35.1145235555262}, {"name": "아르토", "category": "음식", "subCategory": "비알코올 ", "dong": "정촌면", "adongCd": "48170320", "lng": 128.101940709882, "lat": 35.1242215252065}, {"name": "잉글리시아이영어교습소", "category": "교육", "subCategory": "일반 교육", "dong": "정촌면", "adongCd": "48170320", "lng": 128.099314610393, "lat": 35.1288059932954}, {"name": "화수분복권", "category": "예술·스포츠", "subCategory": "유원지·오락", "dong": "정촌면", "adongCd": "48170320", "lng": 128.105309326232, "lat": 35.1283368640145}, {"name": "에꼴리에", "category": "소매", "subCategory": "섬유·의복·신발 소매", "dong": "정촌면", "adongCd": "48170320", "lng": 128.098470377764, "lat": 35.1321124344671}, {"name": "마블공인중개사사무소", "category": "부동산", "subCategory": "부동산 서비스", "dong": "정촌면", "adongCd": "48170320", "lng": 128.101884243209, "lat": 35.1249160458525}, {"name": "정촌셀프세차타운", "category": "수리·개인", "subCategory": "자동차 수리·세차", "dong": "정촌면", "adongCd": "48170320", "lng": 128.10114664032, "lat": 35.1287983736824}, {"name": "사랑채애정촌댁", "category": "음식", "subCategory": "구내식당·뷔페", "dong": "정촌면", "adongCd": "48170320", "lng": 128.101678140787, "lat": 35.1316056219249}, {"name": "크린토피아정촌파미르점", "category": "수리·개인", "subCategory": "세탁", "dong": "정촌면", "adongCd": "48170320", "lng": 128.10053264679, "lat": 35.1280108003428}, {"name": "3030영어유쌤수학학원", "category": "교육", "subCategory": "일반 교육", "dong": "정촌면", "adongCd": "48170320", "lng": 128.099400216614, "lat": 35.1253802463176}, {"name": "경남환경공사", "category": "시설관리·임대", "subCategory": "청소·방제", "dong": "정촌면", "adongCd": "48170320", "lng": 128.093466790841, "lat": 35.1140053201171}, {"name": "뼈대강주", "category": "음식", "subCategory": "한식", "dong": "정촌면", "adongCd": "48170320", "lng": 128.093462466384, "lat": 35.1128606947085}, {"name": "호텔테라", "category": "숙박", "subCategory": "일반 숙박", "dong": "정촌면", "adongCd": "48170320", "lng": 128.103983286008, "lat": 35.1268167284964}, {"name": "42모텔", "category": "숙박", "subCategory": "일반 숙박", "dong": "정촌면", "adongCd": "48170320", "lng": 128.102710876438, "lat": 35.123574591313}, {"name": "펀잉글리쉬영어학원", "category": "교육", "subCategory": "일반 교육", "dong": "정촌면", "adongCd": "48170320", "lng": 128.09824515794, "lat": 35.1218756154429}, {"name": "박군자진주냉면", "category": "음식", "subCategory": "한식", "dong": "정촌면", "adongCd": "48170320", "lng": 128.092905473642, "lat": 35.1163267503183}, {"name": "정촌풋샵", "category": "수리·개인", "subCategory": "욕탕·신체관리", "dong": "정촌면", "adongCd": "48170320", "lng": 128.099314610393, "lat": 35.1288059932954}, {"name": "반에이크진주2층", "category": "소매", "subCategory": "섬유·의복·신발 소매", "dong": "정촌면", "adongCd": "48170320", "lng": 128.098470377764, "lat": 35.1321124344671}, {"name": "가마치통닭", "category": "음식", "subCategory": "기타 간이", "dong": "정촌면", "adongCd": "48170320", "lng": 128.097757168868, "lat": 35.1231148295447}, {"name": "가전제품수리업", "category": "수리·개인", "subCategory": "가전제품 수리", "dong": "정촌면", "adongCd": "48170320", "lng": 128.104915959673, "lat": 35.1406342700093}, {"name": "에그카페24정촌점", "category": "음식", "subCategory": "기타 간이", "dong": "정촌면", "adongCd": "48170320", "lng": 128.099945267516, "lat": 35.1283856692388}, {"name": "아싸비어진주정촌점", "category": "소매", "subCategory": "종합 소매", "dong": "정촌면", "adongCd": "48170320", "lng": 128.100775738786, "lat": 35.128954965563}, {"name": "보물섬", "category": "소매", "subCategory": "오락용품 소매", "dong": "정촌면", "adongCd": "48170320", "lng": 128.099214953587, "lat": 35.125472057632}, {"name": "이승은헤어", "category": "수리·개인", "subCategory": "이용·미용", "dong": "정촌면", "adongCd": "48170320", "lng": 128.097757168868, "lat": 35.1231148295447}, {"name": "이음새", "category": "소매", "subCategory": "가구 소매", "dong": "정촌면", "adongCd": "48170320", "lng": 128.09743517583, "lat": 35.131004192442}, {"name": "화피어나다", "category": "수리·개인", "subCategory": "이용·미용", "dong": "정촌면", "adongCd": "48170320", "lng": 128.097757168868, "lat": 35.1231148295447}, {"name": "음악학원", "category": "교육", "subCategory": "기타 교육", "dong": "정촌면", "adongCd": "48170320", "lng": 128.100138052084, "lat": 35.1255898646862}, {"name": "H.C진주모다샤트렌", "category": "소매", "subCategory": "섬유·의복·신발 소매", "dong": "정촌면", "adongCd": "48170320", "lng": 128.098470377764, "lat": 35.1321124344671}, {"name": "명품가구", "category": "소매", "subCategory": "가구 소매", "dong": "정촌면", "adongCd": "48170320", "lng": 128.099601923801, "lat": 35.13140816546}, {"name": "머렐모다진주점", "category": "소매", "subCategory": "섬유·의복·신발 소매", "dong": "정촌면", "adongCd": "48170320", "lng": 128.098685324885, "lat": 35.1301456355187}, {"name": "강주성공인중개사사무소", "category": "부동산", "subCategory": "부동산 서비스", "dong": "정촌면", "adongCd": "48170320", "lng": 128.097704493679, "lat": 35.114282474763}, {"name": "워시큐정촌점", "category": "수리·개인", "subCategory": "세탁", "dong": "정촌면", "adongCd": "48170320", "lng": 128.100489911366, "lat": 35.1256497616675}, {"name": "공간디자인", "category": "과학·기술", "subCategory": "전문 디자인", "dong": "정촌면", "adongCd": "48170320", "lng": 128.102874741054, "lat": 35.1308466527608}, {"name": "케이금융교육", "category": "교육", "subCategory": "교육 지원", "dong": "정촌면", "adongCd": "48170320", "lng": 128.108756457077, "lat": 35.1374085674098}, {"name": "안도스", "category": "소매", "subCategory": "가구 소매", "dong": "정촌면", "adongCd": "48170320", "lng": 128.099410226913, "lat": 35.1310223425695}, {"name": "교촌치킨정촌점", "category": "음식", "subCategory": "기타 간이", "dong": "정촌면", "adongCd": "48170320", "lng": 128.102466046984, "lat": 35.1257579841302}, {"name": "윈가드진주점", "category": "소매", "subCategory": "기타 상품 소매", "dong": "정촌면", "adongCd": "48170320", "lng": 128.099410226913, "lat": 35.1310223425695}, {"name": "플레이보이골프진주점", "category": "소매", "subCategory": "섬유·의복·신발 소매", "dong": "정촌면", "adongCd": "48170320", "lng": 128.098470377764, "lat": 35.1321124344671}, {"name": "수학의봄날학원", "category": "교육", "subCategory": "일반 교육", "dong": "정촌면", "adongCd": "48170320", "lng": 128.099314610393, "lat": 35.1288059932954}, {"name": "앤듀", "category": "소매", "subCategory": "섬유·의복·신발 소매", "dong": "정촌면", "adongCd": "48170320", "lng": 128.098685324885, "lat": 35.1301456355187}, {"name": "진주모다로가디스", "category": "소매", "subCategory": "섬유·의복·신발 소매", "dong": "정촌면", "adongCd": "48170320", "lng": 128.098470377764, "lat": 35.1321124344671}, {"name": "엠케이유나이티드", "category": "소매", "subCategory": "섬유·의복·신발 소매", "dong": "정촌면", "adongCd": "48170320", "lng": 128.099762830988, "lat": 35.1327676792292}, {"name": "진주모다브렌우드", "category": "소매", "subCategory": "섬유·의복·신발 소매", "dong": "정촌면", "adongCd": "48170320", "lng": 128.098470377764, "lat": 35.1321124344671}, {"name": "에스에이치진주지점", "category": "소매", "subCategory": "오락용품 소매", "dong": "정촌면", "adongCd": "48170320", "lng": 128.100342603268, "lat": 35.131825056727}, {"name": "케이투진주점", "category": "소매", "subCategory": "섬유·의복·신발 소매", "dong": "정촌면", "adongCd": "48170320", "lng": 128.098685324885, "lat": 35.1301456355187}, {"name": "대경파미르공인중개사사무소", "category": "부동산", "subCategory": "부동산 서비스", "dong": "정촌면", "adongCd": "48170320", "lng": 128.099661833155, "lat": 35.1260718800454}, {"name": "부산미용실", "category": "수리·개인", "subCategory": "이용·미용", "dong": "정촌면", "adongCd": "48170320", "lng": 128.093519822353, "lat": 35.1138696451166}, {"name": "예하리슈퍼", "category": "소매", "subCategory": "종합 소매", "dong": "정촌면", "adongCd": "48170320", "lng": 128.092537777655, "lat": 35.1150772438976}, {"name": "우주전자", "category": "수리·개인", "subCategory": "가전제품 수리", "dong": "정촌면", "adongCd": "48170320", "lng": 128.109921496749, "lat": 35.1286642457807}, {"name": "정촌복권방", "category": "예술·스포츠", "subCategory": "유원지·오락", "dong": "정촌면", "adongCd": "48170320", "lng": 128.102466046984, "lat": 35.1257579841302}, {"name": "진주지게차정비", "category": "시설관리·임대", "subCategory": "운송장비 대여", "dong": "정촌면", "adongCd": "48170320", "lng": 128.101142971513, "lat": 35.1309705578945}, {"name": "옛날가마솥곰탕", "category": "음식", "subCategory": "한식", "dong": "정촌면", "adongCd": "48170320", "lng": 128.101009231381, "lat": 35.1414089026375}, {"name": "스케쳐스", "category": "소매", "subCategory": "섬유·의복·신발 소매", "dong": "정촌면", "adongCd": "48170320", "lng": 128.098470377764, "lat": 35.1321124344671}, {"name": "메덱스힐링", "category": "소매", "subCategory": "섬유·의복·신발 소매", "dong": "정촌면", "adongCd": "48170320", "lng": 128.126521625809, "lat": 35.1343334988119}, {"name": "정촌손짜장", "category": "음식", "subCategory": "중식", "dong": "정촌면", "adongCd": "48170320", "lng": 128.103395968512, "lat": 35.129634156448}, {"name": "산청기공구내식당", "category": "음식", "subCategory": "구내식당·뷔페", "dong": "정촌면", "adongCd": "48170320", "lng": 128.105375675425, "lat": 35.1243164274349}, {"name": "삼보공인중개사사무소", "category": "부동산", "subCategory": "부동산 서비스", "dong": "정촌면", "adongCd": "48170320", "lng": 128.09939869332, "lat": 35.1334289375919}, {"name": "이미영헤어삽", "category": "수리·개인", "subCategory": "이용·미용", "dong": "정촌면", "adongCd": "48170320", "lng": 128.099314610393, "lat": 35.1288059932954}, {"name": "정하공인중개사사무소", "category": "부동산", "subCategory": "부동산 서비스", "dong": "정촌면", "adongCd": "48170320", "lng": 128.103395968512, "lat": 35.129634156448}, {"name": "제일부동산이희순중개인사무소", "category": "부동산", "subCategory": "부동산 서비스", "dong": "정촌면", "adongCd": "48170320", "lng": 128.098218197075, "lat": 35.1345752888552}, {"name": "네파정촌점", "category": "소매", "subCategory": "섬유·의복·신발 소매", "dong": "정촌면", "adongCd": "48170320", "lng": 128.099723619274, "lat": 35.1322993553502}, {"name": "찬's건축인테리어", "category": "과학·기술", "subCategory": "전문 디자인", "dong": "정촌면", "adongCd": "48170320", "lng": 128.100615274583, "lat": 35.1317054106023}, {"name": "블랙야크정촌점", "category": "소매", "subCategory": "섬유·의복·신발 소매", "dong": "정촌면", "adongCd": "48170320", "lng": 128.100253330724, "lat": 35.1325288868977}, {"name": "GS25진주정촌점", "category": "소매", "subCategory": "종합 소매", "dong": "정촌면", "adongCd": "48170320", "lng": 128.103030485613, "lat": 35.1253112073074}, {"name": "예미작", "category": "음식", "subCategory": "한식", "dong": "정촌면", "adongCd": "48170320", "lng": 128.115181537713, "lat": 35.1121310449462}, {"name": "정촌자동차운전학원", "category": "교육", "subCategory": "기타 교육", "dong": "정촌면", "adongCd": "48170320", "lng": 128.102809354007, "lat": 35.1292519340403}, {"name": "로터스커피앤베이커리", "category": "음식", "subCategory": "비알코올 ", "dong": "정촌면", "adongCd": "48170320", "lng": 128.094445313382, "lat": 35.1141767506525}, {"name": "세종과학문화센터", "category": "소매", "subCategory": "오락용품 소매", "dong": "정촌면", "adongCd": "48170320", "lng": 128.1242620003, "lat": 35.1375631270283}, {"name": "에디션진주모다", "category": "소매", "subCategory": "섬유·의복·신발 소매", "dong": "정촌면", "adongCd": "48170320", "lng": 128.098685324885, "lat": 35.1301456355187}, {"name": "미모아", "category": "수리·개인", "subCategory": "이용·미용", "dong": "정촌면", "adongCd": "48170320", "lng": 128.09939869332, "lat": 35.1334289375919}, {"name": "연못뜰", "category": "소매", "subCategory": "종합 소매", "dong": "정촌면", "adongCd": "48170320", "lng": 128.096462239563, "lat": 35.1132572119374}, {"name": "정촌시대공인중개사사무소", "category": "부동산", "subCategory": "부동산 서비스", "dong": "정촌면", "adongCd": "48170320", "lng": 128.092537777655, "lat": 35.1150772438976}, {"name": "이팝나무", "category": "음식", "subCategory": "한식", "dong": "정촌면", "adongCd": "48170320", "lng": 128.096108972032, "lat": 35.112268965642}, {"name": "사람과나무휴", "category": "과학·기술", "subCategory": "전문 디자인", "dong": "정촌면", "adongCd": "48170320", "lng": 128.099066922447, "lat": 35.1128190194165}, {"name": "경남비니루상사", "category": "소매", "subCategory": "철물·건설자재 소매", "dong": "정촌면", "adongCd": "48170320", "lng": 128.090069091137, "lat": 35.1265551192267}, {"name": "에디슨커피", "category": "소매", "subCategory": "식료품 소매", "dong": "정촌면", "adongCd": "48170320", "lng": 128.101870725121, "lat": 35.1247268940642}, {"name": "타이어통통진주，사천", "category": "소매", "subCategory": "자동차 부품 소매", "dong": "정촌면", "adongCd": "48170320", "lng": 128.094829901814, "lat": 35.1142273560436}, {"name": "기타의류소매업", "category": "소매", "subCategory": "섬유·의복·신발 소매", "dong": "정촌면", "adongCd": "48170320", "lng": 128.099295184177, "lat": 35.1322581772952}, {"name": "기타의류소매업", "category": "소매", "subCategory": "섬유·의복·신발 소매", "dong": "정촌면", "adongCd": "48170320", "lng": 128.099502644525, "lat": 35.1321841905612}, {"name": "기타의류소매업", "category": "소매", "subCategory": "섬유·의복·신발 소매", "dong": "정촌면", "adongCd": "48170320", "lng": 128.099731802042, "lat": 35.1320919804279}, {"name": "기타의류소매업", "category": "소매", "subCategory": "섬유·의복·신발 소매", "dong": "정촌면", "adongCd": "48170320", "lng": 128.100843459038, "lat": 35.1315411026444}, {"name": "예하카인테리어", "category": "수리·개인", "subCategory": "자동차 수리·세차", "dong": "정촌면", "adongCd": "48170320", "lng": 128.09284293174, "lat": 35.1157504756763}, {"name": "프로스펙스진주모다점", "category": "소매", "subCategory": "섬유·의복·신발 소매", "dong": "정촌면", "adongCd": "48170320", "lng": 128.098470377764, "lat": 35.1321124344671}, {"name": "르까프", "category": "소매", "subCategory": "섬유·의복·신발 소매", "dong": "정촌면", "adongCd": "48170320", "lng": 128.098470377764, "lat": 35.1321124344671}, {"name": "케이스위스진주모다점", "category": "소매", "subCategory": "섬유·의복·신발 소매", "dong": "정촌면", "adongCd": "48170320", "lng": 128.098470377764, "lat": 35.1321124344671}, {"name": "본", "category": "소매", "subCategory": "섬유·의복·신발 소매", "dong": "정촌면", "adongCd": "48170320", "lng": 128.098470377764, "lat": 35.1321124344671}, {"name": "콜핑주", "category": "소매", "subCategory": "섬유·의복·신발 소매", "dong": "정촌면", "adongCd": "48170320", "lng": 128.098470377764, "lat": 35.1321124344671}, {"name": "아르떼이너진주점", "category": "소매", "subCategory": "섬유·의복·신발 소매", "dong": "정촌면", "adongCd": "48170320", "lng": 128.098470377764, "lat": 35.1321124344671}, {"name": "뷰티웰빙", "category": "소매", "subCategory": "식료품 소매", "dong": "정촌면", "adongCd": "48170320", "lng": 128.103124037536, "lat": 35.1298078804632}, {"name": "명성숯불갈비", "category": "음식", "subCategory": "한식", "dong": "정촌면", "adongCd": "48170320", "lng": 128.103232761443, "lat": 35.1297347861421}, {"name": "화원삼계탕", "category": "음식", "subCategory": "한식", "dong": "정촌면", "adongCd": "48170320", "lng": 128.094688300681, "lat": 35.1356166926377}, {"name": "금채", "category": "음식", "subCategory": "한식", "dong": "정촌면", "adongCd": "48170320", "lng": 128.095832748946, "lat": 35.1366879169356}, {"name": "정촌주유소", "category": "소매", "subCategory": "연료 소매", "dong": "정촌면", "adongCd": "48170320", "lng": 128.092747109796, "lat": 35.1159676540769}, {"name": "예하리카페", "category": "음식", "subCategory": "비알코올 ", "dong": "정촌면", "adongCd": "48170320", "lng": 128.092969143664, "lat": 35.1145235555262}, {"name": "수이산업개발주", "category": "숙박", "subCategory": "일반 숙박", "dong": "정촌면", "adongCd": "48170320", "lng": 128.103014567529, "lat": 35.1241306387508}, {"name": "상림컨설팅", "category": "소매", "subCategory": "섬유·의복·신발 소매", "dong": "정촌면", "adongCd": "48170320", "lng": 128.102466046984, "lat": 35.1257579841302}, {"name": "진주남부농협정촌주유소", "category": "소매", "subCategory": "연료 소매", "dong": "정촌면", "adongCd": "48170320", "lng": 128.103292073146, "lat": 35.1276251869279}, {"name": "MIS스포츠모다진주점주", "category": "소매", "subCategory": "섬유·의복·신발 소매", "dong": "정촌면", "adongCd": "48170320", "lng": 128.098470377764, "lat": 35.1321124344671}, {"name": "아트전자", "category": "소매", "subCategory": "오락용품 소매", "dong": "정촌면", "adongCd": "48170320", "lng": 128.097686756998, "lat": 35.1137779017641}, {"name": "미래건축인테리어", "category": "과학·기술", "subCategory": "전문 디자인", "dong": "정촌면", "adongCd": "48170320", "lng": 128.097375471029, "lat": 35.1330957665}, {"name": "SCM컴퍼니", "category": "소매", "subCategory": "섬유·의복·신발 소매", "dong": "정촌면", "adongCd": "48170320", "lng": 128.100454606414, "lat": 35.1319952880435}, {"name": "레노마홈진주점", "category": "소매", "subCategory": "섬유·의복·신발 소매", "dong": "정촌면", "adongCd": "48170320", "lng": 128.103124037536, "lat": 35.1298078804632}, {"name": "더아이잗", "category": "소매", "subCategory": "섬유·의복·신발 소매", "dong": "정촌면", "adongCd": "48170320", "lng": 128.098470377764, "lat": 35.1321124344671}, {"name": "유천가구갤러리", "category": "소매", "subCategory": "가구 소매", "dong": "정촌면", "adongCd": "48170320", "lng": 128.099230401855, "lat": 35.131519692943}, {"name": "캠핑고래진주", "category": "소매", "subCategory": "오락용품 소매", "dong": "정촌면", "adongCd": "48170320", "lng": 128.099723619274, "lat": 35.1322993553502}, {"name": "에프앤에스글로벌", "category": "음식", "subCategory": "구내식당·뷔페", "dong": "정촌면", "adongCd": "48170320", "lng": 128.101678140787, "lat": 35.1316056219249}, {"name": "지이트파렌하이트", "category": "소매", "subCategory": "섬유·의복·신발 소매", "dong": "정촌면", "adongCd": "48170320", "lng": 128.098685324885, "lat": 35.1301456355187}, {"name": "JEEP진주모다", "category": "소매", "subCategory": "섬유·의복·신발 소매", "dong": "정촌면", "adongCd": "48170320", "lng": 128.098470377764, "lat": 35.1321124344671}, {"name": "행텐주니어", "category": "소매", "subCategory": "섬유·의복·신발 소매", "dong": "정촌면", "adongCd": "48170320", "lng": 128.098470377764, "lat": 35.1321124344671}, {"name": "윤세이프티", "category": "수리·개인", "subCategory": "자동차 수리·세차", "dong": "정촌면", "adongCd": "48170320", "lng": 128.100296163927, "lat": 35.1251107359681}, {"name": "제이제이지고트", "category": "소매", "subCategory": "섬유·의복·신발 소매", "dong": "정촌면", "adongCd": "48170320", "lng": 128.098470377764, "lat": 35.1321124344671}, {"name": "써드케이", "category": "소매", "subCategory": "섬유·의복·신발 소매", "dong": "정촌면", "adongCd": "48170320", "lng": 128.098685324885, "lat": 35.1301456355187},