[
  {
    "name": "천전동제1투",
    "dong": "천전동",
    "place": "진주창작유등체험관(1층)",
    "addr": "경상남도 진주시 망경북길43번길 15 (망경동)",
    "floor": "1층",
    "lat": 35.1860147469288,
    "lng": 128.08253197254,
    "geocoded_by": "kakao"
  },
  {
    "name": "초장동제1투",
    "dong": "초장동",
    "place": "초장동행정복지센터(1층)",
    "addr": "경상남도 진주시 초장로14번길 14 (초전동)",
    "floor": "1층",
    "lat": 35.2045815913529,
    "lng": 128.114608754971,
    "geocoded_by": "kakao"
  },
  {
    "name": "충무공동제1투",
    "dong": "충무공동",
    "place": "갈전초등학교(1층, 로비)",
    "addr": "경상남도 진주시 사들로 173 (충무공동)",
    "floor": "1층",
    "lat": 35.1832030393879,
    "lng": 128.149062515671,
    "geocoded_by": "kakao"
  },
  {
    "name": "판문동제1투",
    "dong": "판문동",
    "place": "평거주공2차아파트 관리사무소(1층, 현관)",
    "addr": "경상남도 진주시 진양호로125번길 4-1 (평거동)",
    "floor": "1층",
    "lat": 35.1686378769267,
    "lng": 128.053888060146,
    "geocoded_by": "kakao"
  },
  {
    "name": "평거동제1투",
    "dong": "평거동",
    "place": "진주시가족센터[구.다문화가족지원센터](1층)",
    "addr": "경상남도 진주시 진양호로 305 (신안동)",
    "floor": "1층",
    "lat": 35.1805364492722,
    "lng": 128.065304149612,
    "geocoded_by": "kakao"
  },
  {
    "name": "하대동제1투",
    "dong": "하대동",
    "place": "한국폴리텍대학 진주캠퍼스 미션홀(1층, 세미나실)",
    "addr": "경상남도 진주시 모덕로 299 (하대동)",
    "floor": "1층",
    "lat": 35.1908011452315,
    "lng": 128.126499662219,
    "geocoded_by": "kakao"
  },
  {
    "name": "이반성면투표소",
    "dong": "이반성면",
    "place": "이반성면사무소(1층)",
    "addr": "경상남도 진주시 이반성면 오봉산로 719",
    "floor": "1층",
    "lat": 35.1692066998361,
    "lng": 128.326313907267,
    "geocoded_by": "kakao"
  },
  {
    "name": "이현동제1투",
    "dong": "이현동",
    "place": "이현하이클래스웰가 경로당(1층)",
    "addr": "경상남도 진주시 진주대로 1317 (이현동, 이현하이클래스웰가아파트)",
    "floor": "1층",
    "lat": 35.1944480400036,
    "lng": 128.057130179061,
    "geocoded_by": "kakao"
  },
  {
    "name": "일반성면투표소",
    "dong": "일반성면",
    "place": "일반성면사무소(4층, 회의실)",
    "addr": "경상남도 진주시 일반성면 동부로1959번길 2",
    "floor": "3층이상",
    "lat": 35.1712778281565,
    "lng": 128.277165782869,
    "geocoded_by": "kakao"
  },
  {
    "name": "정촌면제1투",
    "dong": "정촌면",
    "place": "정촌면사무소(1층)",
    "addr": "경상남도 진주시 정촌면 정촌로 57",
    "floor": "1층",
    "lat": 35.1314267401538,
    "lng": 128.102606637727,
    "geocoded_by": "kakao"
  },
  {
    "name": "중앙동제1투",
    "dong": "중앙동",
    "place": "중앙동행정복지센터(1층)",
    "addr": "경상남도 진주시 진주대로1032번길 14 (동성동)",
    "floor": "1층",
    "lat": 35.1920682381776,
    "lng": 128.086186168613,
    "geocoded_by": "kakao"
  },
  {
    "name": "지수면투표소",
    "dong": "지수면",
    "place": "지수면사무소(1층, 소회의실)",
    "addr": "경상남도 진주시 지수면 지수로 483",
    "floor": "1층",
    "lat": 35.2351537904554,
    "lng": 128.269387877135,
    "geocoded_by": "kakao"
  },
  {
    "name": "진성면투표소",
    "dong": "진성면",
    "place": "진성면사무소(1층, 회의실)",
    "addr": "경상남도 진주시 진성면 동부로 1329",
    "floor": "1층",
    "lat": 35.1852932239092,
    "lng": 128.223550168671,
    "geocoded_by": "kakao"
  },
  {
    "name": "집현면투표소",
    "dong": "집현면",
    "place": "집현초등학교 체육관(2층)",
    "addr": "경상남도 진주시 집현면 지내길 271",
    "floor": "2층",
    "lat": 35.2421524233082,
    "lng": 128.092758695025,
    "geocoded_by": "kakao"
  },
  {
    "name": "상대동제1투",
    "dong": "상대동",
    "place": "구.상대1동주민센터(1층)",
    "addr": "경상남도 진주시 돗골로 168 (상대동)",
    "floor": "1층",
    "lat": 35.183252948556,
    "lng": 128.112147388718,
    "geocoded_by": "kakao"
  },
  {
    "name": "상봉동제1투",
    "dong": "상봉동",
    "place": "진주여자고등학교 체육관(1층)",
    "addr": "경상남도 진주시 창렬로 185 (상봉동)",
    "floor": "1층",
    "lat": 35.2011484686855,
    "lng": 128.076771617458,
    "geocoded_by": "kakao"
  },
  {
    "name": "상평동제1투",
    "dong": "상평동",
    "place": "진주시생활체육관(1층)",
    "addr": "경상남도 진주시 공단로 59 (상평동)",
    "floor": "1층",
    "lat": 35.1754929812273,
    "lng": 128.106297468699,
    "geocoded_by": "kakao"
  },
  {
    "name": "성북동제1투",
    "dong": "성북동",
    "place": "청소년상담복지센터(구.성지현장민원실)(1층)",
    "addr": "경상남도 진주시 북장대로6번길 9 (인사동)",
    "floor": "1층",
    "lat": 35.1911420955962,
    "lng": 128.076077209392,
    "geocoded_by": "kakao"
  },
  {
    "name": "수곡면투표소",
    "dong": "수곡면",
    "place": "수곡면사무소(1층, 회의실)",
    "addr": "경상남도 진주시 수곡면 곤수로 972",
    "floor": "1층",
    "lat": 35.1986435294945,
    "lng": 127.932166171749,
    "geocoded_by": "kakao"
  },
  {
    "name": "신안동제1투",
    "dong": "신안동",
    "place": "신안초등학교 강당(1층)",
    "addr": "경상남도 진주시 평거로139번길 8 (신안동)",
    "floor": "1층",
    "lat": 35.1825860506492,
    "lng": 128.068001544111,
    "geocoded_by": "kakao"
  },
  {
    "name": "대평면투표소",
    "dong": "대평면",
    "place": "대평면 다목적체육관(1층)",
    "addr": "경상남도 진주시 대평면 한들길 2-9",
    "floor": "1층",
    "lat": 35.230566006903,
    "lng": 127.962836388869,
    "geocoded_by": "kakao"
  },
  {
    "name": "명석면투표소",
    "dong": "명석면",
    "place": "명석초등학교 체육관(1층)",
    "addr": "경상남도 진주시 명석면 광제산로 23",
    "floor": "1층",
    "lat": 35.2181633980879,
    "lng": 128.040258438458,
    "geocoded_by": "kakao"
  },
  {
    "name": "문산읍제1투",
    "dong": "문산읍",
    "place": "문산읍주민자치센터(1층, 어울마당)",
    "addr": "경상남도 진주시 문산읍 동부로587번길 12",
    "floor": "1층",
    "lat": 35.1691520254141,
    "lng": 128.164351219731,
    "geocoded_by": "kakao"
  },
  {
    "name": "미천면투표소",
    "dong": "미천면",
    "place": "미천면주민자치센터(1층, 회의실)",
    "addr": "경상남도 진주시 미천면 오방로 729",
    "floor": "1층",
    "lat": 35.2988787765579,
    "lng": 128.115629393019,
    "geocoded_by": "kakao"
  },
  {
    "name": "사봉면투표소",
    "dong": "사봉면",
    "place": "사봉면사무소 체력단련실(1층)",
    "addr": "경상남도 진주시 사봉면 사군로 105",
    "floor": "1층",
    "lat": 35.1890286901114,
    "lng": 128.270332394011,
    "geocoded_by": "kakao"
  },
  {
    "name": "가호동제1투",
    "dong": "가호동",
    "place": "가호동행정복지센터(신청사, 1층)",
    "addr": "경상남도 진주시 진주역로95번길 6 (가좌동)",
    "floor": "1층",
    "lat": 35.1519209909955,
    "lng": 128.114171973163,
    "geocoded_by": "kakao"
  },
  {
    "name": "금곡면투표소",
    "dong": "금곡면",
    "place": "금곡면사무소(1층)",
    "addr": "경상남도 진주시 금곡면 월아산로 140",
    "floor": "1층",
    "lat": 35.0944568659102,
    "lng": 128.188148968076,
    "geocoded_by": "kakao"
  },
  {
    "name": "금산면제1투",
    "dong": "금산면",
    "place": "금산면사무소(1층)",
    "addr": "경상남도 진주시 금산면 금산로 107",
    "floor": "1층",
    "lat": 35.2140280476912,
    "lng": 128.147961339335,
    "geocoded_by": "kakao"
  },
  {
    "name": "내동면투표소",
    "dong": "내동면",
    "place": "내동면사무소 주민자치센터(1층)",
    "addr": "경상남도 진주시 내동면 순환로 389",
    "floor": "1층",
    "lat": 35.1602112495299,
    "lng": 128.06791969122,
    "geocoded_by": "kakao"
  },
  {
    "name": "대곡면투표소",
    "dong": "대곡면",
    "place": "대곡고등학교 다목적강당(1층)",
    "addr": "경상남도 진주시 대곡면 남강로2438번길 39",
    "floor": "1층",
    "lat": 35.2624116022589,
    "lng": 128.166398583344,
    "geocoded_by": "kakao"
  },
  {
    "name": "이현동제2투",
    "dong": "이현동",
    "place": "촉석초등학교(1층, 방과후교실)",
    "addr": "경상남도 진주시 평거로 259 (이현동)",
    "floor": "1층",
    "lat": 35.1902978880477,
    "lng": 128.062363543257,
    "geocoded_by": "kakao"
  },
  {
    "name": "정촌면제2투",
    "dong": "정촌면",
    "place": "예하초등학교(1층, 역사관 앞 복도)",
    "addr": "경상남도 진주시 정촌면 삼일로 50",
    "floor": "1층",
    "lat": 35.1248746939182,
    "lng": 128.098983790338,
    "geocoded_by": "kakao"
  },
  {
    "name": "중앙동제2투",
    "dong": "중앙동",
    "place": "봉래초등학교 체육관(1층)",
    "addr": "경상남도 진주시 의병로 265 (봉래동)",
    "floor": "1층",
    "lat": 35.2001613512272,
    "lng": 128.086187845006,
    "geocoded_by": "kakao"
  },
  {
    "name": "천전동제2투",
    "dong": "천전동",
    "place": "칠암현장민원실(1층)",
    "addr": "경상남도 진주시 강남로177번길 30-7 (칠암동)",
    "floor": "1층",
    "lat": 35.1835604690449,
    "lng": 128.091802701653,
    "geocoded_by": "kakao"
  },
  {
    "name": "초장동제2투",
    "dong": "초장동",
    "place": "금성초등학교 체육관(2층)",
    "addr": "경상남도 진주시 말티고개로123번길 19 (초전동)",
    "floor": "2층",
    "lat": 35.1984397207969,
    "lng": 128.11547879472,
    "geocoded_by": "kakao"
  },
  {
    "name": "충무공동제2투",
    "dong": "충무공동",
    "place": "문산중학교(1층, 탁구실)",
    "addr": "경상남도 진주시 충의로 68 (충무공동)",
    "floor": "1층",
    "lat": 35.1769829957897,
    "lng": 128.152480009433,
    "geocoded_by": "kakao"
  },
  {
    "name": "판문동제2투",
    "dong": "판문동",
    "place": "평거초등학교(1층, 과학실)",
    "addr": "경상남도 진주시 진양호로51번길 16 (판문동)",
    "floor": "1층",
    "lat": 35.1690001913081,
    "lng": 128.045704954395,
    "geocoded_by": "kakao"
  },
  {
    "name": "평거동제2투",
    "dong": "평거동",
    "place": "평거휴먼시아3단지(지하1층, 새마을문고)",
    "addr": "경상남도 진주시 새평거로 111 (평거동, 평거휴먼시아3단지)",
    "floor": "지하",
    "lat": 35.1698602779462,
    "lng": 128.059440889606,
    "geocoded_by": "kakao"
  },
  {
    "name": "하대동제2투",
    "dong": "하대동",
    "place": "동진초등학교(2층, 다목적강당) ",
    "addr": "경상남도 진주시 도동로184번길 13 (하대동)",
    "floor": "2층",
    "lat": 35.1877991052959,
    "lng": 128.124550776323,
    "geocoded_by": "kakao"
  },
  {
    "name": "상대동제2투",
    "dong": "상대동",
    "place": "남강초등학교 체육관(1층)",
    "addr": "경상남도 진주시 모덕로 99 (상대동)",
    "floor": "1층",
    "lat": 35.18377511065,
    "lng": 128.109716239146,
    "geocoded_by": "kakao"
  },
  {
    "name": "상봉동제2투",
    "dong": "상봉동",
    "place": "진주봉원중학교 체육관(1층)",
    "addr": "경상남도 진주시 진주성로 169 (상봉동)",
    "floor": "1층",
    "lat": 35.2049721376305,
    "lng": 128.073666448865,
    "geocoded_by": "kakao"
  },
  {
    "name": "상평동제2투",
    "dong": "상평동",
    "place": "삼현여자고등학교 강당(1층)",
    "addr": "경상남도 진주시 돗골로 95 (상평동)",
    "floor": "1층",
    "lat": 35.1774044091928,
    "lng": 128.11204049237,
    "geocoded_by": "kakao"
  },
  {
    "name": "성북동제2투",
    "dong": "성북동",
    "place": "성북동행정복지센터(1층)",
    "addr": "경상남도 진주시 진주대로1143번길 3 (봉곡동)",
    "floor": "1층",
    "lat": 35.1957352660964,
    "lng": 128.078249763335,
    "geocoded_by": "kakao"
  },
  {
    "name": "신안동제2투",
    "dong": "신안동",
    "place": "신안동행정복지센터(1층)",
    "addr": "경상남도 진주시 진양호로 360 (신안동)",
    "floor": "1층",
    "lat": 35.1845055568418,
    "lng": 128.069012736585,
    "geocoded_by": "kakao"
  },
  {
    "name": "가호동제2투",
    "dong": "가호동",
    "place": "정촌초등학교 강당(1층)",
    "addr": "경상남도 진주시 동부로 11 (가좌동)",
    "floor": "1층",
    "lat": 35.1607798359561,
    "lng": 128.108272916328,
    "geocoded_by": "kakao"
  },
  {
    "name": "금산면제2투",
    "dong": "금산면",
    "place": "금산초등학교(1층, 급식소)",
    "addr": "경상남도 진주시 금산면 금산로 75",
    "floor": "1층",
    "lat": 35.2153027270713,
    "lng": 128.144393305129,
    "geocoded_by": "kakao"
  },
  {
    "name": "문산읍제2투",
    "dong": "문산읍",
    "place": "문산초등학교 실내체육관(1층)",
    "addr": "경상남도 진주시 문산읍 소문길 11",
    "floor": "1층",
    "lat": 35.1706124015125,
    "lng": 128.16263338105,
    "geocoded_by": "kakao"
  },
  {
    "name": "가호동제3투",
    "dong": "가호동",
    "place": "가좌주공아파트 제1관리소(1층)",
    "addr": "경상남도 진주시 가호로 26 (가좌동, 진주가좌주공아파트)",
    "floor": "1층",
    "lat": 35.1628599327687,
    "lng": 128.110499072524,
    "geocoded_by": "kakao"
  },
  {
    "name": "금산면제3투",
    "dong": "금산면",
    "place": "흥한골든빌 노인정(1층)",
    "addr": "경상남도 진주시 금산면 금산로 123 (금산흥한골든빌)",
    "floor": "1층",
    "lat": 35.2154459789586,
    "lng": 128.150664643707,
    "geocoded_by": "kakao"
  },
  {
    "name": "상대동제3투",
    "dong": "상대동",
    "place": "시의회홀(1층, 로비)",
    "addr": "경상남도 진주시 동진로 155 (상대동)",
    "floor": "1층",
    "lat": 35.1802432613252,
    "lng": 128.108822830868,
    "geocoded_by": "kakao"
  },
  {
    "name": "상봉동제3투",
    "dong": "상봉동",
    "place": "상봉동행정복지센터(2층, 회의실)",
    "addr": "경상남도 진주시 진주성로 111 (상봉동)",
    "floor": "2층",
    "lat": 35.1995550290122,
    "lng": 128.074949361392,
    "geocoded_by": "kakao"
  },
  {
    "name": "상평동제3투",
    "dong": "상평동",
    "place": "진주기계공업고등학교 본관 A동 동편로비(1층)",
    "addr": "경상남도 진주시 공단로43번길 25 (상평동)",
    "floor": "1층",
    "lat": 35.1761886467829,
    "lng": 128.101813920854,
    "geocoded_by": "kakao"
  },
  {
    "name": "성북동제3투",
    "dong": "성북동",
    "place": "봉곡초등학교 강당(1층)",
    "addr": "경상남도 진주시 북장대로36번길 8 (봉곡동)",
    "floor": "1층",
    "lat": 35.1941035070831,
    "lng": 128.075782261593,
    "geocoded_by": "kakao"
  },
  {
    "name": "신안동제3투",
    "dong": "신안동",
    "place": "진주학생체육관(1층)",
    "addr": "경상남도 진주시 신안로 121 (신안동)",
    "floor": "1층",
    "lat": 35.1880603323405,
    "lng": 128.068630572071,
    "geocoded_by": "kakao"
  },
  {
    "name": "이현동제3투",
    "dong": "이현동",
    "place": "대아고등학교 강당(1층)",
    "addr": "경상남도 진주시 서장대로185번길 14 (이현동)",
    "floor": "1층",
    "lat": 35.1899281873726,
    "lng": 128.058388901858,
    "geocoded_by": "kakao"
  },
  {
    "name": "중앙동제3투",
    "dong": "중앙동",
    "place": "석류클럽(구.옥봉현장민원실)(1층)",
    "addr": "경상남도 진주시 진양호로614번길 5-3 (옥봉동)",
    "floor": "1층",
    "lat": 35.1925485303459,
    "lng": 128.091289763989,
    "geocoded_by": "kakao"
  },
  {
    "name": "천전동제3투",
    "dong": "천전동",
    "place": "천전초등학교 다목적실(1층)",
    "addr": "경상남도 진주시 진주대로954번길 24 (칠암동)",
    "floor": "1층",
    "lat": 35.1855114689047,
    "lng": 128.091037688888,
    "geocoded_by": "kakao"
  },
  {
    "name": "초장동제3투",
    "dong": "초장동",
    "place": "초전푸르지오2단지 유즈센터(지하1층, 로비)",
    "addr": "경상남도 진주시 초장로14번길 29 (초전동, 진주초전푸르지오2단지)",
    "floor": "지하",
    "lat": 35.2078329322089,
    "lng": 128.111912327057,
    "geocoded_by": "kakao"
  },
  {
    "name": "충무공동제3투",
    "dong": "충무공동",
    "place": "충무공초등학교(1층, 로비)",
    "addr": "경상남도 진주시 사들로 70 (충무공동)",
    "floor": "1층",
    "lat": 35.173480862089,
    "lng": 128.150001964568,
    "geocoded_by": "kakao"
  },
  {
    "name": "판문동제3투",
    "dong": "판문동",
    "place": "서진초등학교(1층, 현관)",
    "addr": "경상남도 진주시 새평거로 85 (평거동)",
    "floor": "1층",
    "lat": 35.1690196298269,
    "lng": 128.056654954973,
    "geocoded_by": "kakao"
  },
  {
    "name": "평거동제3투",
    "dong": "평거동",
    "place": "배영초등학교 체육관(1층)",
    "addr": "경상남도 진주시 석갑로 28 (신안동)",
    "floor": "1층",
    "lat": 35.1766756270993,
    "lng": 128.067095439427,
    "geocoded_by": "kakao"
  },
  {
    "name": "하대동제3투",
    "dong": "하대동",
    "place": "진명여자중학교(1층, 1-1반)",
    "addr": "경상남도 진주시 남강로1413번길 34 (하대동)",
    "floor": "1층",
    "lat": 35.1878639423752,
    "lng": 128.125691813712,
    "geocoded_by": "kakao"
  },
  {
    "name": "중앙동제4투",
    "dong": "중앙동",
    "place": "옥봉루(2층)",
    "addr": "경상남도 진주시 진산로9번길 13-4 (옥봉동)",
    "floor": "2층",
    "lat": 35.1946774832385,
    "lng": 128.092310035135,
    "geocoded_by": "kakao"
  },
  {
    "name": "천전동제4투",
    "dong": "천전동",
    "place": "경상국립대학교칠암캠퍼스 간호대학 복합교육센터(1층, 로비)",
    "addr": "경상남도 진주시 진주대로816번길 15 (주약동)",
    "floor": "1층",
    "lat": 35.1759389043888,
    "lng": 128.094915669653,
    "geocoded_by": "kakao"
  },
  {
    "name": "초장동제4투",
    "dong": "초장동",
    "place": "장재초등학교(1층, 로비)",
    "addr": "경상남도 진주시 초북로 66 (초전동)",
    "floor": "1층",
    "lat": 35.214786309928,
    "lng": 128.109930594444,
    "geocoded_by": "kakao"
  },
  {
    "name": "충무공동제4투",
    "dong": "충무공동",
    "place": "무지개초등학교(1층, 급식소 앞 로비)",
    "addr": "경상남도 진주시 영천강로119번길 37 (충무공동)",
    "floor": "1층",
    "lat": 35.1714470928645,
    "lng": 128.137277215559,
    "geocoded_by": "kakao"
  },
  {
    "name": "판문동제4투",
    "dong": "판문동",
    "place": "엠코타운 더프라하 커뮤니티센터2(1층, 멀티룸)",
    "addr": "경상남도 진주시 새평거로 30 (평거동, 엠코타운더프라하)",
    "floor": "1층",
    "lat": 35.1656079185314,
    "lng": 128.049864949575,
    "geocoded_by": "kakao"
  },
  {
    "name": "평거동제4투",
    "dong": "평거동",
    "place": "제일중학교(1층, 3-4반)",
    "addr": "경상남도 진주시 평거로 60 (평거동)",
    "floor": "1층",
    "lat": 35.1756148957891,
    "lng": 128.066694850586,
    "geocoded_by": "kakao"
  },
  {
    "name": "하대동제4투",
    "dong": "하대동",
    "place": "도동초등학교 강당(1층)",
    "addr": "경상남도 진주시 대신로 324 (하대동)",
    "floor": "1층",
    "lat": 35.190155272212,
    "lng": 128.117678066536,
    "geocoded_by": "kakao"
  },
  {
    "name": "가호동제4투",
    "dong": "가호동",
    "place": "가좌초등학교 후관(1층, 다목적실)",
    "addr": "경상남도 진주시 내동로348번길 17 (가좌동)",
    "floor": "1층",
    "lat": 35.1495778421855,
    "lng": 128.103331990531,
    "geocoded_by": "kakao"
  },
  {
    "name": "금산면제4투",
    "dong": "금산면",
    "place": "금호초등학교(1층, 현관)",
    "addr": "경상남도 진주시 금산면 중천로67번길 25",
    "floor": "1층",
    "lat": 35.2190289351694,
    "lng": 128.143486912626,
    "geocoded_by": "kakao"
  },
  {
    "name": "상대동제4투",
    "dong": "상대동",
    "place": "진주동부농업협동조합(3층,구예식장)",
    "addr": "경상남도 진주시 대신로 301 (상대동)",
    "floor": "3층이상",
    "lat": 35.1873615288812,
    "lng": 128.11667093609,
    "geocoded_by": "kakao"
  },
  {
    "name": "상봉동제4투",
    "dong": "상봉동",
    "place": "진주시민방위체험센터(1층)",
    "addr": "경상남도 진주시 상봉대룡길 42 (상봉동)",
    "floor": "1층",
    "lat": 35.2035267132653,
    "lng": 128.067142975733,
    "geocoded_by": "kakao"
  },
  {
    "name": "가호동제5투",
    "dong": "가호동",
    "place": "에일린의 뜰 아파트(지하1층, 중앙광장)",
    "addr": "경상남도 진주시 강변길 31 (가좌동, 가호 에일린의 뜰 아파트)",
    "floor": "지하",
    "lat": 35.1654981611534,
    "lng": 128.109354934258,
    "geocoded_by": "kakao"
  },
  {
    "name": "상대동제5투",
    "dong": "상대동",
    "place": "진주축산업협동조합(1층)",
    "addr": "경상남도 진주시 동진로 213 (상대동)",
    "floor": "1층",
    "lat": 35.1800521587588,
    "lng": 128.114442476554,
    "geocoded_by": "kakao"
  },
  {
    "name": "천전동제5투",
    "dong": "천전동",
    "place": "천전동행정복지센터(2층, 회의실)",
    "addr": "경상남도 진주시 망경남길44번길 22 (망경동)",
    "floor": "2층",
    "lat": 35.1831498229719,
    "lng": 128.085497606253,
    "geocoded_by": "kakao"
  },
  {
    "name": "초장동제5투",
    "dong": "초장동",
    "place": "힐스테이트초전 커뮤니티센터(1층, 로비) ",
    "addr": "경상남도 진주시 초북로 95 (초전동, 힐스테이트 초전)",
    "floor": "1층",
    "lat": 35.2128448925696,
    "lng": 128.106310260109,
    "geocoded_by": "kakao"
  },
  {
    "name": "충무공동제5투",
    "dong": "충무공동",
    "place": "대곡중학교(1층, 로비)",
    "addr": "경상남도 진주시 소호로 8 (충무공동)",
    "floor": "1층",
    "lat": 35.1706783659243,
    "lng": 128.136308377472,
    "geocoded_by": "kakao"
  },
  {
    "name": "판문동제5투",
    "dong": "판문동",
    "place": "수정초등학교(1층, 현관)",
    "addr": "경상남도 진주시 진양호로84번길 20 (평거동)",
    "floor": "1층",
    "lat": 35.1656283769408,
    "lng": 128.048251980473,
    "geocoded_by": "kakao"
  },
  {
    "name": "평거동제5투",
    "dong": "평거동",
    "place": "신진초등학교(1층, 과학실앞)",
    "addr": "경상남도 진주시 신평공원길57번길 19 (평거동)",
    "floor": "1층",
    "lat": 35.1748607458817,
    "lng": 128.066472921398,
    "geocoded_by": "kakao"
  },
  {
    "name": "하대동제5투",
    "dong": "하대동",
    "place": "진주제일여자고등학교 강당(1층)",
    "addr": "경상남도 진주시 하대로34번길 11-9 (하대동)",
    "floor": "1층",
    "lat": 35.1906552527563,
    "lng": 128.114310474051,
    "geocoded_by": "kakao"
  },
  {
    "name": "가호동제6투",
    "dong": "가호동",
    "place": "센트럴웰가(1층, 탁구장)",
    "addr": "경상남도 진주시 진주역로73번길 33 (가좌동, 센트럴웰가)",
    "floor": "1층",
    "lat": 35.1526869817041,
    "lng": 128.111280001395,
    "geocoded_by": "kakao"
  },
  {
    "name": "천전동제6투",
    "dong": "천전동",
    "place": "망경초등학교 다목적실(2층)",
    "addr": "경상남도 진주시 천수로 175 (망경동)",
    "floor": "2층",
    "lat": 35.1788879235723,
    "lng": 128.082386310063,
    "geocoded_by": "kakao"
  },
  {
    "name": "하대동제6투",
    "dong": "하대동",
    "place": "진주중앙고등학교 강당(1층)",
    "addr": "경상남도 진주시 하대로 59 (하대동)",
    "floor": "1층",
    "lat": 35.1940098560428,
    "lng": 128.119014158396,
    "geocoded_by": "kakao"
  },
  {
    "name": "천전동제7투",
    "dong": "천전동",
    "place": "한주럭키아파트 경로당(1층)",
    "addr": "경상남도 진주시 진주대로 859 (주약동, 한주럭키아파트)",
    "floor": "1층",
    "lat": 35.1776517644875,
    "lng": 128.090557220247,
    "geocoded_by": "kakao"
  },
  {
    "name": "천전동제8투",
    "dong": "천전동",
    "place": "주약초등학교 B동(1층, 돌봄교실)",
    "addr": "경상남도 진주시 천수로 64 (주약동)",
    "floor": "1층",
    "lat": 35.1721151389224,
    "lng": 128.092059637522,
    "geocoded_by": "kakao"
  }
]